"state_name","district_name","area_sq_km","perimeter_km","bbox_xmin","bbox_ymin","bbox_xmax","bbox_ymax","centroid_lon","centroid_lat","num_vertices","compactness"
"Andaman & Nicobar Islands","Nicobars",1681.86937020317,552.050806553147,68.1632453,6.75541679282425,97.3941649,37.0883417917111,93.6219383251545,7.48998041980732,148,0.0693496107766437
"Andaman & Nicobar Islands","North & Middle Andaman",3439.47266892337,882.842734841548,68.1632453,6.75541679282425,97.3941649,37.0883417917111,92.8754187189901,12.8289781266979,393,0.0554542750185018
"Andaman & Nicobar Islands","South Andaman",2481.87663508523,761.573520408351,68.1632453,6.75541679282425,97.3941649,37.0883417917111,92.6428482587772,11.4743385513535,253,0.0537732621540208
"Andhra Pradesh","Anantapur",19234.7386690961,1182.78361735262,68.1632453,6.75541679282425,97.3941649,37.0883417917111,77.5706648437674,14.474791549025,254,0.172776850525513
"Andhra Pradesh","Chittoor",15171.8414064434,1001.84643714151,68.1632453,6.75541679282425,97.3941649,37.0883417917111,79.0030802425295,13.4562040055081,243,0.189952862363226
"Andhra Pradesh","East Godavari",10815.5003593113,671.441735125191,68.1632453,6.75541679282425,97.3941649,37.0883417917111,82.0028578567701,17.1828745287924,119,0.301467025089239
"Andhra Pradesh","Guntur",11369.5439538647,685.657656363891,68.1632453,6.75541679282425,97.3941649,37.0883417917111,80.0811491636631,16.2914110217027,107,0.303905282571921
"Andhra Pradesh","Krishna",8686.54471325493,748.174000422369,68.1632453,6.75541679282425,97.3941649,37.0883417917111,80.7960568037666,16.5469033848126,143,0.19500767272517
"Andhra Pradesh","Kurnool",17800.3008334394,789.913224871546,68.1632453,6.75541679282425,97.3941649,37.0883417917111,78.0014330960108,15.5270838010638,132,0.358491147961913
"Andhra Pradesh","Prakasam",17820.4044984152,738.2520229739,68.1632453,6.75541679282425,97.3941649,37.0883417917111,79.5120553823312,15.6105435247144,124,0.410882959613968
"Andhra Pradesh","Sri Potti Sriramulu Nellore",13354.1882907022,619.277156665445,68.1632453,6.75541679282425,97.3941649,37.0883417917111,79.7306242900974,14.4158219388718,109,0.437579772866415
"Andhra Pradesh","Srikakulam",5828.23968838571,543.140167616589,68.1632453,6.75541679282425,97.3941649,37.0883417917111,84.0196841269979,18.5924121099278,115,0.248269531127505
"Andhra Pradesh","Visakhapatnam",11415.693043783,805.605933640668,68.1632453,6.75541679282425,97.3941649,37.0883417917111,82.6820995272398,17.8836538209834,159,0.22103794481194
"Andhra Pradesh","Vizianagaram",6233.7054155038,662.468243818311,68.1632453,6.75541679282425,97.3941649,37.0883417917111,83.3791847287788,18.4545809664447,154,0.178494981319371
"Andhra Pradesh","West Godavari",7785.31160814134,463.428605083357,68.1632453,6.75541679282425,97.3941649,37.0883417917111,81.3924203810181,16.8878688590866,76,0.455533362885393
"Andhra Pradesh","Y.S.R.",15116.0627946011,682.442353418536,68.1632453,6.75541679282425,97.3941649,37.0883417917111,78.7750742989918,14.4495427084397,110,0.407865158261131
"Arunachal Pradesh","Anjaw",6991.28324410896,377.853233310954,68.1632453,6.75541679282425,97.3941649,37.0883417917111,96.8155768612455,28.1033449980728,58,0.61534754995372
"Arunachal Pradesh","Changlang",5093.35224877686,493.106788160625,68.1632453,6.75541679282425,97.3941649,37.0883417917111,96.3478891089456,27.3673519515089,74,0.263227715221014
"Arunachal Pradesh","Dibang Valley",9728.52472351863,512.208159550069,68.1632453,6.75541679282425,97.3941649,37.0883417917111,95.9015744451816,28.8472729784577,95,0.465976339921126
"Arunachal Pradesh","East Kameng",6337.59062156349,454.784249666167,68.1632453,6.75541679282425,97.3941649,37.0883417917111,92.9519841969077,27.4469880799809,78,0.385055397342299
"Arunachal Pradesh","East Siang",2176.05421194131,255.901271114586,68.1632453,6.75541679282425,97.3941649,37.0883417917111,95.2652779386296,28.0056566687444,34,0.417575191060113
"Arunachal Pradesh","Kra Daadi",2426.20117044865,245.619771786572,68.1632453,6.75541679282425,97.3941649,37.0883417917111,93.7002338164603,27.9814110877703,44,0.50537066018577
"Arunachal Pradesh","Kurung Kumey",4473.57621432353,326.624686135271,68.1632453,6.75541679282425,97.3941649,37.0883417917111,93.1993236231552,28.0127983060411,57,0.526946705752718
"Arunachal Pradesh","Lohit",2557.88450226451,374.414657857897,68.1632453,6.75541679282425,97.3941649,37.0883417917111,96.2832665611121,27.9397609268144,45,0.229289997563388
"Arunachal Pradesh","Longding",941.587841276159,165.334971417858,68.1632453,6.75541679282425,97.3941649,37.0883417917111,95.336129023586,26.8576423813909,30,0.432853821980633
"Arunachal Pradesh","Lower Dibang Valley",3642.64930329344,376.168647192298,68.1632453,6.75541679282425,97.3941649,37.0883417917111,95.8551688180915,28.2566161823818,50,0.323490875255314
"Arunachal Pradesh","Lower Subansiri",2707.67978499549,278.244313149503,68.1632453,6.75541679282425,97.3941649,37.0883417917111,93.940909047921,27.6266705706603,44,0.439495641949101
"Arunachal Pradesh","Namsai",1304.81273009848,159.668306192692,68.1632453,6.75541679282425,97.3941649,37.0883417917111,96.0475217366894,27.7067872874099,23,0.64316234911646
"Arunachal Pradesh","Papum Pare",3542.72055469074,362.757014862095,68.1632453,6.75541679282425,97.3941649,37.0883417917111,93.5912343275874,27.2746115895312,58,0.3383102236613
"Arunachal Pradesh","Siang",3015.73739514547,353.120209729428,68.1632453,6.75541679282425,97.3941649,37.0883417917111,94.8220014125758,28.4133899366712,56,0.303919270274527
"Arunachal Pradesh","Tawang",2168.8827080772,243.892154002721,68.1632453,6.75541679282425,97.3941649,37.0883417917111,91.9706773083517,27.6562335182926,44,0.45819492189446
"Arunachal Pradesh","Tirap",1075.56821623679,153.035816672456,68.1632453,6.75541679282425,97.3941649,37.0883417917111,95.5306491358251,27.0347994194433,26,0.577114057522054
"Arunachal Pradesh","Upper Siang",6628.54291619334,429.23561932292,68.1632453,6.75541679282425,97.3941649,37.0883417917111,94.9363168208115,28.8147087105368,72,0.452102000397124
"Arunachal Pradesh","Upper Subansiri",6633.04346066087,438.405458581754,68.1632453,6.75541679282425,97.3941649,37.0883417917111,93.9216118908232,28.300563643735,74,0.433681404817349
"Arunachal Pradesh","West Kameng",5084.98830505613,348.867957137106,68.1632453,6.75541679282425,97.3941649,37.0883417917111,92.3897083987151,27.3034236564074,66,0.52502218872785
"Arunachal Pradesh","West Siang",6253.16524140006,553.026656792903,68.1632453,6.75541679282425,97.3941649,37.0883417917111,94.4737639872623,28.2633704933875,92,0.256931669074888
"Assam","Baksa",2435.22255951775,358.60988100935,68.1632453,6.75541679282425,97.3941649,37.0883417917111,91.3560597031138,26.6628536158456,92,0.237960032075354
"Assam","Barpeta",2280.16489452628,309.621161160331,68.1632453,6.75541679282425,97.3941649,37.0883417917111,91.0044915590763,26.3402930999185,86,0.298892383943831
"Assam","Biswanath",1787.07998101066,211.735629040383,68.1632453,6.75541679282425,97.3941649,37.0883417917111,93.3851200177414,26.8297852532313,34,0.500917226038923
"Assam","Bongaigaon",1089.20115723304,213.855225779793,68.1632453,6.75541679282425,97.3941649,37.0883417917111,90.6191362934911,26.3600160182952,70,0.299280364254769
"Assam","Cachar",3775.95733053703,335.692397848202,68.1632453,6.75541679282425,97.3941649,37.0883417917111,92.8575217087815,24.8123067289912,73,0.421069640497214
"Assam","Charaideo",1031.95045279673,179.225160777128,68.1632453,6.75541679282425,97.3941649,37.0883417917111,95.0483249755896,27.0645064397347,39,0.403711157821181
"Assam","Chirang",1910.79351510037,235.426318422542,68.1632453,6.75541679282425,97.3941649,37.0883417917111,90.6003040163294,26.6599567069589,51,0.433225089677131
"Assam","Darrang",1587.64065880928,276.674597801962,68.1632453,6.75541679282425,97.3941649,37.0883417917111,92.030450030538,26.4472893895203,72,0.260629458623769
"Assam","Dhemaji",2461.08000151916,356.604222359107,68.1632453,6.75541679282425,97.3941649,37.0883417917111,94.7737106808024,27.5895466996468,64,0.243199475059694
"Assam","Dhubri",1555.85654607746,358.087527143273,68.1632453,6.75541679282425,97.3941649,37.0883417917111,90.0314978916709,26.1645929625084,114,0.1524758375062
"Assam","Dibrugarh",3379.16846324547,351.359974409627,68.1632453,6.75541679282425,97.3941649,37.0883417917111,95.0532851781174,27.3666309053663,83,0.343965697307718
"Assam","Dima Hasao",4908.7473236367,383.513654232881,68.1632453,6.75541679282425,97.3941649,37.0883417917111,93.033787954388,25.3771255630326,84,0.419390781391557
"Assam","Goalpara",1940.34426088267,275.058122723553,68.1632453,6.75541679282425,97.3941649,37.0883417917111,90.6018778113154,26.052536643587,57,0.322284712423838
"Assam","Golaghat",3533.77062045865,433.333412437811,68.1632453,6.75541679282425,97.3941649,37.0883417917111,93.8345826132344,26.4766994203137,116,0.236485145343479
"Assam","Hailakandi",1340.66155889426,206.622771092256,68.1632453,6.75541679282425,97.3941649,37.0883417917111,92.586623595759,24.4977233622783,35,0.394614153136734
"Assam","Hojai",1424.46298249141,189.270164263373,68.1632453,6.75541679282425,97.3941649,37.0883417917111,92.9797651176315,25.978873995213,46,0.499685461453278
"Assam","Jorhat",2039.65923680134,245.335838482364,68.1632453,6.75541679282425,97.3941649,37.0883417917111,94.2618313784778,26.7144008677946,62,0.42583905751527
"Assam","Kamrup",3101.5701597629,401.256166914465,68.1632453,6.75541679282425,97.3941649,37.0883417917111,91.4140965150593,26.1000603032813,85,0.242073936973609
"Assam","Kamrup Metropolitan",986.137109845518,175.798804310273,68.1632453,6.75541679282425,97.3941649,37.0883417917111,91.8886559481275,26.1306607950799,40,0.400973187070514
"Assam","Karbi Anglong",7299.27267356057,493.907310160106,68.1632453,6.75541679282425,97.3941649,37.0883417917111,93.4046566501623,26.1560731940802,144,0.376009262618092
"Assam","Karimganj",1837.58169187034,212.60058827241,68.1632453,6.75541679282425,97.3941649,37.0883417917111,92.3752097359624,24.5837828649859,35,0.510890227592586
"Assam","Kokrajhar",3136.07717647312,319.476411972905,68.1632453,6.75541679282425,97.3941649,37.0883417917111,90.1197110223021,26.4941275068856,81,0.386117076573203
"Assam","Lakhimpur",2991.7016336953,308.729000657917,68.1632453,6.75541679282425,97.3941649,37.0883417917111,94.1420487269832,27.1753829456864,68,0.394433041397936
"Assam","Majuli",770.988132222398,170.610772260748,68.1632453,6.75541679282425,97.3941649,37.0883417917111,94.2928623128655,27.0010659410313,36,0.332847009606579
"Assam","Morigaon",1484.45249043783,185.463761966983,68.1632453,6.75541679282425,97.3941649,37.0883417917111,92.2839986651728,26.2815601379299,39,0.542323017152516
"Assam","Nagaon",2600.44681823146,431.933687444809,68.1632453,6.75541679282425,97.3941649,37.0883417917111,92.7543917278316,26.3635809451166,120,0.175155462727413
"Assam","Nalbari",1032.27211810219,179.790444056376,68.1632453,6.75541679282425,97.3941649,37.0883417917111,91.3813887106416,26.3717146077872,43,0.401301562786052
"Assam","Sivasagar",1572.95105139253,217.657882895406,68.1632453,6.75541679282425,97.3941649,37.0883417917111,94.6594043423205,26.9725815683423,53,0.417230713842438
"Assam","Sonitpur",3462.77070726696,274.833188710217,68.1632453,6.75541679282425,97.3941649,37.0883417917111,92.6988960179732,26.759165527269,55,0.576096511745958
"Assam","South Salmara Mancachar",655.505884745737,168.179149771856,68.1632453,6.75541679282425,97.3941649,37.0883417917111,89.960928743119,25.8203904761096,32,0.29123405271465
"Assam","Tinsukia",3829.48150476441,335.144586923255,68.1632453,6.75541679282425,97.3941649,37.0883417917111,95.6228981711866,27.5841665871538,70,0.428435473034548
"Assam","Udalguri",2043.56764833175,316.551792819193,68.1632453,6.75541679282425,97.3941649,37.0883417917111,92.0321193531908,26.7310439357404,88,0.256276820763201
"Assam","West Karbi Anglong",3054.4522920414,335.82808031972,68.1632453,6.75541679282425,97.3941649,37.0883417917111,92.535592071255,25.8521143145197,82,0.340337023556479
"Bihar","Araria",2745.41949840256,287.596814562709,68.1632453,6.75541679282425,97.3941649,37.0883417917111,87.3574813176951,26.1927216416109,74,0.417109839520403
"Bihar","Arwal",524.000294354804,147.919447580952,68.1632453,6.75541679282425,97.3941649,37.0883417917111,84.6495569657478,25.1753397933979,38,0.300947571054452
"Bihar","Aurangabad",3278.91543089567,307.353001206829,68.1632453,6.75541679282425,97.3941649,37.0883417917111,84.4030669843355,24.7938242897961,71,0.436179412451113
"Bihar","Banka",3038.25925992896,268.13040408298,68.1632453,6.75541679282425,97.3941649,37.0883417917111,86.8384908893609,24.8512744601658,69,0.531058749959613
"Bihar","Begusarai",1902.44299442999,266.962792096787,68.1632453,6.75541679282425,97.3941649,37.0883417917111,86.1280468426702,25.4953752821299,70,0.335444012683629
"Bihar","Bhagalpur",2561.66879202133,289.512764817944,68.1632453,6.75541679282425,97.3941649,37.0883417917111,87.0789102402837,25.2682749546,72,0.38405852336797
"Bihar","Bhojpur",2382.39719583092,237.690797930083,68.1632453,6.75541679282425,97.3941649,37.0883417917111,84.5352489743012,25.474063062417,56,0.529906560216991
"Bihar","Buxer",1702.80439863619,201.317242663131,68.1632453,6.75541679282425,97.3941649,37.0883417917111,84.0909974378653,25.4880934945401,46,0.527974175266211
"Bihar","Darbhanga",2508.12908029927,321.478526633099,68.1632453,6.75541679282425,97.3941649,37.0883417917111,86.0471439688822,26.0856401285417,89,0.304969079654231
"Bihar","Gaya",4976.75826349401,483.410511281874,68.1632453,6.75541679282425,97.3941649,37.0883417917111,84.9284484882794,24.6991285357682,125,0.267623490858061
"Bihar","Gopalganj",2036.51328237853,284.148638113329,68.1632453,6.75541679282425,97.3941649,37.0883417917111,84.3684160112516,26.4456568485226,64,0.31696109112187
"Bihar","Jamui",3111.5570192969,326.282590736494,68.1632453,6.75541679282425,97.3941649,37.0883417917111,86.2906852789362,24.7855639499022,68,0.36728215151099
"Bihar","Jehanabad",1077.10909999528,179.917966098514,68.1632453,6.75541679282425,97.3941649,37.0883417917111,84.9943716027506,25.1509341755906,52,0.418138823765933
"Bihar","Kaimur (Bhabua)",3353.59888046777,276.883158811732,68.1632453,6.75541679282425,97.3941649,37.0883417917111,83.5978946095052,24.9928019743148,66,0.549702735439225
"Bihar","Katihar",3030.20358524958,343.429669199472,68.1632453,6.75541679282425,97.3941649,37.0883417917111,87.6392487710765,25.5437633547504,92,0.322853908697147
"Bihar","Khagaria",1490.96220993599,217.679827288413,68.1632453,6.75541679282425,97.3941649,37.0883417917111,86.5964959258936,25.5120506442914,54,0.395403156134807
"Bihar","Kishanganj",1919.62716441546,274.718442598939,68.1632453,6.75541679282425,97.3941649,37.0883417917111,87.9309034187654,26.2973071403252,67,0.319632638213506
"Bihar","Lakhisarai",1204.03093285041,175.977606554114,68.1632453,6.75541679282425,97.3941649,37.0883417917111,86.1381296300303,25.1670339577334,36,0.488576636435924
"Bihar","Madhepura",1808.4876248479,271.061738979342,68.1632453,6.75541679282425,97.3941649,37.0883417917111,86.8955807241928,25.8189662256734,63,0.309306441786445
"Bihar","Madhubani",3332.09132159746,341.836071772964,68.1632453,6.75541679282425,97.3941649,37.0883417917111,86.2114631752018,26.4017182260494,77,0.358336445368574
"Bihar","Munger",1407.6351764005,204.298019445022,68.1632453,6.75541679282425,97.3941649,37.0883417917111,86.5246821873567,25.2083269724675,53,0.423810451346514
"Bihar","Muzaffarpur",3159.26324356423,307.201040699003,68.1632453,6.75541679282425,97.3941649,37.0883417917111,85.3235723388799,26.1525667872666,94,0.420678496915649
"Bihar","Nalanda",2359.48191403255,283.251666749265,68.1632453,6.75541679282425,97.3941649,37.0883417917111,85.4513400032965,25.2214440023999,81,0.369557115441909
"Bihar","Nawada",2481.63528736191,301.949533786845,68.1632453,6.75541679282425,97.3941649,37.0883417917111,85.5875971480306,24.8118882433312,75,0.342041729049419
"Bihar","Pashchim Champaran",5311.06673965435,377.907569427989,68.1632453,6.75541679282425,97.3941649,37.0883417917111,84.3351742276055,27.0792509075015,78,0.467326535030484
"Bihar","Patna",3191.29448703609,442.821925462799,68.1632453,6.75541679282425,97.3941649,37.0883417917111,85.2197265758674,25.4567029386673,105,0.20451186728083
"Bihar","Purba Champaran",3966.89441182859,338.124880955071,68.1632453,6.75541679282425,97.3941649,37.0883417917111,84.9214567318824,26.6153681394437,96,0.436019834561384
"Bihar","Purnia",3192.95822642171,330.62311544245,68.1632453,6.75541679282425,97.3941649,37.0883417917111,87.4024558561363,25.8131561856968,84,0.367059672606759
"Bihar","Rohtas",3843.30270683324,339.292586216958,68.1632453,6.75541679282425,97.3941649,37.0883417917111,84.0200252881383,24.9813216768018,57,0.41953260196708
"Bihar","Saharsa",1706.76199223759,214.483206081687,68.1632453,6.75541679282425,97.3941649,37.0883417917111,86.58671506493,25.8180453547411,54,0.466225734030447
"Bihar","Samastipur",2646.75305974504,332.951636068269,68.1632453,6.75541679282425,97.3941649,37.0883417917111,85.865308649776,25.7758109878689,89,0.300027443381955
"Bihar","Saran",2653.29841480253,271.090468604512,68.1632453,6.75541679282425,97.3941649,37.0883417917111,84.8153562610266,25.9067117714255,59,0.453698627013738
"Bihar","Sheikhpura",678.1255128059,143.14749254075,68.1632453,6.75541679282425,97.3941649,37.0883417917111,85.8381492167071,25.11958851647,40,0.415865083322683
"Bihar","Sheohar",440.649907470133,111.123001062303,68.1632453,6.75541679282425,97.3941649,37.0883417917111,85.3033192128607,26.4971993742425,40,0.448430995981877
"Bihar","Sitamarhi",2181.27398571736,275.295565611756,68.1632453,6.75541679282425,97.3941649,37.0883417917111,85.5517205854558,26.5853622282804,79,0.361677633205593
"Bihar","Siwan",2214.61073508532,255.148062289154,68.1632453,6.75541679282425,97.3941649,37.0883417917111,84.3811655212365,26.162848785417,62,0.427486806731567
"Bihar","Supaul",2518.67045372542,279.387370617892,68.1632453,6.75541679282425,97.3941649,37.0883417917111,86.8028087501434,26.2475785868727,67,0.40547835009622
"Bihar","Vaishali",2076.79513517278,216.003011178952,68.1632453,6.75541679282425,97.3941649,37.0883417917111,85.366406394944,25.7625978611002,48,0.559350345813715
"Chandigarh","Chandigarh",113.717555146078,43.8937516076187,68.1632453,6.75541679282425,97.3941649,37.0883417917111,76.7678820957067,30.7346815679043,10,0.741706311722104
"Chhattisgarh","Balod",2750.11079079428,313.456098643591,68.1632453,6.75541679282425,97.3941649,37.0883417917111,81.1554626636507,20.6867698949079,82,0.351727727642879
"Chhattisgarh","Baloda Bazar",4695.02449161365,417.943011650383,68.1632453,6.75541679282425,97.3941649,37.0883417917111,82.3204931398195,21.5792098527977,85,0.337764179832947
"Chhattisgarh","Balrampur",6336.74161858677,555.949409179867,68.1632453,6.75541679282425,97.3941649,37.0883417917111,83.4953528714941,23.5879199805508,110,0.257635269889336
"Chhattisgarh","Bastar",5923.63300107583,481.145436289329,68.1632453,6.75541679282425,97.3941649,37.0883417917111,81.8344261796154,19.0838020125229,108,0.321547595501141
"Chhattisgarh","Bemetara",2854.26516975682,315.76621862471,68.1632453,6.75541679282425,97.3941649,37.0883417917111,81.5193190288209,21.7069880580897,68,0.35972684540105
"Chhattisgarh","Bijapur",8790.02977430084,516.837175056352,68.1632453,6.75541679282425,97.3941649,37.0883417917111,80.7679868745913,18.8388046886109,91,0.413516384589686
"Chhattisgarh","Bilaspur",5531.9484819282,518.045658662893,68.1632453,6.75541679282425,97.3941649,37.0883417917111,82.0673141802941,22.4063028329499,98,0.259031102388034
"Chhattisgarh","Dantewada",2974.02032257443,399.487450379209,68.1632453,6.75541679282425,97.3941649,37.0883417917111,81.3750445487452,18.8182115358499,97,0.234178766613114
"Chhattisgarh","Dhamtari",4080.81260085767,349.976366214489,68.1632453,6.75541679282425,97.3941649,37.0883417917111,81.8029613329524,20.5536589056338,77,0.418676977645645
"Chhattisgarh","Durg",2991.33466508677,288.296163667455,68.1632453,6.75541679282425,97.3941649,37.0883417917111,81.3542321621122,21.1513476997432,69,0.45226933369911
"Chhattisgarh","Gariyaband",4205.45204269311,423.477860578035,68.1632453,6.75541679282425,97.3941649,37.0883417917111,82.2611031990409,20.3705702291592,67,0.294687102192109
"Chhattisgarh","Janjgir-Champa",3858.97025301242,327.716034124196,68.1632453,6.75541679282425,97.3941649,37.0883417917111,82.7313057803414,21.9240526455194,57,0.451529275559611
"Chhattisgarh","Jashpur",5809.6336995763,423.465820483012,68.1632453,6.75541679282425,97.3941649,37.0883417917111,83.8592469257392,22.7978692323841,79,0.407119486132875
"Chhattisgarh","Kabeerdham",4210.74849934771,330.911759535504,68.1632453,6.75541679282425,97.3941649,37.0883417917111,81.2164323185617,22.090779050141,66,0.483219848506123
"Chhattisgarh","Kodagaon",5115.42970821945,410.464437489177,68.1632453,6.75541679282425,97.3941649,37.0883417917111,81.6572700142429,19.7402346389081,80,0.381540736301717
"Chhattisgarh","Korba",6628.91593914732,414.337701895719,68.1632453,6.75541679282425,97.3941649,37.0883417917111,82.6017548688266,22.5332265130218,75,0.485225336595657
"Chhattisgarh","Koriya",6639.97322087261,451.797930178851,68.1632453,6.75541679282425,97.3941649,37.0883417917111,82.2283228258418,23.4693448917384,80,0.408778191523305
"Chhattisgarh","Mahasamund",4739.07336907217,433.385974421528,68.1632453,6.75541679282425,97.3941649,37.0883417917111,82.6039284622487,21.2037427069841,92,0.317068860581732
"Chhattisgarh","Mungeli",2774.54654997931,336.611842070679,68.1632453,6.75541679282425,97.3941649,37.0883417917111,81.7251227061316,22.239762599153,75,0.307711054596559
"Chhattisgarh","Narayanpur",3933.3310683686,374.815334447893,68.1632453,6.75541679282425,97.3941649,37.0883417917111,81.0723409501015,19.5702690376326,70,0.351832266175246
"Chhattisgarh","Raigarh",7064.02417185791,569.878097505838,68.1632453,6.75541679282425,97.3941649,37.0883417917111,83.2985198032228,22.0826727308082,115,0.273336802122956
"Chhattisgarh","Raipur",3527.33181485275,318.65442282593,68.1632453,6.75541679282425,97.3941649,37.0883417917111,81.8497007651307,21.2250653974995,56,0.436532193881216
"Chhattisgarh","Rajnandgaon",8048.84307590802,616.579216772445,68.1632453,6.75541679282425,97.3941649,37.0883417917111,80.8125797663824,21.039899841347,127,0.266051407487247
"Chhattisgarh","Sukma",5246.48075465103,468.048940369326,68.1632453,6.75541679282425,97.3941649,37.0883417917111,81.3439038841534,18.2524564130228,88,0.300950739899947
"Chhattisgarh","Surajpur",5446.19047601492,481.030376274319,68.1632453,6.75541679282425,97.3941649,37.0883417917111,82.8748773856977,23.4046223385143,98,0.295772427636168
"Chhattisgarh","Surguja",4019.01015631226,368.420765036593,68.1632453,6.75541679282425,97.3941649,37.0883417917111,83.2207520425932,22.9264868264468,74,0.372083804926117
"Chhattisgarh","Uttar Bastar Kanker",7171.90726651087,579.223763938253,68.1632453,6.75541679282425,97.3941649,37.0883417917111,81.1198799170554,20.1343388578287,118,0.268628314164812
"Dadra & Nagar Haveli & Daman & Diu","Dadra & Nagar Haveli",488.995114479808,168.714413354314,68.1632453,6.75541679282425,97.3941649,37.0883417917111,73.0701201604104,20.194463625681,54,0.215878808218893
"Dadra & Nagar Haveli & Daman & Diu","Daman",50.4298007506639,37.6533634336701,68.1632453,6.75541679282425,97.3941649,37.0883417917111,72.8591445914824,20.4108936081089,11,0.446981515789523
"Dadra & Nagar Haveli & Daman & Diu","Diu",73.9368313392456,69.0795047278357,68.1632453,6.75541679282425,97.3941649,37.0883417917111,70.8836460507584,20.7184229795041,17,0.194702831788209
"Goa","North Goa",1671.97112143235,231.762130095498,68.1632453,6.75541679282425,97.3941649,37.0883417917111,73.986759208264,15.5496328756184,52,0.391159325400774
"Goa","South Goa",2005.02941673999,279.288994487172,68.1632453,6.75541679282425,97.3941649,37.0883417917111,74.1197556397023,15.1944636962558,68,0.323015206399645
"Gujarat","Ahmadabad",6939.96159350475,730.580034338436,68.1632453,6.75541679282425,97.3941649,37.0883417917111,72.2451159671184,22.7883493709834,187,0.16339220445018
"Gujarat","Amreli",7431.75996165818,588.830083736059,68.1632453,6.75541679282425,97.3941649,37.0883417917111,71.25116004356,21.4228348794878,156,0.269352838971409
"Gujarat","Anand",2829.27510205904,321.788954607164,68.1632453,6.75541679282425,97.3941649,37.0883417917111,72.7820938162615,22.4548933716001,79,0.343354525606881
"Gujarat","Aravali",3260.97253528939,327.731264364539,68.1632453,6.75541679282425,97.3941649,37.0883417917111,73.3313771015332,23.4693670300376,79,0.381523468925986
"Gujarat","Banas Kantha",10614.6117356222,712.059929182388,68.1632453,6.75541679282425,97.3941649,37.0883417917111,72.0272493523349,24.2838796721309,168,0.263075790199097
"Gujarat","Bharuch",5049.31703206931,597.235559282076,68.1632453,6.75541679282425,97.3941649,37.0883417917111,72.9355784481394,21.7893013204647,149,0.177889857990552
"Gujarat","Bhavnagar",6659.01343252132,433.343795793291,68.1632453,6.75541679282425,97.3941649,37.0883417917111,71.8982066393982,21.57246320348,114,0.445609651527853
"Gujarat","Botad",2620.88559671252,326.321031857144,68.1632453,6.75541679282425,97.3941649,37.0883417917111,71.6986670017548,22.1156042334779,84,0.309291366227935
"Gujarat","Chhota Udaipur",3477.33677353983,388.597379212402,68.1632453,6.75541679282425,97.3941649,37.0883417917111,73.8757619759529,22.2176295612275,100,0.289372251079878
"Gujarat","Devbhumi Dwarka",4240.96269132675,483.523795173899,68.1632453,6.75541679282425,97.3941649,37.0883417917111,69.4595227953968,22.125332019993,129,0.227949483779315
"Gujarat","Dohad",3654.66658355186,320.387598462838,68.1632453,6.75541679282425,97.3941649,37.0883417917111,74.1146519565504,22.8608914126193,69,0.447410561833332
"Gujarat","Gandhinagar",2139.81027954979,319.314852722863,68.1632453,6.75541679282425,97.3941649,37.0883417917111,72.6969911140818,23.2540677498764,104,0.263722323665831
"Gujarat","Gir Somnath",3715.98148468867,319.313297048138,68.1632453,6.75541679282425,97.3941649,37.0883417917111,70.7746602903669,20.9691031611743,67,0.457983041817175
"Gujarat","Jamnagar",6488.30870688601,579.251068544917,68.1632453,6.75541679282425,97.3941649,37.0883417917111,70.21263487642,22.3286779386214,155,0.243000787917476
"Gujarat","Junagadh",5010.94289174202,473.114053525938,68.1632453,6.75541679282425,97.3941649,37.0883417917111,70.4134832343102,21.3728720504719,114,0.281318063977368
"Gujarat","Kachchh",42590.6798887068,1742.73465136841,68.1632453,6.75541679282425,97.3941649,37.0883417917111,69.9478002071637,23.6226981721399,449,0.176222721472821
"Gujarat","Kheda",3397.61061298402,361.270050265298,68.1632453,6.75541679282425,97.3941649,37.0883417917111,72.9522670660039,22.8380144331449,100,0.327129379272713
"Gujarat","Mahesana",4396.70821884085,469.512216718796,68.1632453,6.75541679282425,97.3941649,37.0883417917111,72.4679466619914,23.6101925419304,124,0.250636152485361
"Gujarat","Mahisagar",2525.76010284764,312.39663667757,68.1632453,6.75541679282425,97.3941649,37.0883417917111,73.6497560614756,23.1881223275742,74,0.325228999980537
"Gujarat","Morbi",4805.16690986236,425.122064760452,68.1632453,6.75541679282425,97.3941649,37.0883417917111,70.9184255995635,22.8306956138888,117,0.334111211353699
"Gujarat","Narmada",2865.10037287998,317.16431778461,68.1632453,6.75541679282425,97.3941649,37.0883417917111,73.6480156372024,21.7355376250717,78,0.357915957848011
"Gujarat","Navsari",2167.53232152478,260.204708744711,68.1632453,6.75541679282425,97.3941649,37.0883417917111,73.0996191397281,20.811095136766,65,0.402295471064519
"Gujarat","Panch Mahals",3283.66125172952,362.821186663147,68.1632453,6.75541679282425,97.3941649,37.0883417917111,73.6257583241206,22.7187062869203,86,0.313460580375313
"Gujarat","Patan",5772.6484575991,578.905175697069,68.1632453,6.75541679282425,97.3941649,37.0883417917111,71.75891122399,23.7702745512458,152,0.216456239868234
"Gujarat","Porbandar",2298.8596914242,355.810501557146,68.1632453,6.75541679282425,97.3941649,37.0883417917111,69.7795617932665,21.6539912166859,76,0.228183798578936
"Gujarat","Rajkot",7614.55869349796,737.461904313032,68.1632453,6.75541679282425,97.3941649,37.0883417917111,70.746179768273,22.0208911468904,189,0.175944389069691
"Gujarat","Sabar Kantha",4187.80330064113,473.210841422793,68.1632453,6.75541679282425,97.3941649,37.0883417917111,73.0361543714247,23.8098754824491,113,0.235010229749552
"Gujarat","Surat",4201.99648712581,485.006211099962,68.1632453,6.75541679282425,97.3941649,37.0883417917111,73.0833536870434,21.2673695755983,155,0.224476534169375
"Gujarat","Surendranagar",9129.70644348673,783.007760624214,68.1632453,6.75541679282425,97.3941649,37.0883417917111,71.5929622276322,22.7664416493327,201,0.187126176766713
"Gujarat","Tapi",3204.79502614792,459.833786521072,68.1632453,6.75541679282425,97.3941649,37.0883417917111,73.6328370312161,21.1910092772034,105,0.190462011081943
"Gujarat","The Dangs",1727.3532372655,182.300341959729,68.1632453,6.75541679282425,97.3941649,37.0883417917111,73.7024970425578,20.7975156295973,41,0.653154699006796
"Gujarat","Vadodara",4057.42090393522,399.909623347631,68.1632453,6.75541679282425,97.3941649,37.0883417917111,73.2404233771001,22.2480403522862,93,0.318813142655646
"Gujarat","Valsad",2994.49632225139,398.254136043738,68.1632453,6.75541679282425,97.3941649,37.0883417917111,73.1246532737364,20.4146795428435,100,0.237253735158795
"Haryana","Ambala",1469.26875627032,241.957936539954,68.1632453,6.75541679282425,97.3941649,37.0883417917111,76.9371430291231,30.3320420718406,66,0.315377977181039
"Haryana","Bhiwani",3363.29412737945,336.715186398686,68.1632453,6.75541679282425,97.3941649,37.0883417917111,75.8871372112766,28.7829779834821,71,0.372777167921657
"Haryana","Charkhi Dadri",1338.57842391912,233.357711099018,68.1632453,6.75541679282425,97.3941649,37.0883417917111,76.1561680471284,28.5807862192418,56,0.308893928338921
"Haryana","Faridabad",755.937581760092,125.664320152617,68.1632453,6.75541679282425,97.3941649,37.0883417917111,77.3403785676119,28.3514669452524,26,0.601550135513284
"Haryana","Fatehabad",2564.36453789984,281.967778180169,68.1632453,6.75541679282425,97.3941649,37.0883417917111,75.5680803038531,29.5669149089926,61,0.405313119953759
"Haryana","Gurgaon",1229.67588296611,198.425431106935,68.1632453,6.75541679282425,97.3941649,37.0883417917111,76.9362347949545,28.3723294913606,47,0.392469447948749
"Haryana","Hisar",4006.41630451301,355.116334661198,68.1632453,6.75541679282425,97.3941649,37.0883417917111,75.8141718454209,29.2130653437489,77,0.399231352188174
"Haryana","Jhajjar",1838.3401380652,265.317119991204,68.1632453,6.75541679282425,97.3941649,37.0883417917111,76.6407863563041,28.6063765251364,62,0.328174766455785
"Haryana","Jind",2766.86926479424,325.862007372733,68.1632453,6.75541679282425,97.3941649,37.0883417917111,76.2990952015822,29.4411523944729,62,0.327439483126177
"Haryana","Kaithal",2326.69944340179,277.167892702145,68.1632453,6.75541679282425,97.3941649,37.0883417917111,76.4106622408609,29.8141597076756,60,0.380596079334601
"Haryana","Karnal",2437.49774398895,247.013154315832,68.1632453,6.75541679282425,97.3941649,37.0883417917111,76.8876691514195,29.6863794978764,56,0.502011797384428
"Haryana","Kurukshetra",1702.0347713356,205.782649684976,68.1632453,6.75541679282425,97.3941649,37.0883417917111,76.7776787751538,30.0409968653451,47,0.50508070997545
"Haryana","Mahendragarh",1925.54604267794,318.032262742475,68.1632453,6.75541679282425,97.3941649,37.0883417917111,76.136335839521,28.1761573457681,82,0.239233180132659
"Haryana","Mewat",1521.50273993602,268.872668036418,68.1632453,6.75541679282425,97.3941649,37.0883417917111,77.0401007528235,27.9891659101287,67,0.264477840002131
"Haryana","Palwal",1319.9739927952,163.711077299543,68.1632453,6.75541679282425,97.3941649,37.0883417917111,77.3241970483768,28.0622230066339,40,0.618898037720889
"Haryana","Panchkula",899.722372492265,169.156008612593,68.1632453,6.75541679282425,97.3941649,37.0883417917111,76.9653763973295,30.6783328066933,41,0.395133203736677
"Haryana","Panipat",1189.42426362782,158.786400886636,68.1632453,6.75541679282425,97.3941649,37.0883417917111,76.921055632868,29.3361458878231,34,0.592816178977006
"Haryana","Rewari",1520.0790287245,225.744578110324,68.1632453,6.75541679282425,97.3941649,37.0883417917111,76.532006655248,28.2451742653701,54,0.374836069151927
"Haryana","Rohtak",1678.62199405652,210.226545709916,68.1632453,6.75541679282425,97.3941649,37.0883417917111,76.5215380373314,28.9178237821272,44,0.477295856789851
"Haryana","Sirsa",4223.25983673576,372.488557416067,68.1632453,6.75541679282425,97.3941649,37.0883417917111,74.8917857696482,29.6167850512513,81,0.382500312375585
"Haryana","Sonipat",2198.53467053729,241.966970009305,68.1632453,6.75541679282425,97.3941649,37.0883417917111,76.8702931031912,29.0620094831308,54,0.471879391279277
"Haryana","Yamunanagar",1696.29965961111,209.877625673881,68.1632453,6.75541679282425,97.3941649,37.0883417917111,77.2969734798137,30.2396143513448,49,0.483927334849649
"Himachal Pradesh","Bilaspur",1157.04833828342,188.439500941986,68.1632453,6.75541679282425,97.3941649,37.0883417917111,76.6564608661492,31.3756348978266,43,0.409465651367255
"Himachal Pradesh","Chamba",6462.27580468638,476.763674377637,68.1632453,6.75541679282425,97.3941649,37.0883417917111,76.3381131982136,32.6788443289714,79,0.357263819591997
"Himachal Pradesh","Hamirpur",1116.05342275233,159.215497770901,68.1632453,6.75541679282425,97.3941649,37.0883417917111,76.5111039639643,31.6704419326011,32,0.553253499708266
"Himachal Pradesh","Kangra",5707.73295509234,472.374112641665,68.1632453,6.75541679282425,97.3941649,37.0883417917111,76.303529555822,32.1100903142365,89,0.321441045240289
"Himachal Pradesh","Kinnaur",6269.3173045686,443.099296149734,68.1632453,6.75541679282425,97.3941649,37.0883417917111,78.3875073103794,31.595309920309,81,0.401261964205537
"Himachal Pradesh","Kullu",5514.81017211032,358.76132049266,68.1632453,6.75541679282425,97.3941649,37.0883417917111,77.385324076718,31.9072399009405,59,0.538429943687766
"Himachal Pradesh","Lahul & Spiti",13616.2858430655,781.061757035433,68.1632453,6.75541679282425,97.3941649,37.0883417917111,77.5859570169413,32.4881676806753,150,0.280477337275954
"Himachal Pradesh","Mandi",3938.00230809364,285.544067391423,68.1632453,6.75541679282425,97.3941649,37.0883417917111,76.9792506556101,31.6408636883096,49,0.606931317320791
"Himachal Pradesh","Shimla",5131.35222890162,455.995752193032,68.1632453,6.75541679282425,97.3941649,37.0883417917111,77.617289965026,31.2002056211227,97,0.31011308880469
"Himachal Pradesh","Sirmaur",2804.08587465016,280.746260677426,68.1632453,6.75541679282425,97.3941649,37.0883417917111,77.4160911305968,30.6720808358628,62,0.447067616467523
"Himachal Pradesh","Solan",1940.98478051265,246.148937534921,68.1632453,6.75541679282425,97.3941649,37.0883417917111,76.8959698614597,31.0461554067058,53,0.402565045813967
"Himachal Pradesh","Una",1526.12882048658,194.731219246473,68.1632453,6.75541679282425,97.3941649,37.0883417917111,76.1947126721212,31.5832790117122,31,0.505743013345285
"Jammu & Kashmir","Anantnag",2837.68375168037,296.842989495346,68.1632453,6.75541679282425,97.3941649,37.0883417917111,75.3216396669011,33.8261196945448,53,0.404687941669153
"Jammu & Kashmir","Badgam",1340.02380237483,148.782377773711,68.1632453,6.75541679282425,97.3941649,37.0883417917111,74.6393944543372,33.9245796447203,25,0.760710457270571
"Jammu & Kashmir","Bandipore",4098.50984708947,379.480721353068,68.1632453,6.75541679282425,97.3941649,37.0883417917111,74.8710007679935,34.5864880633718,61,0.35764850332804
"Jammu & Kashmir","Baramula",2236.87471797541,236.618658319453,68.1632453,6.75541679282425,97.3941649,37.0883417917111,74.3092738650534,34.165727048034,48,0.502057605025279
"Jammu & Kashmir","Doda",2497.84770835369,251.617493722277,68.1632453,6.75541679282425,97.3941649,37.0883417917111,75.7038673645881,33.093976975865,37,0.495785882361748
"Jammu & Kashmir","Ganderbal",1732.38976211321,274.744142541681,68.1632453,6.75541679282425,97.3941649,37.0883417917111,75.019322531161,34.2619907495872,53,0.288402212773215
"Jammu & Kashmir","Jammu",2451.54963378725,296.669542473531,68.1632453,6.75541679282425,97.3941649,37.0883417917111,74.7477638354513,32.803991241008,61,0.350029486349079
"Jammu & Kashmir","Kargil",14220.6955500343,774.958422057384,68.1632453,6.75541679282425,97.3941649,37.0883417917111,76.4952552283246,33.9025883534219,108,0.297559553178842
"Jammu & Kashmir","Kathua",2527.81510706852,235.282305680092,68.1632453,6.75541679282425,97.3941649,37.0883417917111,75.581935001282,32.5726797902428,38,0.573821259177327
"Jammu & Kashmir","Kishtwar",8347.94909266973,477.96080262129,68.1632453,6.75541679282425,97.3941649,37.0883417917111,75.971321779088,33.5447693552455,78,0.459203397398379
"Jammu & Kashmir","Kulgam",1293.68178931108,195.732600277607,68.1632453,6.75541679282425,97.3941649,37.0883417917111,74.863156135168,33.6073891448377,38,0.424337093600679
"Jammu & Kashmir","Kupwara",2779.76726336728,241.672344644984,68.1632453,6.75541679282425,97.3941649,37.0883417917111,74.2079313350724,34.5192310101138,41,0.598087036252012
"Jammu & Kashmir","Leh",153965.808354297,2930.01624816056,68.1632453,6.75541679282425,97.3941649,37.0883417917111,76.8211724950446,35.0438197051606,390,0.225368956112526
"Jammu & Kashmir","Mirpur",3619.68799454065,365.988808843397,68.1632453,6.75541679282425,97.3941649,37.0883417917111,73.9294825246395,33.2412641634064,54,0.339582569207107
"Jammu & Kashmir","Muzaffarabad",4800.27857282348,524.963642955178,68.1632453,6.75541679282425,97.3941649,37.0883417917111,73.9278534325545,34.5791370131445,86,0.218885932904828
"Jammu & Kashmir","Pulwama",929.932576696209,139.482788461366,68.1632453,6.75541679282425,97.3941649,37.0883417917111,75.0111131122796,33.9404609587822,25,0.600648067254791
"Jammu & Kashmir","Punch",4291.29820560422,349.274747124985,68.1632453,6.75541679282425,97.3941649,37.0883417917111,74.0234039470216,33.7816140126773,54,0.442042661677175
"Jammu & Kashmir","Rajouri",2685.61612196254,251.631697242835,68.1632453,6.75541679282425,97.3941649,37.0883417917111,74.3822340725425,33.2744439849015,47,0.532994963920323
"Jammu & Kashmir","Ramban",1363.21588737023,170.44233193294,68.1632453,6.75541679282425,97.3941649,37.0883417917111,75.1897280377217,33.3129126072712,26,0.589684303964642
"Jammu & Kashmir","Reasi",2170.52982695942,274.19544320902,68.1632453,6.75541679282425,97.3941649,37.0883417917111,74.8427479778209,33.2286307260319,60,0.36278987342796
"Jammu & Kashmir","Samba",991.034164540321,152.728232738112,68.1632453,6.75541679282425,97.3941649,37.0883417917111,75.0923331357187,32.5794853804698,33,0.53389989763312
"Jammu & Kashmir","Shupiyan",518.665995958208,123.156259221271,68.1632453,6.75541679282425,97.3941649,37.0883417917111,74.8201098986796,33.7337300835655,26,0.429719104697827
"Jammu & Kashmir","Srinagar",515.723141503583,127.464680504121,68.1632453,6.75541679282425,97.3941649,37.0883417917111,74.8987736644839,34.1173451193554,35,0.398884132040766
"Jammu & Kashmir","Udhampur",2335.66736611832,230.932409191501,68.1632453,6.75541679282425,97.3941649,37.0883417917111,75.2964962443807,32.8985729581,44,0.550365350600233
"Jharkhand","Bokaro",2868.04406482579,347.359226696424,68.1632453,6.75541679282425,97.3941649,37.0883417917111,85.9874219452058,23.6908728730035,85,0.298701913729945
"Jharkhand","Chatra",3775.96331284506,402.634939037201,68.1632453,6.75541679282425,97.3941649,37.0883417917111,84.8796465872496,24.1723458405202,95,0.292694601992353
"Jharkhand","Deoghar",2436.03779397061,246.02563812357,68.1632453,6.75541679282425,97.3941649,37.0883417917111,86.735181528033,24.3267117790953,57,0.505746809914343
"Jharkhand","Dhanbad",2073.96533760613,207.456395957618,68.1632453,6.75541679282425,97.3941649,37.0883417917111,86.4713314407973,23.8300786934676,37,0.605560724725633
"Jharkhand","Dumka",3751.12963115513,328.670183871714,68.1632453,6.75541679282425,97.3941649,37.0883417917111,87.2612044432593,24.3189929714297,70,0.436366418542319
"Jharkhand","Garhwa",4158.01187682887,362.125751248067,68.1632453,6.75541679282425,97.3941649,37.0883417917111,83.6934080918187,24.0990841491191,63,0.398452697363391
"Jharkhand","Giridih",5003.85721707414,375.3271382776,68.1632453,6.75541679282425,97.3941649,37.0883417917111,86.1030726411795,24.2969455945661,81,0.446369834855991
"Jharkhand","Godda",2230.02037143974,234.068368533591,68.1632453,6.75541679282425,97.3941649,37.0883417917111,87.3066961060624,24.8577252511722,48,0.511485396033969
"Jharkhand","Gumla",5368.95613232548,465.030979982901,68.1632453,6.75541679282425,97.3941649,37.0883417917111,84.528468919738,23.1018626855039,112,0.311986604258146
"Jharkhand","Hazaribagh",4529.80826370708,487.09409404081,68.1632453,6.75541679282425,97.3941649,37.0883417917111,85.4202436373544,24.0555613571899,108,0.239918620750596
"Jharkhand","Jamtara",1802.94684425311,258.334404378824,68.1632453,6.75541679282425,97.3941649,37.0883417917111,86.9122366591257,23.9760076531098,53,0.339491019178934
"Jharkhand","Khunti",2669.59423425427,304.560685071422,68.1632453,6.75541679282425,97.3941649,37.0883417917111,85.257936947665,22.9930903674345,77,0.361665796279215
"Jharkhand","Kodarma",1600.09544043847,244.435780155447,68.1632453,6.75541679282425,97.3941649,37.0883417917111,85.6595012306158,24.504955365916,53,0.336531868214673
"Jharkhand","Latehar",4250.25290269082,416.056339445533,68.1632453,6.75541679282425,97.3941649,37.0883417917111,84.4362167040759,23.7166848736376,100,0.308546304502249
"Jharkhand","Lohardaga",1484.7914908752,205.170293435064,68.1632453,6.75541679282425,97.3941649,37.0883417917111,84.664539348871,23.4738174974036,48,0.443247581735295
"Jharkhand","Pakur",1829.88373163545,236.415237460328,68.1632453,6.75541679282425,97.3941649,37.0883417917111,87.6573340920231,24.5607521849103,55,0.411417188030164
"Jharkhand","Palamu",4410.27843875608,385.375540660886,68.1632453,6.75541679282425,97.3941649,37.0883417917111,84.1627467943458,24.2036218727533,89,0.373170735982838
"Jharkhand","Pashchimi Singhbhum",7229.79784791844,443.779380144496,68.1632453,6.75541679282425,97.3941649,37.0883417917111,85.5135632199978,22.4158268401436,100,0.46131946506741
"Jharkhand","Purbi Singhbhum",3570.64318565485,345.264301603469,68.1632453,6.75541679282425,97.3941649,37.0883417917111,86.4465179978106,22.580033384841,72,0.376402902115717
"Jharkhand","Ramgarh",1335.27062059615,259.646208222481,68.1632453,6.75541679282425,97.3941649,37.0883417917111,85.5556360271597,23.6253251098416,55,0.248894436000965
"Jharkhand","Ranchi",5003.71814919347,495.082316865875,68.1632453,6.75541679282425,97.3941649,37.0883417917111,85.3705926885452,23.3272080031154,123,0.256535736878241
"Jharkhand","Sahibganj",2196.15202985329,230.918273647393,68.1632453,6.75541679282425,97.3941649,37.0883417917111,87.674065942802,25.0073423656606,47,0.517553989979804
"Jharkhand","Saraikela-Kharsawan",2644.74009277493,311.099286603402,68.1632453,6.75541679282425,97.3941649,37.0883417917111,85.9460887738203,22.8426316623879,69,0.343395684118905
"Jharkhand","Simdega",3793.08363762873,343.778724217889,68.1632453,6.75541679282425,97.3941649,37.0883417917111,84.5591582682335,22.5780340648725,82,0.403314923318956
"Karnataka","Bagalkot",6549.25109414144,568.137750029213,68.1632453,6.75541679282425,97.3941649,37.0883417917111,75.6277238344665,16.2167076289499,108,0.254973010229721
"Karnataka","Bangalore",2246.449567115,260.543307143018,68.1632453,6.75541679282425,97.3941649,37.0883417917111,77.5913455680856,12.9469046607006,78,0.415859564304436
"Karnataka","Bangalore Rural",2309.59834700028,375.277569671733,68.1632453,6.75541679282425,97.3941649,37.0883417917111,77.5646336326649,13.2266886216216,113,0.206082497654675
"Karnataka","Belgaum",13364.2643465528,901.330548829965,68.1632453,6.75541679282425,97.3941649,37.0883417917111,74.8273506297849,16.1174696323183,202,0.206722019826815
"Karnataka","Bellary",8412.3087749283,674.28557686259,68.1632453,6.75541679282425,97.3941649,37.0883417917111,76.5307087594972,15.1050290485694,141,0.232507694044641
"Karnataka","Bidar",5439.91848843138,437.812081911992,68.1632453,6.75541679282425,97.3941649,37.0883417917111,77.2233009098494,17.9499221036922,105,0.356637307071771
"Karnataka","Bijapur",10470.9019451776,620.432510666341,68.1632453,6.75541679282425,97.3941649,37.0883417917111,75.9532831942507,16.7904563769623,127,0.34182581908962
"Karnataka","Chamarajanagar",5677.06097295427,480.392082300809,68.1632453,6.75541679282425,97.3941649,37.0883417917111,77.0887070660871,11.9489603746807,99,0.309130417888096
"Karnataka","Chikkaballapura",4145.01601754683,395.765963844794,68.1632453,6.75541679282425,97.3941649,37.0883417917111,77.8305139832155,13.5723096563779,115,0.332551716222683
"Karnataka","Chikmagalur",7258.07745925903,471.989521810583,68.1632453,6.75541679282425,97.3941649,37.0883417917111,75.6902139047823,13.4523272660095,114,0.409417826126361
"Karnataka","Chitradurga",8384.36570907207,570.080680463883,68.1632453,6.75541679282425,97.3941649,37.0883417917111,76.512936519424,14.1638587575863,128,0.324195834435424
"Karnataka","Dakshina Kannada",4846.68148862306,389.832059018742,68.1632453,6.75541679282425,97.3941649,37.0883417917111,75.2506366074781,12.8485066170071,108,0.40077372433709
"Karnataka","Davanagere",5879.0488784631,506.590770337441,68.1632453,6.75541679282425,97.3941649,37.0883417917111,75.9539589710432,14.4053772119999,100,0.287873964551689
"Karnataka","Dharwad",4238.36388568911,388.043236637443,68.1632453,6.75541679282425,97.3941649,37.0883417917111,75.1558219080567,15.3872676390439,91,0.353710431256693
"Karnataka","Gadag",4658.08407952114,465.704142096751,68.1632453,6.75541679282425,97.3941649,37.0883417917111,75.6670618019704,15.4272615856388,113,0.269896334292427
"Karnataka","Gulbarga",10965.9323214616,740.702464979797,68.1632453,6.75541679282425,97.3941649,37.0883417917111,76.8662901171929,17.2575186657461,181,0.251170046134022
"Karnataka","Hassan",6878.57309623982,510.256456497089,68.1632453,6.75541679282425,97.3941649,37.0883417917111,76.1073319553198,12.9923766129646,128,0.331994740245057
"Karnataka","Haveri",4799.2856029312,395.358543603575,68.1632453,6.75541679282425,97.3941649,37.0883417917111,75.418376603137,14.7348958384411,97,0.385837293829897
"Karnataka","Kodagu",4089.7613554361,376.670251924736,68.1632453,6.75541679282425,97.3941649,37.0883417917111,75.7991619665954,12.3191857053716,79,0.362230642249106
"Karnataka","Kolar",3957.5649634959,395.934130280481,68.1632453,6.75541679282425,97.3941649,37.0883417917111,78.2083353401934,13.1293182246475,118,0.317242991002492
"Karnataka","Koppal",5528.21605786073,467.812574583258,68.1632453,6.75541679282425,97.3941649,37.0883417917111,76.2215948386358,15.5569215013419,103,0.317432280817791
"Karnataka","Mandya",5064.65059725641,415.657498994758,68.1632453,6.75541679282425,97.3941649,37.0883417917111,76.7972198170608,12.6063745763734,104,0.368373273279548
"Karnataka","Mysore",6267.06157614337,515.929323135654,68.1632453,6.75541679282425,97.3941649,37.0883417917111,76.4359362278683,12.2039276929466,126,0.295864870267186
"Karnataka","Raichur",8462.81564831697,490.827738560183,68.1632453,6.75541679282425,97.3941649,37.0883417917111,76.8903960328364,16.0863119076735,88,0.441434780053074
"Karnataka","Ramanagara",3446.12481650999,359.325017707436,68.1632453,6.75541679282425,97.3941649,37.0883417917111,77.3310545232022,12.6737547971671,101,0.335402237881378
"Karnataka","Shimoga",8411.41395492848,609.339528516933,68.1632453,6.75541679282425,97.3941649,37.0883417917111,75.2215821777902,14.0402264937898,147,0.28468210358849
"Karnataka","Tumkur",10453.0122895697,886.79320013726,68.1632453,6.75541679282425,97.3941649,37.0883417917111,76.9433195376007,13.5179493253516,218,0.167034667298319
"Karnataka","Udupi",3595.22684879169,328.103509510081,68.1632453,6.75541679282425,97.3941649,37.0883417917111,74.8714725526774,13.4969490357907,84,0.419676267568106
"Karnataka","Uttara Kannada",10303.3774068077,682.026406095664,68.1632453,6.75541679282425,97.3941649,37.0883417917111,74.6242700092669,14.7872871457812,182,0.278347351218987
"Karnataka","Yadgir",5254.28514606541,467.786275310501,68.1632453,6.75541679282425,97.3941649,37.0883417917111,76.9119071517787,16.6237877984437,95,0.301736987941977
"Kerala","Alappuzha",1372.51966863101,252.206516857188,68.1632453,6.75541679282425,97.3941649,37.0883417917111,76.4499771225834,9.42842358110208,49,0.27115388560543
"Kerala","Ernakulam",2992.99673756917,360.388358067311,68.1632453,6.75541679282425,97.3941649,37.0883417917111,76.5469356798958,10.0795717535347,100,0.28958402566051
"Kerala","Idukki",4311.8921182397,457.947783986415,68.1632453,6.75541679282425,97.3941649,37.0883417917111,77.0448639526294,9.8273506502066,99,0.258372225987576
"Kerala","Kannur",2905.54135658471,257.299928567516,68.1632453,6.75541679282425,97.3941649,37.0883417917111,75.5213681489616,11.9968201999482,55,0.551515337008584
"Kerala","Kasaragod",1958.93955065878,281.936386401656,68.1632453,6.75541679282425,97.3941649,37.0883417917111,75.1528878738548,12.4568515841552,68,0.309691040039842
"Kerala","Kollam",2395.6140349807,344.368844324342,68.1632453,6.75541679282425,97.3941649,37.0883417917111,76.8684497290063,8.9563084329604,103,0.253851074784464
"Kerala","Kottayam",2097.96014387571,243.260086163933,68.1632453,6.75541679282425,97.3941649,37.0883417917111,76.6406373667843,9.6325700085604,58,0.44551813303265
"Kerala","Kozhikode",2280.8652039245,239.396505371596,68.1632453,6.75541679282425,97.3941649,37.0883417917111,75.8322798379505,11.4820977249753,49,0.500119595179005
"Kerala","Malappuram",3492.82734168082,329.239795928147,68.1632453,6.75541679282425,97.3941649,37.0883417917111,76.1516248741188,11.12956927819,76,0.404913572530568
"Kerala","Palakkad",4450.54174065394,428.897347212996,68.1632453,6.75541679282425,97.3941649,37.0883417917111,76.5481519278527,10.7888343431672,94,0.304029708012324
"Kerala","Pathanamthitta",2593.67389802712,294.816281694264,68.1632453,6.75541679282425,97.3941649,37.0883417917111,76.9198998882025,9.27785885698518,65,0.374992262395165
"Kerala","Thiruvananthapuram",2027.25868167741,219.311190972036,68.1632453,6.75541679282425,97.3941649,37.0883417917111,77.0062510423199,8.60568500269097,40,0.529660329399667
"Kerala","Thrissur",2926.44230973196,323.712282936558,68.1632453,6.75541679282425,97.3941649,37.0883417917111,76.3106534029968,10.4643072963379,73,0.350938870486047
"Kerala","Wayanad",2120.91851696523,234.95171832471,68.1632453,6.75541679282425,97.3941649,37.0883417917111,76.0914459294351,11.7067228708604,47,0.482810377939039
"Ladakh","Kargil",14756.8576772522,796.450372826441,68.1632453,6.75541679282425,97.3941649,37.0883417917111,76.4748626734989,33.8824810222367,133,0.292338701072749
"Ladakh","Leh",47783.9451394223,1379.99980439767,68.1632453,6.75541679282425,97.3941649,37.0883417917111,77.9002275982216,33.9299600280339,222,0.315307148845124
"Lakshadweep","Lakshadweep",15.1187766976608,51.1619524441032,68.1632453,6.75541679282425,97.3941649,37.0883417917111,72.5840434220691,10.8442507965525,30,0.0725825625882741
"Madhya Pradesh","Agar Malwa",2758.94616256886,321.068959715469,68.1632453,6.75541679282425,97.3941649,37.0883417917111,76.069147515724,23.8343920615857,75,0.336322906907134
"Madhya Pradesh","Alirajpur",3343.22956742885,376.86642329136,68.1632453,6.75541679282425,97.3941649,37.0883417917111,74.3690661006221,22.3162095274852,88,0.295802044353726
"Madhya Pradesh","Anuppur",2008.44199334915,254.058067614356,68.1632453,6.75541679282425,97.3941649,37.0883417917111,81.872678037769,23.1491857226158,52,0.39102378590808
"Madhya Pradesh","Ashoknagar",4715.48167128148,356.341637819701,68.1632453,6.75541679282425,97.3941649,37.0883417917111,77.8692233285251,24.6142304964385,74,0.466662369217646
"Madhya Pradesh","Balaghat",9187.4253444359,582.650697909622,68.1632453,6.75541679282425,97.3941649,37.0883417917111,80.3550405154078,21.8803548317883,116,0.340084740046603
"Madhya Pradesh","Barwani",5419.99075696493,417.402434121664,68.1632453,6.75541679282425,97.3941649,37.0883417917111,75.0235329158764,21.7897331626356,62,0.39092951004495
"Madhya Pradesh","Betul",10076.3133199922,601.82830565718,68.1632453,6.75541679282425,97.3941649,37.0883417917111,77.8662254234654,21.8800137684238,120,0.349595881271598
"Madhya Pradesh","Bhind",4470.12803928019,420.896985951706,68.1632453,6.75541679282425,97.3941649,37.0883417917111,78.7144450072571,26.4271342627127,114,0.317086823550501
"Madhya Pradesh","Bhopal",2725.3822822604,294.929383945333,68.1632453,6.75541679282425,97.3941649,37.0883417917111,77.392138696955,23.4819257308029,68,0.393732446103291
"Madhya Pradesh","Burhanpur",3197.41341983465,278.426992602518,68.1632453,6.75541679282425,97.3941649,37.0883417917111,76.368210959268,21.3738487819315,53,0.518305699512716
"Madhya Pradesh","Chhatarpur",8706.95432988669,751.197548849871,68.1632453,6.75541679282425,97.3941649,37.0883417917111,79.6581673174302,24.8020930802694,163,0.193895534045999
"Madhya Pradesh","Chhindwara",11787.5030213484,639.719126413914,68.1632453,6.75541679282425,97.3941649,37.0883417917111,78.8515217203613,22.1229441859476,140,0.36195369132242
"Madhya Pradesh","Damoh",7327.37452424258,494.447211476299,68.1632453,6.75541679282425,97.3941649,37.0883417917111,79.5210285567257,23.8162720026054,105,0.376633018010642
"Madhya Pradesh","Datia",2502.49561607521,309.560862521314,68.1632453,6.75541679282425,97.3941649,37.0883417917111,78.6077266736037,25.8455993566966,78,0.328164118314806
"Madhya Pradesh","Dewas",6952.24238821666,599.532530280507,68.1632453,6.75541679282425,97.3941649,37.0883417917111,76.45274464121,22.7487237553893,141,0.243057632879055
"Madhya Pradesh","Dhar",8112.15904418365,515.615528205677,68.1632453,6.75541679282425,97.3941649,37.0883417917111,75.1048132010906,22.5004457979378,101,0.383437288328735
"Madhya Pradesh","Dindori",8269.60871395165,571.755682090215,68.1632453,6.75541679282425,97.3941649,37.0883417917111,81.1322404071901,22.8619352975318,119,0.317887789434545
"Madhya Pradesh","Guna",6296.11728392963,551.512226008189,68.1632453,6.75541679282425,97.3941649,37.0883417917111,77.1950512026181,24.5591974688062,115,0.260119185048205
"Madhya Pradesh","Gwalior",4571.29636225516,311.521293703922,68.1632453,6.75541679282425,97.3941649,37.0883417917111,78.1389984446181,26.0444093201429,68,0.591934654879541
"Madhya Pradesh","Harda",3290.12125754178,269.957353938224,68.1632453,6.75541679282425,97.3941649,37.0883417917111,77.1168827256672,22.2378256633442,53,0.567324374455952
"Madhya Pradesh","Hoshangabad",6716.99524711146,482.366439075519,68.1632453,6.75541679282425,97.3941649,37.0883417917111,77.9830765077281,22.5904710854189,101,0.362769475610848
"Madhya Pradesh","Indore",3903.53800998322,363.709252727238,68.1632453,6.75541679282425,97.3941649,37.0883417917111,75.7813610822094,22.7157392497601,96,0.370816949933201
"Madhya Pradesh","Jabalpur",4014.59258800607,425.325122036788,68.1632453,6.75541679282425,97.3941649,37.0883417917111,79.9437590291875,23.1751212103954,89,0.278874800037204
"Madhya Pradesh","Jhabua",3434.80905748441,295.152369571137,68.1632453,6.75541679282425,97.3941649,37.0883417917111,74.6739524755616,22.8947991688377,51,0.495472910724113
"Madhya Pradesh","Katni",6183.10877357603,487.506535534252,68.1632453,6.75541679282425,97.3941649,37.0883417917111,80.3352897890391,23.7048358380006,110,0.326930821860537
"Madhya Pradesh","Khandwa (East Nimar)",7450.77938680659,501.578222081175,68.1632453,6.75541679282425,97.3941649,37.0883417917111,76.5711462140373,21.9384584906578,106,0.372163883605289
"Madhya Pradesh","Khargone (West Nimar)",8079.25448595732,557.294787869176,68.1632453,6.75541679282425,97.3941649,37.0883417917111,75.774207780337,21.923759799203,115,0.326897191537046
"Madhya Pradesh","Mandla",6772.30935708427,503.518731005605,68.1632453,6.75541679282425,97.3941649,37.0883417917111,80.4484709518172,22.6648946314543,105,0.335672211847808
"Madhya Pradesh","Mandsaur",5595.76528666903,483.717747543528,68.1632453,6.75541679282425,97.3941649,37.0883417917111,75.4030787786451,24.2141137082167,106,0.300528255262156
"Madhya Pradesh","Morena",4988.89309356302,519.513817630329,68.1632453,6.75541679282425,97.3941649,37.0883417917111,77.8606854422953,26.4191077521642,114,0.232284299170016
"Madhya Pradesh","Narsimhapur",5131.42450865163,427.005374943219,68.1632453,6.75541679282425,97.3941649,37.0883417917111,79.0823144204322,22.9377673350754,101,0.353656076611229
"Madhya Pradesh","Neemuch",4156.95665005051,535.096523442899,68.1632453,6.75541679282425,97.3941649,37.0883417917111,75.1436194634241,24.6094796514081,116,0.182440435772869
"Madhya Pradesh","Panna",7094.97959702898,537.01809819695,68.1632453,6.75541679282425,97.3941649,37.0883417917111,80.1851084217598,24.4263629663156,125,0.309159908769213
"Madhya Pradesh","Raisen",8510.73981017869,610.742009364838,68.1632453,6.75541679282425,97.3941649,37.0883417917111,78.1123694094874,23.2203258604171,124,0.286722378265382
"Madhya Pradesh","Rajgarh",6120.14952474531,393.342657485208,68.1632453,6.75541679282425,97.3941649,37.0883417917111,76.7307440478429,23.864683625333,85,0.497084019607181
"Madhya Pradesh","Ratlam",4787.3390744615,451.131570559297,68.1632453,6.75541679282425,97.3941649,37.0883417917111,75.0882869553958,23.5042518049754,99,0.29559535933412
"Madhya Pradesh","Rewa",6326.25911236283,462.189396720253,68.1632453,6.75541679282425,97.3941649,37.0883417917111,81.5811072663378,24.7577342475204,112,0.372149023742153
"Madhya Pradesh","Sagar",10263.6566361242,756.457699427818,68.1632453,6.75541679282425,97.3941649,37.0883417917111,78.7521700172016,23.8518960208487,182,0.225394172548006
"Madhya Pradesh","Satna",7515.37841103821,660.165128348384,68.1632453,6.75541679282425,97.3941649,37.0883417917111,80.8257260353824,24.5365266366982,151,0.21669832622363
"Madhya Pradesh","Sehore",6538.95171305652,654.247594860588,68.1632453,6.75541679282425,97.3941649,37.0883417917111,77.1236426676122,22.9943199608838,165,0.191970159097318
"Madhya Pradesh","Seoni",8805.7789205903,584.169282344486,68.1632453,6.75541679282425,97.3941649,37.0883417917111,79.6852825066028,22.3169461485498,121,0.324265099865528
"Madhya Pradesh","Shahdol",5609.87074195304,526.965608740294,68.1632453,6.75541679282425,97.3941649,37.0883417917111,81.4680552489387,23.6339658270618,117,0.253862278120259
"Madhya Pradesh","Shajapur",3539.96722892239,371.122710588021,68.1632453,6.75541679282425,97.3941649,37.0883417917111,76.5572290009428,23.386166985876,82,0.322978819324796
"Madhya Pradesh","Sheopur",6526.53224716739,466.829769424706,68.1632453,6.75541679282425,97.3941649,37.0883417917111,77.0047587719645,25.7572749205533,95,0.376335568263418
"Madhya Pradesh","Shivpuri",10459.8040674007,648.219726243091,68.1632453,6.75541679282425,97.3941649,37.0883417917111,77.806456487485,25.3689636018898,137,0.312815977590174
"Madhya Pradesh","Sidhi",4766.72822684833,439.203671960174,68.1632453,6.75541679282425,97.3941649,37.0883417917111,81.8276251464289,24.2227459979493,93,0.310526258650499
"Madhya Pradesh","Singrauli",5787.32767500179,425.206531042231,68.1632453,6.75541679282425,97.3941649,37.0883417917111,82.4132551652388,24.2190061230087,90,0.402242618817564
"Madhya Pradesh","Tikamgarh",5053.76906003976,640.289408919832,68.1632453,6.75541679282425,97.3941649,37.0883417917111,78.9392651859551,24.9929329236939,163,0.154907562369103
"Madhya Pradesh","Ujjain",6074.96199747672,571.004835318133,68.1632453,6.75541679282425,97.3941649,37.0883417917111,75.667456408219,23.3351828481713,135,0.234139053133593
"Madhya Pradesh","Umaria",4634.08849320129,391.021401991009,68.1632453,6.75541679282425,97.3941649,37.0883417917111,80.9687988539536,23.564509790414,80,0.380866811231873
"Madhya Pradesh","Vidisha",7290.71639970284,509.626061968277,68.1632453,6.75541679282425,97.3941649,37.0883417917111,77.8074565867538,23.8978883286377,126,0.352757950029257
"Maharashtra","Ahmadnagar",16995.8198493966,1116.40420223433,68.1632453,6.75541679282425,97.3941649,37.0883417917111,74.6804631059381,19.2038026513149,256,0.171359843950126
"Maharashtra","Akola",5535.60210429186,472.414214596491,68.1632453,6.75541679282425,97.3941649,37.0883417917111,77.0452846669171,20.7502342393001,115,0.311694268384067
"Maharashtra","Amravati",12180.3244574972,774.86530942997,68.1632453,6.75541679282425,97.3941649,37.0883417917111,77.5711008669409,21.1888831397262,163,0.25492726405656
"Maharashtra","Aurangabad",10084.0092377385,631.235695974094,68.1632453,6.75541679282425,97.3941649,37.0883417917111,75.2762376501128,20.0221185823801,161,0.318024075603071
"Maharashtra","Bhandara",3858.27728677781,400.909190115353,68.1632453,6.75541679282425,97.3941649,37.0883417917111,79.7444463950006,21.1291622156397,85,0.301655519928431
"Maharashtra","Bid",10570.1919562086,756.798179627635,68.1632453,6.75541679282425,97.3941649,37.0883417917111,75.8398812737549,18.9466300667258,171,0.231916997989183
"Maharashtra","Buldana",9556.5436987671,580.800085919192,68.1632453,6.75541679282425,97.3941649,37.0883417917111,76.4043936175127,20.5118839906163,127,0.356006043187709
"Maharashtra","Chandrapur",11315.3368087275,592.729939484961,68.1632453,6.75541679282425,97.3941649,37.0883417917111,79.4372433428536,20.1157356183525,112,0.404728344471349
"Maharashtra","Dhule",7160.72773521257,503.462883127734,68.1632453,6.75541679282425,97.3941649,37.0883417917111,74.6052710166751,21.1115181000233,105,0.355003069634474
"Maharashtra","Gadchiroli",14481.022854974,844.639780134346,68.1632453,6.75541679282425,97.3941649,37.0883417917111,80.2344170058046,19.7840091953882,135,0.255073910182641
"Maharashtra","Gondiya",5470.42263783733,424.116007869717,68.1632453,6.75541679282425,97.3941649,37.0883417917111,80.1981520461206,21.1474225798655,89,0.382174243917634
"Maharashtra","Hingoli",4899.13575942297,451.302884256611,68.1632453,6.75541679282425,97.3941649,37.0883417917111,77.1003811862705,19.6194707016585,121,0.30226865960301
"Maharashtra","Jalgaon",11750.328644811,636.347441721192,68.1632453,6.75541679282425,97.3941649,37.0883417917111,75.4905270013611,20.9368153272963,138,0.364645847787152
"Maharashtra","Jalna",7777.89689818153,583.891878249251,68.1632453,6.75541679282425,97.3941649,37.0883417917111,75.983012574315,19.819486986418,128,0.286686456816445
"Maharashtra","Kolhapur",7631.38289918349,739.542618224819,68.1632453,6.75541679282425,97.3941649,37.0883417917111,74.1661989951954,16.4674487544104,193,0.175342298612525
"Maharashtra","Latur",7201.86945071464,449.046270830873,68.1632453,6.75541679282425,97.3941649,37.0883417917111,76.7608404826685,18.3727159711841,94,0.448820743100389
"Maharashtra","Mumbai",71.6032631910919,49.996677991023,68.1632453,6.75541679282425,97.3941649,37.0883417917111,72.838268576014,18.9839183439739,19,0.35996508768382
"Maharashtra","Mumbai Suburban",397.946596994747,97.5621637744141,68.1632453,6.75541679282425,97.3941649,37.0883417917111,72.8778588668621,19.1452936943018,28,0.525377913990058
"Maharashtra","Nagpur",9912.45277179415,513.459272045486,68.1632453,6.75541679282425,97.3941649,37.0883417917111,79.0817126168588,21.1781776317029,105,0.472475174005633
"Maharashtra","Nanded",10583.882499005,901.890221653742,68.1632453,6.75541679282425,97.3941649,37.0883417917111,77.6202196743567,19.1150245531664,202,0.163511204261584
"Maharashtra","Nandurbar",5931.14305828821,590.423958604692,68.1632453,6.75541679282425,97.3941649,37.0883417917111,74.2205262931411,21.547222748901,126,0.213806211799204
"Maharashtra","Nashik",15480.4131498807,714.922034620822,68.1632453,6.75541679282425,97.3941649,37.0883417917111,74.078085052092,20.2602152868437,175,0.380605487768451
"Maharashtra","Osmanabad",7549.82418194979,665.5091790563,68.1632453,6.75541679282425,97.3941649,37.0883417917111,76.0392082373237,18.1880202093426,141,0.21420943825132
"Maharashtra","Palghar",5280.12341662088,405.461624082819,68.1632453,6.75541679282425,97.3941649,37.0883417917111,73.0221024514829,19.7920517118412,104,0.403603037961902
"Maharashtra","Parbhani",6109.93703593109,471.158987270249,68.1632453,6.75541679282425,97.3941649,37.0883417917111,76.6783412850108,19.2708767751364,129,0.345869001048581
"Maharashtra","Pune",15565.7803527086,814.965512785573,68.1632453,6.75541679282425,97.3941649,37.0883417917111,74.076789184015,18.5703151775472,191,0.294511528746464
"Maharashtra","Raigarh",7000.10108960498,619.185513608032,68.1632453,6.75541679282425,97.3941649,37.0883417917111,73.2306992437979,18.5078686414574,177,0.229441831974099
"Maharashtra","Ratnagiri",8394.26279572688,623.330228201893,68.1632453,6.75541679282425,97.3941649,37.0883417917111,73.4619255577162,17.2726831193159,212,0.271491382238447
"Maharashtra","Sangli",8546.63817074536,794.924430291213,68.1632453,6.75541679282425,97.3941649,37.0883417917111,74.7736593615351,17.1092789740666,174,0.169962649886075
"Maharashtra","Satara",10491.2672489243,539.364925885974,68.1632453,6.75541679282425,97.3941649,37.0883417917111,74.1805580061619,17.6678555528742,127,0.453181748988177
"Maharashtra","Sindhudurg",5148.85054947956,503.027528270145,68.1632453,6.75541679282425,97.3941649,37.0883417917111,73.7434447918234,16.1320214813874,140,0.255703483828268
"Maharashtra","Solapur",14866.3390248809,1054.55533641608,68.1632453,6.75541679282425,97.3941649,37.0883417917111,75.4852545009308,17.7890148957042,246,0.167986796890993
"Maharashtra","Thane",4199.45982544059,358.767938059616,68.1632453,6.75541679282425,97.3941649,37.0883417917111,73.3352732202797,19.3605696688235,87,0.409992626009443
"Maharashtra","Wardha",6303.63235366875,409.604246045626,68.1632453,6.75541679282425,97.3941649,37.0883417917111,78.5819092094663,20.7973324300493,86,0.47214113525893
"Maharashtra","Washim",5167.97839585994,504.58416229344,68.1632453,6.75541679282425,97.3941649,37.0883417917111,77.2151107950278,20.2370325048935,120,0.255072314931205
"Maharashtra","Yavatmal",13537.8790146326,790.087715158921,68.1632453,6.75541679282425,97.3941649,37.0883417917111,78.1572343834028,20.0841914983976,169,0.272527212626741
"Manipur","Bishnupur",484.49752745835,135.770059752166,68.1632453,6.75541679282425,97.3941649,37.0883417917111,93.8020028226972,24.5433832736663,30,0.330288468162031
"Manipur","Chandel",3105.04830739099,277.240543546349,68.1632453,6.75541679282425,97.3941649,37.0883417917111,94.0900565425595,24.2419638985861,49,0.507650410773247
"Manipur","Churachandpur",4712.44535884535,384.123884276198,68.1632453,6.75541679282425,97.3941649,37.0883417917111,93.4198311159211,24.3037533522388,91,0.401341036509938
"Manipur","Imphal East",612.93256333288,224.495251357288,68.1632453,6.75541679282425,97.3941649,37.0883417917111,93.7754969354834,24.8062627247158,62,0.152829868974241
"Manipur","Imphal West",474.549496808307,175.341868275118,68.1632453,6.75541679282425,97.3941649,37.0883417917111,93.8767430836584,24.8042072730513,38,0.193963548999013
"Manipur","Senapati",3477.39953766286,562.869662040052,68.1632453,6.75541679282425,97.3941649,37.0883417917111,94.0418287727327,25.2038653274314,113,0.137926835869396
"Manipur","Tamenglong",4198.19529543038,363.499825547242,68.1632453,6.75541679282425,97.3941649,37.0883417917111,93.528521152594,24.9504605529769,78,0.399267617343994
"Manipur","Thoubal",722.824116342635,179.760915162504,68.1632453,6.75541679282425,97.3941649,37.0883417917111,93.9740595992614,24.5361362282076,46,0.281094246951232
"Manipur","Ukhrul",4333.60925064535,332.89246062014,68.1632453,6.75541679282425,97.3941649,37.0883417917111,94.4305066689028,25.0274812939232,43,0.491418718447144
"Meghalaya","East Garo Hills",1632.87335605015,191.521247354149,68.1632453,6.75541679282425,97.3941649,37.0883417917111,90.6298757507268,25.6221840073687,29,0.559407704553728
"Meghalaya","East Jantia Hills",1934.27065365106,203.057791302258,68.1632453,6.75541679282425,97.3941649,37.0883417917111,92.4702163003487,25.2581943245023,42,0.589505404394528
"Meghalaya","East Khasi Hills",2861.11833369303,267.381225021256,68.1632453,6.75541679282425,97.3941649,37.0883417917111,91.8065873869574,25.3856680458633,56,0.50290258374922
"Meghalaya","North Garo Hills",1216.21684610956,223.5498415095,68.1632453,6.75541679282425,97.3941649,37.0883417917111,90.6615016664743,25.85816954648,42,0.305824409642618
"Meghalaya","Ribhoi",2403.13196434025,313.623366897435,68.1632453,6.75541679282425,97.3941649,37.0883417917111,91.8858369986519,25.8759182302972,58,0.307022821419239
"Meghalaya","South Garo Hills",1898.36134662891,222.697060612438,68.1632453,6.75541679282425,97.3941649,37.0883417917111,90.5788818796242,25.3025858780272,39,0.481016281699772
"Meghalaya","South West Garo Hills",873.32613775357,118.279585815503,68.1632453,6.75541679282425,97.3941649,37.0883417917111,89.9914667610041,25.4461552748962,25,0.784452645965008
"Meghalaya","South West Khasi Hills",1475.06373139344,217.096325090356,68.1632453,6.75541679282425,97.3941649,37.0883417917111,91.2594887516233,25.325176320916,43,0.393292536467992
"Meghalaya","West Garo Hills",2532.67794422371,278.389425533744,68.1632453,6.75541679282425,97.3941649,37.0883417917111,90.1941938361339,25.6530826228734,49,0.410661853250389
"Meghalaya","West Jaintia Hills",1877.77503058829,242.636552601179,68.1632453,6.75541679282425,97.3941649,37.0883417917111,92.2868724517435,25.4834492594604,49,0.400812234985816
"Meghalaya","West Khasi Hills",3775.44519153313,360.309509968654,68.1632453,6.75541679282425,97.3941649,37.0883417917111,91.2568235344686,25.6043736201615,77,0.365448836886725
"Mizoram","Aizawl",3105.60131053216,389.760001290832,68.1632453,6.75541679282425,97.3941649,37.0883417917111,92.8995978810428,23.841114792579,70,0.256898181014061
"Mizoram","Champhai",3362.86408272437,299.086492023911,68.1632453,6.75541679282425,97.3941649,37.0883417917111,93.2346386264819,23.5357424325666,38,0.472417069056249
"Mizoram","Kolasib",1583.59079256846,207.979745118884,68.1632453,6.75541679282425,97.3941649,37.0883417917111,92.7290915225644,24.1604097175016,37,0.460056052572817
"Mizoram","Lawngtlai",2511.24960797898,385.16724004773,68.1632453,6.75541679282425,97.3941649,37.0883417917111,92.7649331517977,22.433059340722,64,0.212716443273774
"Mizoram","Lunglei",4572.56850320514,351.71926634775,68.1632453,6.75541679282425,97.3941649,37.0883417917111,92.7200481682288,22.9744506896876,65,0.464491496102454
"Mizoram","Mamit",3115.84428595137,326.110661382801,68.1632453,6.75541679282425,97.3941649,37.0883417917111,92.4650681288598,23.748898109748,69,0.368176118865031
"Mizoram","Saiha",1464.87244917686,225.389074313738,68.1632453,6.75541679282425,97.3941649,37.0883417917111,93.0042199803724,22.294759400863,36,0.362363090728702
"Mizoram","Serchhip",1440.83499534934,232.054762106386,68.1632453,6.75541679282425,97.3941649,37.0883417917111,92.9446425610852,23.3069167991467,38,0.33623517260491
"Nagaland","Dimapur",909.285691210217,169.817024428582,68.1632453,6.75541679282425,97.3941649,37.0883417917111,93.8091615159655,25.7887302436246,29,0.396230376724108
"Nagaland","Kiphire",1347.0375598258,177.554772776991,68.1632453,6.75541679282425,97.3941649,37.0883417917111,94.830596087259,25.874626213585,23,0.536938898698454
"Nagaland","Kohima",1247.36265337046,174.345973610201,68.1632453,6.75541679282425,97.3941649,37.0883417917111,94.110052778984,25.7580928432792,27,0.515678181548926
"Nagaland","Longleng",527.979758927869,136.783097907194,68.1632453,6.75541679282425,97.3941649,37.0883417917111,94.7975679890612,26.573219549059,29,0.354619216801277
"Nagaland","Mokokchung",1608.86043859227,215.209355728248,68.1632453,6.75541679282425,97.3941649,37.0883417917111,94.531332191219,26.4762911627571,44,0.436521804632283
"Nagaland","Mon",2104.00295704507,226.469888197872,68.1632453,6.75541679282425,97.3941649,37.0883417917111,95.0203262380024,26.6944119215982,39,0.515507844679747
"Nagaland","Peren",1678.14905045756,203.527376712597,68.1632453,6.75541679282425,97.3941649,37.0883417917111,93.6147828756092,25.5003345827448,40,0.509090186740109
"Nagaland","Phek",1856.36524505103,232.474450143406,68.1632453,6.75541679282425,97.3941649,37.0883417917111,94.534786716699,25.6537411023675,33,0.431641143713971
"Nagaland","Tuensang",1872.8858973861,201.298719811004,68.1632453,6.75541679282425,97.3941649,37.0883417917111,94.8787481359768,26.2024019741734,32,0.58081678378553
"Nagaland","Wokha",1611.29269339333,202.299432253138,68.1632453,6.75541679282425,97.3941649,37.0883417917111,94.1924804626891,26.1899672406814,40,0.494760447753473
"Nagaland","Zunheboto",1575.21822289081,218.240623273147,68.1632453,6.75541679282425,97.3941649,37.0883417917111,94.4861687771949,26.0089754222044,36,0.415603699475154
"Nct Of Delhi","Central",81.3655270881684,52.6971007815462,68.1632453,6.75541679282425,97.3941649,37.0883417917111,77.2143053636713,28.6903168860373,18,0.368194130759045
"Nct Of Delhi","East",31.8276900428959,22.7116465767728,68.1632453,6.75541679282425,97.3941649,37.0883417917111,77.2939838434156,28.6197428787407,5,0.775385617810561
"Nct Of Delhi","New Delhi",163.07474293191,61.9121686664567,68.1632453,6.75541679282425,97.3941649,37.0883417917111,77.14766943157,28.5754048474405,17,0.53461917699776
"Nct Of Delhi","North",290.605967443775,87.1866305972234,68.1632453,6.75541679282425,97.3941649,37.0883417917111,77.1029580433108,28.795993588117,25,0.480412836908595
"Nct Of Delhi","North East",47.7372610071741,38.2757487166157,68.1632453,6.75541679282425,97.3941649,37.0883417917111,77.2572273697922,28.7201762466454,10,0.409468004183763
"Nct Of Delhi","North West",168.086742179719,73.4904521593829,68.1632453,6.75541679282425,97.3941649,37.0883417917111,77.0393636897399,28.7249671239851,19,0.391094298768934
"Nct Of Delhi","Shahdara",25.8312450408854,24.8138856012653,68.1632453,6.75541679282425,97.3941649,37.0883417917111,77.2926527401908,28.6716367623625,10,0.527188164777006
"Nct Of Delhi","South",146.759348159953,54.7517955884772,68.1632453,6.75541679282425,97.3941649,37.0883417917111,77.1843545348795,28.4799366482894,15,0.615203652520232
"Nct Of Delhi","South East",94.8805715412183,41.0095150233879,68.1632453,6.75541679282425,97.3941649,37.0883417917111,77.2702324592238,28.5461653846567,11,0.708953726102447
"Nct Of Delhi","South West",290.5642469502,91.4558458285009,68.1632453,6.75541679282425,97.3941649,37.0883417917111,76.9623742974556,28.5804218388886,23,0.436545079371412
"Nct Of Delhi","West",130.66401180227,58.9244830508373,68.1632453,6.75541679282425,97.3941649,37.0883417917111,77.0607167710668,28.6549501840333,17,0.472905418431766
"Odisha","Anugul",6381.59943107498,507.98566924576,68.1632453,6.75541679282425,97.3941649,37.0883417917111,84.9027958245742,20.9817293265395,95,0.310768136190647
"Odisha","Balangir",6573.50777234782,478.51169942288,68.1632453,6.75541679282425,97.3941649,37.0883417917111,83.1663848659502,20.5861655617782,99,0.360762945100967
"Odisha","Baleshwar",3726.74779632492,420.443231502378,68.1632453,6.75541679282425,97.3941649,37.0883417917111,86.8997110438957,21.4869287835175,95,0.264926338106246
"Odisha","Bargarh",5781.04073559127,505.479294195572,68.1632453,6.75541679282425,97.3941649,37.0883417917111,83.3442315384973,21.2160209527038,86,0.284321140664406
"Odisha","Baudh",3125.36104518243,363.304331017065,68.1632453,6.75541679282425,97.3941649,37.0883417917111,84.168598368989,20.640919094025,62,0.297556134608548
"Odisha","Bhadrak",2482.35676076355,276.901122386831,68.1632453,6.75541679282425,97.3941649,37.0883417917111,86.6205767276978,20.9748927357779,54,0.406840921785297
"Odisha","Cuttack",3921.40549843022,514.027914589611,68.1632453,6.75541679282425,97.3941649,37.0883417917111,85.7011273302274,20.4431495801652,106,0.186499730669329
"Odisha","Debagarh",2808.97934283961,320.042561822798,68.1632453,6.75541679282425,97.3941649,37.0883417917111,84.7961438270975,21.4623196686844,74,0.34462194817783
"Odisha","Dhenkanal",4486.41561240129,350.62603117891,68.1632453,6.75541679282425,97.3941649,37.0883417917111,85.5200639510079,20.8200009399991,64,0.458586278145194
"Odisha","Gajapati",4061.35154232047,369.58294716016,68.1632453,6.75541679282425,97.3941649,37.0883417917111,84.153624848652,19.1631836126428,82,0.373642782959194
"Odisha","Ganjam",8430.25531987605,569.455215256585,68.1632453,6.75541679282425,97.3941649,37.0883417917111,84.6587513868664,19.6195874975688,117,0.326686691414793
"Odisha","Jagatsinghapur",1726.43328171918,207.340932020868,68.1632453,6.75541679282425,97.3941649,37.0883417917111,86.3329455912888,20.2120954909589,50,0.504649178760113
"Odisha","Jajapur",2909.95636214479,351.27508187968,68.1632453,6.75541679282425,97.3941649,37.0883417917111,86.1451170314423,20.8501251506512,77,0.296347762795247
"Odisha","Jharsuguda",2124.48470864411,310.939981726754,68.1632453,6.75541679282425,97.3941649,37.0883417917111,83.949301302839,21.8041320024038,54,0.276127929317062
"Odisha","Kalahandi",7904.16085488138,516.89650368217,68.1632453,6.75541679282425,97.3941649,37.0883417917111,83.1011354638848,19.8621214901972,112,0.371756392136615
"Odisha","Kandhamal",8039.35830033293,541.527182531382,68.1632453,6.75541679282425,97.3941649,37.0883417917111,84.03916262454,20.1227904985536,110,0.34450118975713
"Odisha","Kendrapara",2459.52573569275,289.488683587574,68.1632453,6.75541679282425,97.3941649,37.0883417917111,86.6038123025371,20.5466582981205,84,0.368806063401064
"Odisha","Kendujhar",8316.16586755616,547.650222422234,68.1632453,6.75541679282425,97.3941649,37.0883417917111,85.7004256061957,21.5316313863605,96,0.348438768460226
"Odisha","Khordha",2770.00107821002,499.447279100776,68.1632453,6.75541679282425,97.3941649,37.0883417917111,85.5015558867016,20.0804277848445,122,0.139543785146752
"Odisha","Koraput",8585.79055756872,648.129658608264,68.1632453,6.75541679282425,97.3941649,37.0883417917111,82.7069738199421,18.8116238361678,171,0.256842189433631
"Odisha","Malkangiri",5805.40127634752,435.53417859297,68.1632453,6.75541679282425,97.3941649,37.0883417917111,81.947926769389,18.2512485594198,90,0.384589678074428
"Odisha","Mayurbhanj",10448.3306182004,616.356826489035,68.1632453,6.75541679282425,97.3941649,37.0883417917111,86.4054229030361,21.8907965632508,119,0.345614814456958
"Odisha","Nabarangapur",5301.76478227975,437.569032867744,68.1632453,6.75541679282425,97.3941649,37.0883417917111,82.3307166165051,19.582097232435,93,0.347966281323338
"Odisha","Nayagarh",3910.16919144885,368.624339361187,68.1632453,6.75541679282425,97.3941649,37.0883417917111,84.9931202330196,20.2069750946407,68,0.361607474718108
"Odisha","Nuapada",3859.77700892247,364.351647773421,68.1632453,6.75541679282425,97.3941649,37.0883417917111,82.570504032301,20.4599457129877,74,0.365368080004003
"Odisha","Puri",3511.06100342183,424.38884986419,68.1632453,6.75541679282425,97.3941649,37.0883417917111,85.698581127929,19.8644821848921,111,0.244974178112427
"Odisha","Rayagada",7388.14765331919,636.303963345976,68.1632453,6.75541679282425,97.3941649,37.0883417917111,83.5073130905016,19.3549528228853,154,0.229306398671977
"Odisha","Sambalpur",6741.39529567117,535.261210692596,68.1632453,6.75541679282425,97.3941649,37.0883417917111,84.2741692502307,21.4475123102005,103,0.295684196640774
"Odisha","Subarnapur",2357.78914530323,300.721479739953,68.1632453,6.75541679282425,97.3941649,37.0883417917111,83.8186214159422,20.9284709321135,50,0.32763171003
"Odisha","Sundargarh",9719.38600067831,691.512115638885,68.1632453,6.75541679282425,97.3941649,37.0883417917111,84.503666706946,22.0767995912212,145,0.255416592763088
"Puducherry","Karaikal",182.671891817279,72.8723275213928,68.1632453,6.75541679282425,97.3941649,37.0883417917111,79.7954130329275,10.9136742278537,26,0.432271206827458
"Puducherry","Mahe",2.70364255901539,8.06696377369952,68.1632453,6.75541679282425,97.3941649,37.0883417917111,75.5424371666667,11.7254768221058,4,0.522082246151086
"Puducherry","Puducherry",208.219608039721,132.758621110162,68.1632453,6.75541679282425,97.3941649,37.0883417917111,79.7582891142636,11.8974744164109,50,0.148458826272139
"Puducherry","Yanam",48.6146647463236,38.4821518269777,68.1632453,6.75541679282425,97.3941649,37.0883417917111,82.2488503274912,16.7215786545205,8,0.412532778359272
"Punjab","Amritsar",2623.55961786824,284.682964353814,68.1632453,6.75541679282425,97.3941649,37.0883417917111,74.8936507528071,31.7016927759232,70,0.406797094880658
"Punjab","Barnala",1419.17129777891,189.727782643851,68.1632453,6.75541679282425,97.3941649,37.0883417917111,75.4884365607594,30.3895649977718,48,0.495430592990526
"Punjab","Bathinda",3352.48680275206,335.063211648966,68.1632453,6.75541679282425,97.3941649,37.0883417917111,75.0309006232157,30.1831398218935,90,0.375252372719866
"Punjab","Faridkot",1452.87420535735,195.949364786051,68.1632453,6.75541679282425,97.3941649,37.0883417917111,74.7684863648559,30.610612828206,38,0.475499601594362
"Punjab","Fatehgarh Sahib",1180.7975982568,229.610560850094,68.1632453,6.75541679282425,97.3941649,37.0883417917111,76.3484372722488,30.634520021096,57,0.281450229000763
"Punjab","Fazilka",2910.74373977147,321.50887689828,68.1632453,6.75541679282425,97.3941649,37.0883417917111,74.1594546968169,30.28366130841,61,0.353857088133133
"Punjab","Firozpur",2365.74887983575,276.962731208379,68.1632453,6.75541679282425,97.3941649,37.0883417917111,74.7044136500973,30.9136175301775,60,0.387557227718793
"Punjab","Gurdaspur",2583.21700335202,248.611443425667,68.1632453,6.75541679282425,97.3941649,37.0883417917111,75.2778106017486,31.9130110004248,59,0.525204604046987
"Punjab","Hoshiarpur",3326.23915939341,335.918946735618,68.1632453,6.75541679282425,97.3941649,37.0883417917111,75.8444133657628,31.6272630610053,66,0.370419922329475
"Punjab","Jalandhar",2590.60640190919,343.192987879572,68.1632453,6.75541679282425,97.3941649,37.0883417917111,75.5534504137874,31.2139718957159,86,0.276397739532829
"Punjab","Kapurthala",1661.71653926032,345.944672135618,68.1632453,6.75541679282425,97.3941649,37.0883417917111,75.3957040469925,31.3497661770778,97,0.174483158227381
"Punjab","Ludhiana",3652.52156757747,321.275101703,68.1632453,6.75541679282425,97.3941649,37.0883417917111,75.8178465117439,30.8060341136087,69,0.444680938527863
"Punjab","Mansa",2218.38240505874,279.867275963935,68.1632453,6.75541679282425,97.3941649,37.0883417917111,75.4280516118634,29.9110001992708,70,0.355911511270234
"Punjab","Moga",2222.37751794514,231.050215958803,68.1632453,6.75541679282425,97.3941649,37.0883417917111,75.1640835876696,30.7624183344605,48,0.523136402439757
"Punjab","Muktsar",2590.90899324416,289.283370251124,68.1632453,6.75541679282425,97.3941649,37.0883417917111,74.5303770192963,30.2945578303753,67,0.38905865895573
"Punjab","Pathankot",1001.30903791203,206.323607510955,68.1632453,6.75541679282425,97.3941649,37.0883417917111,75.6165678900834,32.3042598535703,33,0.295583477850145
"Punjab","Patiala",3336.03090431297,465.223361751459,68.1632453,6.75541679282425,97.3941649,37.0883417917111,76.3483692435893,30.2840911182782,116,0.193694325958746
"Punjab","Rupnagar",1384.93112986088,263.71745589083,68.1632453,6.75541679282425,97.3941649,37.0883417917111,76.4737277020873,31.0636069545403,58,0.250242048439961
"Punjab","Sahibzada Ajit Singh Nagar",1078.73066635729,235.40120327933,68.1632453,6.75541679282425,97.3941649,37.0883417917111,76.7236757724157,30.6894415656442,56,0.24462764375195
"Punjab","Sangrur",3563.24002198584,380.124606857744,68.1632453,6.75541679282425,97.3941649,37.0883417917111,75.8583387235685,30.2130972463451,87,0.309886726067278
"Punjab","Shahid Bhagat Singh Nagar",1293.66446786579,205.523228936212,68.1632453,6.75541679282425,97.3941649,37.0883417917111,76.1478088880226,31.1106948036068,43,0.384866123065238
"Punjab","Tarn Taran",2349.00369064532,234.975658244171,68.1632453,6.75541679282425,97.3941649,37.0883417917111,74.8374109471974,31.3374897827704,63,0.534623215178277
"Rajasthan","Ajmer",8510.79340898153,707.198885739532,68.1632453,6.75541679282425,97.3941649,37.0883417917111,74.7711645330756,26.2336671082339,153,0.213843856090623
"Rajasthan","Alwar",8279.29620990771,686.999310045294,68.1632453,6.75541679282425,97.3941649,37.0883417917111,76.5975092236993,27.5961864466886,162,0.220440142417017
"Rajasthan","Banswara",4488.43011936185,356.000719774794,68.1632453,6.75541679282425,97.3941649,37.0883417917111,74.3642624503016,23.4774447032482,70,0.445043620443461
"Rajasthan","Baran",6874.77902913095,541.556482084205,68.1632453,6.75541679282425,97.3941649,37.0883417917111,76.7478600500069,24.9995378327255,103,0.294564964509501
"Rajasthan","Barmer",28261.5135246883,955.518265181496,68.1632453,6.75541679282425,97.3941649,37.0883417917111,71.4803539409973,25.7292506730494,149,0.388980019764105
"Rajasthan","Bharatpur",5046.71978063171,563.646037730206,68.1632453,6.75541679282425,97.3941649,37.0883417917111,77.2706116014587,27.252012623679,144,0.199620959360032
"Rajasthan","Bhilwara",10431.3756927485,621.656306273028,68.1632453,6.75541679282425,97.3941649,37.0883417917111,74.7262360212192,25.4823699429231,141,0.339196032566617
"Rajasthan","Bikaner",30228.5389010587,996.003520825665,68.1632453,6.75541679282425,97.3941649,37.0883417917111,73.1747431392278,28.1763571999396,177,0.382917551098103
"Rajasthan","Bundi",5804.11576367324,419.72582832886,68.1632453,6.75541679282425,97.3941649,37.0883417917111,75.7919861173128,25.4859928063397,87,0.41401353577791
"Rajasthan","Chittaurgarh",7529.21590695024,806.865771096886,68.1632453,6.75541679282425,97.3941649,37.0883417917111,74.7813068225506,24.836031670146,188,0.145330588015292
"Rajasthan","Churu",13771.9297041586,830.872680616398,68.1632453,6.75541679282425,97.3941649,37.0883417917111,74.6936377710982,28.3473474471133,166,0.250689245012505
"Rajasthan","Dausa",3510.29888092158,408.716301252563,68.1632453,6.75541679282425,97.3941649,37.0883417917111,76.5099228503532,26.8641437288764,85,0.264064512614508
"Rajasthan","Dhaulpur",3034.80997810495,328.559623340721,68.1632453,6.75541679282425,97.3941649,37.0883417917111,77.6933823752494,26.6859255193936,73,0.35327506370596
"Rajasthan","Dungarpur",3764.02750538417,329.048940942447,68.1632453,6.75541679282425,97.3941649,37.0883417917111,73.856741025755,23.7339538757611,59,0.436859372560629
"Rajasthan","Ganganagar",10906.8294709311,697.979403425368,68.1632453,6.75541679282425,97.3941649,37.0883417917111,73.5704049720189,29.3952905695368,116,0.281334616306639
"Rajasthan","Hanumangarh",9604.99885509734,752.826249675496,68.1632453,6.75541679282425,97.3941649,37.0883417917111,74.5573814247986,29.2657756871076,171,0.212969628821941
"Rajasthan","Jaipur",11249.4671834321,667.469520219043,68.1632453,6.75541679282425,97.3941649,37.0883417917111,75.71725612582,26.9818569945531,149,0.317306479053961
"Rajasthan","Jaisalmer",38566.4521664213,1111.9629216744,68.1632453,6.75541679282425,97.3941649,37.0883417917111,70.9035303836339,27.0711350183449,138,0.391957465596649
"Rajasthan","Jalor",10677.91780826,648.252819549415,68.1632453,6.75541679282425,97.3941649,37.0883417917111,72.2149228924765,25.0937261485469,123,0.31930638931708
"Rajasthan","Jhalawar",6423.53959309593,638.58517289578,68.1632453,6.75541679282425,97.3941649,37.0883417917111,76.1920584572456,24.3402867216712,137,0.197945944421816
"Rajasthan","Jhunjhunun",5920.12042445224,414.430034654656,68.1632453,6.75541679282425,97.3941649,37.0883417917111,75.5457663097079,28.0951349489286,101,0.433149642963227
"Rajasthan","Jodhpur",22779.7487504554,891.137715835168,68.1632453,6.75541679282425,97.3941649,37.0883417917111,72.7872766423549,26.7485586251901,175,0.360470014592843
"Rajasthan","Karauli",4923.59233536982,443.942668787228,68.1632453,6.75541679282425,97.3941649,37.0883417917111,76.9557150346307,26.5262715019058,90,0.313933870112285
"Rajasthan","Kota",5076.32062126272,527.176692459066,68.1632453,6.75541679282425,97.3941649,37.0883417917111,76.1113149027103,25.1148571080564,111,0.22953372592742
"Rajasthan","Nagaur",17615.6975449262,801.423792674578,68.1632453,6.75541679282425,97.3941649,37.0883417917111,74.1834077519025,27.0664163392265,171,0.344655525748106
"Rajasthan","Pali",12326.9407083232,742.342920831323,68.1632453,6.75541679282425,97.3941649,37.0883417917111,73.5217714452173,25.7099895070655,158,0.281096882043562
"Rajasthan","Pratapgarh",4641.2615666858,381.108287193169,68.1632453,6.75541679282425,97.3941649,37.0883417917111,74.6570192656943,24.0353650382242,66,0.401558777479323
"Rajasthan","Rajsamand",4701.14883525903,564.401508079021,68.1632453,6.75541679282425,97.3941649,37.0883417917111,73.8868761742331,25.2185319208069,131,0.185454567489623
"Rajasthan","Sawai Madhopur",5002.687574038,476.222065717763,68.1632453,6.75541679282425,97.3941649,37.0883417917111,76.4629472629089,26.2197049363402,103,0.277200632108361
"Rajasthan","Sikar",7668.86814917934,589.536028565522,68.1632453,6.75541679282425,97.3941649,37.0883417917111,75.281078197252,27.6399826341344,129,0.277281204607296
"Rajasthan","Sirohi",5140.02180840065,392.922137221307,68.1632453,6.75541679282425,97.3941649,37.0883417917111,72.7787687790041,24.759801734147,74,0.418371247819427
"Rajasthan","Tonk",7217.65704986762,557.010381740903,68.1632453,6.75541679282425,97.3941649,37.0883417917111,75.6675601811269,26.1504842312591,135,0.292334133242649
"Rajasthan","Udaipur",11684.5632183868,738.475365476056,68.1632453,6.75541679282425,97.3941649,37.0883417917111,73.699879126174,24.4188659741344,164,0.269246658278819
"Sikkim","East District",929.705999763707,131.187677142866,68.1632453,6.75541679282425,97.3941649,37.0883417917111,88.6723435126455,27.2933485152503,27,0.678843107685168
"Sikkim","North District",4238.25608430448,285.94991445438,68.1632453,6.75541679282425,97.3941649,37.0883417917111,88.5267096601252,27.7430785262782,52,0.65135404760441
"Sikkim","South District",721.672336034227,145.985353536407,68.1632453,6.75541679282425,97.3941649,37.0883417917111,88.3825255096924,27.2849132108424,27,0.425531142951711
"Sikkim","West District",1166.91171981555,161.084939569447,68.1632453,6.75541679282425,97.3941649,37.0883417917111,88.1742275711492,27.3474388862306,28,0.565116501139598
"Tamil Nadu","Ariyalur",1936.47223464792,210.115212346539,68.1632453,6.75541679282425,97.3941649,37.0883417917111,79.2275330153624,11.1464429165292,51,0.55119611196268
"Tamil Nadu","Chennai",181.757125949142,56.3805269414187,68.1632453,6.75541679282425,97.3941649,37.0883417917111,80.2362864650279,13.0478221198792,16,0.71852692968449
"Tamil Nadu","Coimbatore",3822.25518968213,418.845599582235,68.1632453,6.75541679282425,97.3941649,37.0883417917111,76.9308256465618,10.8247218874661,97,0.273792551401432
"Tamil Nadu","Cuddalore",3811.16264748616,417.966192121281,68.1632453,6.75541679282425,97.3941649,37.0883417917111,79.445354197688,11.5250339119419,101,0.274147972440552
"Tamil Nadu","Dharmapuri",4509.82291620636,427.686351238437,68.1632453,6.75541679282425,97.3941649,37.0883417917111,78.182668397257,12.0873533498305,89,0.309826507480701
"Tamil Nadu","Dindigul",6039.05132290637,497.964794464527,68.1632453,6.75541679282425,97.3941649,37.0883417917111,77.806117251765,10.3793322775112,105,0.306042192808252
"Tamil Nadu","Erode",5979.72534554917,496.207903192301,68.1632453,6.75541679282425,97.3941649,37.0883417917111,77.4047828699226,11.4958204964193,104,0.305185395450622
"Tamil Nadu","Kancheepuram",4685.27738886098,373.529188413641,68.1632453,6.75541679282425,97.3941649,37.0883417917111,79.9359950926769,12.681172797187,84,0.421984096359465
"Tamil Nadu","Kanniyakumari",1584.74974521581,190.084561206068,68.1632453,6.75541679282425,97.3941649,37.0883417917111,77.3465458356566,8.30633482266373,36,0.551158951670795
"Tamil Nadu","Karur",2865.87738557078,380.316284349389,68.1632453,6.75541679282425,97.3941649,37.0883417917111,78.1170896446574,10.8321817322425,76,0.248987547076413
"Tamil Nadu","Krishnagiri",5118.75308439611,523.522124323985,68.1632453,6.75541679282425,97.3941649,37.0883417917111,78.0213001231556,12.4788737046506,130,0.234695068955699
"Tamil Nadu","Madurai",3683.48263583178,421.497920906084,68.1632453,6.75541679282425,97.3941649,37.0883417917111,77.9906636115989,9.91019371377308,100,0.260541924904789
"Tamil Nadu","Nagapattinam",2376.98142948289,398.004787053297,68.1632453,6.75541679282425,97.3941649,37.0883417917111,79.7367054067535,10.8689647066781,96,0.188564121231014
"Tamil Nadu","Namakkal",3406.24184645317,325.040082973937,68.1632453,6.75541679282425,97.3941649,37.0883417917111,78.1229417713681,11.3052350085196,75,0.405145951699306
"Tamil Nadu","Perambalur",1740.05495242972,235.375114290552,68.1632453,6.75541679282425,97.3941649,37.0883417917111,78.8780013919422,11.2595714435657,53,0.394686016720745
"Tamil Nadu","Pudukkottai",4704.07434445356,484.43049982727,68.1632453,6.75541679282425,97.3941649,37.0883417917111,78.8683563850448,10.3401655621515,127,0.251895891267401
"Tamil Nadu","Ramanathapuram",4323.772057379,558.801767533584,68.1632453,6.75541679282425,97.3941649,37.0883417917111,78.6805825519789,9.43885482978148,116,0.174003150731795
"Tamil Nadu","Salem",5184.12833716799,529.414249144569,68.1632453,6.75541679282425,97.3941649,37.0883417917111,78.2106250988536,11.662778767486,116,0.232431163428812
"Tamil Nadu","Sivaganga",4074.43170479245,531.878464204947,68.1632453,6.75541679282425,97.3941649,37.0883417917111,78.5766929830829,9.9068330074832,140,0.180988964167011
"Tamil Nadu","Thanjavur",3391.57436474633,465.66542031917,68.1632453,6.75541679282425,97.3941649,37.0883417917111,79.2241036445494,10.6544464700803,115,0.196545556608974
"Tamil Nadu","The Nilgiris",2539.38261052802,276.54108542245,68.1632453,6.75541679282425,97.3941649,37.0883417917111,76.6319388148659,11.4482914012341,63,0.417271457728293
"Tamil Nadu","Theni",2838.68203891432,270.196573124902,68.1632453,6.75541679282425,97.3941649,37.0883417917111,77.4230401910437,9.8801801630068,66,0.488615163615502
"Tamil Nadu","Thiruvallur",3348.96510226735,502.113934579319,68.1632453,6.75541679282425,97.3941649,37.0883417917111,79.9387048280624,13.2393475787211,145,0.166922906455912
"Tamil Nadu","Thiruvarur",2464.99731725301,351.005198973666,68.1632453,6.75541679282425,97.3941649,37.0883417917111,79.5332908354371,10.6742677052688,117,0.251419649548807
"Tamil Nadu","Thoothukkudi",4758.81508702564,396.274763269281,68.1632453,6.75541679282425,97.3941649,37.0883417917111,77.9890634530927,8.87647823716944,88,0.380816593107063
"Tamil Nadu","Tiruchirappalli",4499.8994619761,628.402498248043,68.1632453,6.75541679282425,97.3941649,37.0883417917111,78.5536535431999,10.8748195941838,142,0.143197972483352
"Tamil Nadu","Tirunelveli",6784.29209852477,505.279395193779,68.1632453,6.75541679282425,97.3941649,37.0883417917111,77.5224747458857,8.79068344249259,113,0.333926761265583
"Tamil Nadu","Tiruppur",5791.1874727707,527.604584066246,68.1632453,6.75541679282425,97.3941649,37.0883417917111,77.352960154643,10.8453770466573,118,0.261432976624998
"Tamil Nadu","Tiruvannamalai",6171.49723860333,540.408070964588,68.1632453,6.75541679282425,97.3941649,37.0883417917111,79.1535543723107,12.4198403261597,134,0.265556386166387
"Tamil Nadu","Vellore",6076.14189013062,582.791896622421,68.1632453,6.75541679282425,97.3941649,37.0883417917111,78.9976122838694,12.8006326532058,139,0.224807482348808
"Tamil Nadu","Viluppuram",7319.08072809289,618.156184186246,68.1632453,6.75541679282425,97.3941649,37.0883417917111,79.2860713878479,11.9608599631649,159,0.240696604984282
"Tamil Nadu","Virudhunagar",4285.07169384922,415.876906336911,68.1632453,6.75541679282425,97.3941649,37.0883417917111,77.8939169569391,9.48108143211628,108,0.311342456201049
"Telangana","Adilabad",3965.06575548255,341.804612446186,68.1632453,6.75541679282425,97.3941649,37.0883417917111,78.568431588499,19.5208732767579,76,0.426485647065593
"Telangana","Bhadradri Kothagudem",9789.27883846313,595.902440999442,68.1632453,6.75541679282425,97.3941649,37.0883417917111,80.8683774845621,17.6742356886661,109,0.346425804594693
"Telangana","Hyderabad",180.976500776883,73.4155525242323,68.1632453,6.75541679282425,97.3941649,37.0883417917111,78.4685262935485,17.3954217229597,27,0.421945060838056
"Telangana","Jagitial",2786.04038873042,240.507392345458,68.1632453,6.75541679282425,97.3941649,37.0883417917111,78.878605381365,18.8299915032557,44,0.605257824992829
"Telangana","Jangoan",2323.54280884213,250.852437367976,68.1632453,6.75541679282425,97.3941649,37.0883417917111,79.2714594909848,17.7330745176614,59,0.464006315887645
"Telangana","Jayashankar Bhupalapally",7053.70220824844,435.73214120321,68.1632453,6.75541679282425,97.3941649,37.0883417917111,80.1672395896596,18.375826468382,91,0.466861211014335
"Telangana","Jogulamba Gadwal",2631.95154222861,247.364833263724,68.1632453,6.75541679282425,97.3941649,37.0883417917111,77.7822407795537,16.065373749381,42,0.540520085862603
"Telangana","Kamareddy",3704.99553930336,363.88025672501,68.1632453,6.75541679282425,97.3941649,37.0883417917111,78.0597909928108,18.3256324310213,83,0.351625666665733
"Telangana","Karimnagar",2129.59204358619,245.195372556554,68.1632453,6.75541679282425,97.3941649,37.0883417917111,79.2395190127625,18.3796843560844,63,0.445124747324492
"Telangana","Khammam",4562.59109392151,514.058855935302,68.1632453,6.75541679282425,97.3941649,37.0883417917111,80.3556704895948,17.1953339543022,111,0.216968018004899
"Telangana","Komaram Bheem Asifabad",4451.97155366357,426.30125296256,68.1632453,6.75541679282425,97.3941649,37.0883417917111,79.412997239928,19.3578117620671,98,0.307842818423028
"Telangana","Mahabubabad",3596.92020869602,320.92259342187,68.1632453,6.75541679282425,97.3941649,37.0883417917111,79.9804508851612,17.6583145558893,79,0.438874231113776
"Telangana","Mahabubnagar",5150.55710241302,429.246160193836,68.1632453,6.75541679282425,97.3941649,37.0883417917111,77.7989277201011,16.7045777046657,94,0.351278227454124
"Telangana","Mancherial",3832.35401359419,396.314611265801,68.1632453,6.75541679282425,97.3941649,37.0883417917111,79.5058288437607,18.9993862336178,79,0.30661635460294
"Telangana","Medak",2748.41020411089,330.663554414288,68.1632453,6.75541679282425,97.3941649,37.0883417917111,78.2594587708562,17.9556512520263,80,0.315877546942363
"Telangana","Medchal-Malkajgiri",1064.76110358327,171.271040504725,68.1632453,6.75541679282425,97.3941649,37.0883417917111,78.5484721277255,17.5446402643768,43,0.45613581055466
"Telangana","Nagarkurnool",6280.84064441754,500.015565674478,68.1632453,6.75541679282425,97.3941649,37.0883417917111,78.5862667257434,16.3928466722422,87,0.3156898292235
"Telangana","Nalgonda",7268.39486216484,432.435785238541,68.1632453,6.75541679282425,97.3941649,37.0883417917111,79.1913292945061,16.874774668045,74,0.488433142382196
"Telangana","Nirmal",3816.39303654315,395.227625073924,68.1632453,6.75541679282425,97.3941649,37.0883417917111,78.3169070294855,19.1116444150018,77,0.307021206069429
"Telangana","Nizamabad",4196.94401461595,294.271424895184,68.1632453,6.75541679282425,97.3941649,37.0883417917111,78.2103032944035,18.6983087866995,49,0.60904145687451
"Telangana","Peddapalli",2242.87848497734,214.211882559396,68.1632453,6.75541679282425,97.3941649,37.0883417917111,79.4584285542985,18.6239935511934,32,0.614226420110034
"Telangana","Rajanna Sircilla",1854.08996219168,185.121157274389,68.1632453,6.75541679282425,97.3941649,37.0883417917111,78.7629853173853,18.4170954715209,44,0.679874188663003
"Telangana","Ranga Reddy",5017.93781182566,450.210026376664,68.1632453,6.75541679282425,97.3941649,37.0883417917111,78.4120352579099,17.1325876669411,112,0.311103440022969
"Telangana","Sangareddy",4436.58397577741,497.048878599589,68.1632453,6.75541679282425,97.3941649,37.0883417917111,77.8721383916491,17.7827323878722,123,0.225663008436657
"Telangana","Siddipet",3640.24553820987,310.886890016258,68.1632453,6.75541679282425,97.3941649,37.0883417917111,78.8481481954307,18.0077829755282,73,0.47329915103811
"Telangana","Suryapet",3478.97413740419,301.819733440621,68.1632453,6.75541679282425,97.3941649,37.0883417917111,79.7519341227631,17.0740391999242,46,0.479916632787978
