"state_name","district_name","area_sq_km","perimeter_km","bbox_xmin","bbox_ymin","bbox_xmax","bbox_ymax","centroid_lon","centroid_lat","num_vertices","compactness"
"A & N Islands","Nicobar",1771.77810000248,834.4606111685,68.1775119,6.75278259282672,97.4128965,37.088140591711,93.5948117851674,7.51441304860355,1446,0.0319747759563164
"A & N Islands","North & Middle Andaman",3417.99058111823,2676.86967979102,68.1775119,6.75278259282672,97.4128965,37.088140591711,92.8707832431121,12.8426838387755,5255,0.00599413152936174
"A & N Islands","South Andaman",2513.07701242014,1565.47639453155,68.1775119,6.75278259282672,97.4128965,37.088140591711,92.6476479600983,11.5224807949151,2388,0.012886133160905
"Andhra Pradesh","Anantapur",19409.8018294174,1484.77803977263,68.1775119,6.75278259282672,97.4128965,37.088140591711,77.56691459592,14.4930548321523,995,0.110638911439709
"Andhra Pradesh","Chittoor",15002.7490274958,1232.9421556006,68.1775119,6.75278259282672,97.4128965,37.088140591711,79.0060175193194,13.4648767464304,969,0.124021021653911
"Andhra Pradesh","East Godavari",12916.1006561066,980.638061008751,68.1775119,6.75278259282672,97.4128965,37.088140591711,81.8932948889889,17.2719626464257,572,0.168781092731498
"Andhra Pradesh","Guntur",11405.2167382824,793.100311742645,68.1775119,6.75278259282672,97.4128965,37.088140591711,80.0787557310633,16.2931441346653,437,0.227854266818075
"Andhra Pradesh","Kargil",14204.6473401817,876.85661833293,68.1775119,6.75278259282672,97.4128965,37.088140591711,76.494588458382,33.9028281256452,583,0.23215773145123
"Andhra Pradesh","Krishna",8758.91842140192,818.488074243135,68.1775119,6.75278259282672,97.4128965,37.088140591711,80.7982328280572,16.5555379997408,462,0.164299269925859
"Andhra Pradesh","Kurnool",17388.1356240244,879.805221225935,68.1775119,6.75278259282672,97.4128965,37.088140591711,78.01302848785,15.5355509109196,469,0.282286307573687
"Andhra Pradesh","Leh",154018.668492448,3166.59119733438,68.1775119,6.75278259282672,97.4128965,37.088140591711,76.8213120293068,35.0439216740191,1467,0.193018629768719
"Andhra Pradesh","Potti Sriramulu Nellore",13212.4021865894,658.026776573224,68.1775119,6.75278259282672,97.4128965,37.088140591711,79.73895762795,14.4183378308583,355,0.383446269065008
"Andhra Pradesh","Prakasam",17619.8645145796,855.969336010161,68.1775119,6.75278259282672,97.4128965,37.088140591711,79.5152712188042,15.6161640741578,494,0.302201081911736
"Andhra Pradesh","Srikakulam",5842.97833938752,663.45034367141,68.1775119,6.75278259282672,97.4128965,37.088140591711,84.0228438684332,18.5976964116656,496,0.166812001607029
"Andhra Pradesh","Visakhapatnam",11582.8628158527,947.567051757672,68.1775119,6.75278259282672,97.4128965,37.088140591711,82.6940228135455,17.8933045516557,724,0.162108532445082
"Andhra Pradesh","Vizianagaram",6148.9335916914,799.288144976677,68.1775119,6.75278259282672,97.4128965,37.088140591711,83.3851441471345,18.4728293847661,647,0.120949178680375
"Andhra Pradesh","West Godavari",8320.65488144566,616.225223871701,68.1775119,6.75278259282672,97.4128965,37.088140591711,81.3875179188153,16.9313503446173,329,0.275352123759831
"Andhra Pradesh","Y S R Kadapa",15343.9837892451,778.198262854901,68.1775119,6.75278259282672,97.4128965,37.088140591711,78.7803837240228,14.4637131611461,451,0.318395910509617
"Arunachal Pradesh","Anjaw",6016.00190812891,390.847759300902,68.1775119,6.75278259282672,97.4128965,37.088140591711,96.8562842738091,28.0666337487751,216,0.494883046636776
"Arunachal Pradesh","Changlang",4948.02614310243,568.939097987224,68.1775119,6.75278259282672,97.4128965,37.088140591711,96.3531302454892,27.3700944979018,412,0.192092447406175
"Arunachal Pradesh","Dibang Valley",9578.39699618539,587.443423925205,68.1775119,6.75278259282672,97.4128965,37.088140591711,95.9098207319035,28.8683564065878,309,0.348795284031737
"Arunachal Pradesh","East Kameng",4410.54081970789,392.708687530695,68.1775119,6.75278259282672,97.4128965,37.088140591711,92.9175784395326,27.5879282071453,224,0.359385616946219
"Arunachal Pradesh","East Siang",1679.54995145282,214.523749239901,68.1775119,6.75278259282672,97.4128965,37.088140591711,95.35403045051,28.0481778080343,85,0.458618987985193
"Arunachal Pradesh","Kamle",1377.64933938829,228.536935993852,68.1775119,6.75278259282672,97.4128965,37.088140591711,94.0781859409032,27.7415298647901,82,0.331463530147058
"Arunachal Pradesh","Kra Daadi",1762.76295866691,271.90068486756,68.1775119,6.75278259282672,97.4128965,37.088140591711,93.673066440881,28.0175925411565,127,0.299628539265686
"Arunachal Pradesh","Kurung Kumey",4444.30092887408,352.81761193502,68.1775119,6.75278259282672,97.4128965,37.088140591711,93.206850522709,28.0026861377913,167,0.448655307456689
"Arunachal Pradesh","Lepa Rada",766.544750301698,137.604459207894,68.1775119,6.75278259282672,97.4128965,37.088140591711,94.7159740458488,27.9254362372259,61,0.508724158413337
"Arunachal Pradesh","Lohit",3054.02680638119,379.979821809024,68.1775119,6.75278259282672,97.4128965,37.088140591711,96.3004760640858,27.9295284820976,217,0.26580407773882
"Arunachal Pradesh","Longding",935.520100772987,168.166740304292,68.1775119,6.75278259282672,97.4128965,37.088140591711,95.3277086695467,26.8552211490801,107,0.415702632976641
"Arunachal Pradesh","Lower Dibang Valley",3540.44035844265,405.603750826447,68.1775119,6.75278259282672,97.4128965,37.088140591711,95.8216601672901,28.2546453016106,230,0.270435201758913
"Arunachal Pradesh","Lower Siang",1812.84824707846,296.817081861908,68.1775119,6.75278259282672,97.4128965,37.088140591711,94.6948172473017,27.7753872921721,165,0.258579167517725
"Arunachal Pradesh","Lower Subansiri",1942.36742172284,261.592446487698,68.1775119,6.75278259282672,97.4128965,37.088140591711,93.7766112318608,27.5882783083722,149,0.356689931345227
"Arunachal Pradesh","Namsai",1341.06668026184,171.652968083358,68.1775119,6.75278259282672,97.4128965,37.088140591711,96.0431867281862,27.7012466522643,78,0.571949390775801
"Arunachal Pradesh","Pakke Kessang",1907.90943054045,295.131440662186,68.1775119,6.75278259282672,97.4128965,37.088140591711,93.0355440335454,27.1055058549696,127,0.275255916731088
"Arunachal Pradesh","Papumpare",3445.51348653422,422.596092624982,68.1775119,6.75278259282672,97.4128965,37.088140591711,93.5963072201709,27.2702185491998,279,0.242444794467722
"Arunachal Pradesh","Shi Yomi",2616.02678923823,238.539812701587,68.1775119,6.75278259282672,97.4128965,37.088140591711,94.2610942036914,28.6770326234525,96,0.577737161341057
"Arunachal Pradesh","Siang",3449.95015290117,384.86115006255,68.1775119,6.75278259282672,97.4128965,37.088140591711,94.8088591820751,28.4043760452473,180,0.292694483722433
"Arunachal Pradesh","Tawang",2455.58968002905,309.145494879513,68.1775119,6.75278259282672,97.4128965,37.088140591711,91.9653796707342,27.6622810551383,216,0.322879014931629
"Arunachal Pradesh","Tirap",1175.26589515236,182.731123278396,68.1775119,6.75278259282672,97.4128965,37.088140591711,95.543296718849,27.0242624725035,118,0.442304084394154
"Arunachal Pradesh","Upper Siang",6704.72907049815,481.887769530396,68.1775119,6.75278259282672,97.4128965,37.088140591711,94.9151698113031,28.8329534835191,247,0.362826742336614
"Arunachal Pradesh","Upper Subansiri",6485.17583365707,479.194359315721,68.1775119,6.75278259282672,97.4128965,37.088140591711,93.9295840822008,28.2900413028626,240,0.354901818941123
"Arunachal Pradesh","West Kameng",4919.43489382878,373.061081312761,68.1775119,6.75278259282672,97.4128965,37.088140591711,92.3930600304995,27.2918639315853,258,0.444186333147794
"Arunachal Pradesh","West Siang",1333.43570472562,207.817749255766,68.1775119,6.75278259282672,97.4128965,37.088140591711,94.6198394689494,28.1583163615174,96,0.387986549492789
"Assam","Baksa",2440.06540152543,494.327132320586,68.1775119,6.75278259282672,97.4128965,37.088140591711,91.3512800261122,26.6602063867882,422,0.125482289537072
"Assam","Barpeta",2290.79703711252,440.347156767254,68.1775119,6.75278259282672,97.4128965,37.088140591711,91.0034375138473,26.3416156233048,393,0.148458847130516
"Assam","Biswanath",2219.80528163807,270.313156749131,68.1775119,6.75278259282672,97.4128965,37.088140591711,93.3127324683905,26.8122165005691,157,0.381759959402388
"Assam","Bongaigaon",1117.47204038317,299.484879909685,68.1775119,6.75278259282672,97.4128965,37.088140591711,90.6138973569794,26.354000098813,239,0.156565737335299
"Assam","Cachar",3783.43723739359,417.238698611198,68.1775119,6.75278259282672,97.4128965,37.088140591711,92.8547546307548,24.812621869347,378,0.273103479709756
"Assam","Charaideo",1009.09641600645,225.870800146513,68.1775119,6.75278259282672,97.4128965,37.088140591711,95.0598975899525,27.0678391021325,170,0.248554910187511
"Assam","Chirang",1913.1630647572,281.878055333842,68.1775119,6.75278259282672,97.4128965,37.088140591711,90.595948912773,26.6596292988619,183,0.302579372974787
"Assam","Darrang",1581.57574907246,356.620970963012,68.1775119,6.75278259282672,97.4128965,37.088140591711,92.0295163462238,26.4477595183004,323,0.156273775612374
"Assam","Dhemaji",2477.50162008097,394.635073552145,68.1775119,6.75278259282672,97.4128965,37.088140591711,94.7745704753124,27.5895637332685,249,0.199909047212127
"Assam","Dhubri",1659.3487882235,515.453850053194,68.1775119,6.75278259282672,97.4128965,37.088140591711,90.0370713714283,26.1534408981557,480,0.0784816221345571
"Assam","Dibrugarh",3381.27390934547,430.036705432856,68.1775119,6.75278259282672,97.4128965,37.088140591711,95.0531102053356,27.3669183920004,352,0.229762509173164
"Assam","Dima Hasao",4882.30264417664,475.433839314587,68.1775119,6.75278259282672,97.4128965,37.088140591711,93.0311221429822,25.3779847771143,446,0.271427834365159
"Assam","Goalpara",1954.99490689229,327.434071998709,68.1775119,6.75278259282672,97.4128965,37.088140591711,90.6074274489211,26.0501756208649,240,0.229143612846659
"Assam","Golaghat",3224.6886430931,550.072658448781,68.1775119,6.75278259282672,97.4128965,37.088140591711,93.8310511609073,26.4432645715149,591,0.133923729383573
"Assam","Hailakandi",1329.34248171541,247.303898241125,68.1775119,6.75278259282672,97.4128965,37.088140591711,92.5877503141242,24.4973224523932,233,0.273139697034074
"Assam","Hojai",1456.80706678768,240.363977725154,68.1775119,6.75278259282672,97.4128965,37.088140591711,92.9799834376724,25.9783550266812,209,0.316864173892359
"Assam","Jorhat",1866.60809212798,315.806822809685,68.1775119,6.75278259282672,97.4128965,37.088140591711,94.276355198991,26.6954988239779,347,0.235190616979268
"Assam","Kamrup Metro",972.289555505931,198.051015260331,68.1775119,6.75278259282672,97.4128965,37.088140591711,91.8919372368792,26.1285620452476,150,0.311495185417706
"Assam","Kamrup Rural",3123.23098331471,495.852733863957,68.1775119,6.75278259282672,97.4128965,37.088140591711,91.4164062475424,26.1003907510889,399,0.159627805901658
"Assam","Karbi Anglong",7325.18058237183,731.010825256667,68.1775119,6.75278259282672,97.4128965,37.088140591711,93.4048622467508,26.1567995725506,841,0.172258468978831
"Assam","Karimganj",1811.14945322166,240.547327197184,68.1775119,6.75278259282672,97.4128965,37.088140591711,92.3790917046016,24.5794321838333,170,0.393335442843786
"Assam","Kokrajhar",3104.65702141262,386.613955067579,68.1775119,6.75278259282672,97.4128965,37.088140591711,90.1187362053115,26.4928205680942,292,0.261016788249357
"Assam","Lakhimpur",2995.17196364587,363.055704006541,68.1775119,6.75278259282672,97.4128965,37.088140591711,94.1407584152117,27.1741832499283,288,0.285551928194651
"Assam","Majuli",1270.02367284909,268.265787633306,68.1775119,6.75278259282672,97.4128965,37.088140591711,94.1713572512993,26.9381185858578,162,0.221764027498234
"Assam","Marigaon",1511.4281632331,216.536701188204,68.1775119,6.75278259282672,97.4128965,37.088140591711,92.2840041489768,26.2818661854567,159,0.40507397513642
"Assam","Nagaon",2578.67179288059,567.120026493759,68.1775119,6.75278259282672,97.4128965,37.088140591711,92.753650777425,26.362628561327,511,0.100752531374895
"Assam","Nalbari",1047.16990336369,227.81114778167,68.1775119,6.75278259282672,97.4128965,37.088140591711,91.3825729566485,26.3706278082768,195,0.25355785630402
"Assam","Sibsagar",1633.05050997554,266.286034818619,68.1775119,6.75278259282672,97.4128965,37.088140591711,94.6649601368027,26.970378947467,232,0.289409444786324
"Assam","Sonitpur",3006.38320127826,298.396156266913,68.1775119,6.75278259282672,97.4128965,37.088140591711,92.6509085031982,26.7587149113319,199,0.424294840766537
"Assam","South Salmara Mancachar",560.710832044364,201.01445653357,68.1775119,6.75278259282672,97.4128965,37.088140591711,89.9315355247288,25.7779595328583,170,0.1743790173073
"Assam","Tinsukia",3810.68533785836,406.057559817377,68.1775119,6.75278259282672,97.4128965,37.088140591711,95.6194621648778,27.5798811819872,331,0.290427510501236
"Assam","Udalguri",2012.63025163223,412.085053939175,68.1775119,6.75278259282672,97.4128965,37.088140591711,92.0312190275657,26.7300893469939,354,0.148936153657573
"Assam","West Karbi Anglong",3072.62718087921,416.342211846868,68.1775119,6.75278259282672,97.4128965,37.088140591711,92.5329119844825,25.8499075728802,351,0.222750579156699
"Bihar","Araria",2791.10938600149,375.801475961068,68.1775119,6.75278259282672,97.4128965,37.088140591711,87.3633471717274,26.1987008789422,375,0.248353198915829
"Bihar","Arwal",636.62302305952,183.04460484455,68.1775119,6.75278259282672,97.4128965,37.088140591711,84.6775748597948,25.1630298612596,152,0.238769219079662
"Bihar","Aurangabad",3305.98540708024,361.476277693444,68.1775119,6.75278259282672,97.4128965,37.088140591711,84.4088378351912,24.7908824244235,275,0.317944409658218
"Bihar","Banka",3023.31251961197,329.912036256213,68.1775119,6.75278259282672,97.4128965,37.088140591711,86.8371637951733,24.8540649476089,322,0.349057188176941
"Bihar","Begusarai",1922.49585986045,354.40271394058,68.1775119,6.75278259282672,97.4128965,37.088140591711,86.1295331651743,25.4966848359003,298,0.192345131974898
"Bihar","Bhagalpur",2556.27093779253,368.072213002987,68.1775119,6.75278259282672,97.4128965,37.088140591711,87.0828721560696,25.2695302485173,329,0.237110442979876
"Bihar","Bhojpur",2387.75218994115,279.868866893727,68.1775119,6.75278259282672,97.4128965,37.088140591711,84.542552740751,25.4706921677739,186,0.383080404333262
"Bihar","Buxar",1700.01491417439,273.622175858959,68.1775119,6.75278259282672,97.4128965,37.088140591711,84.0997767285251,25.4919910593005,218,0.285338261758096
"Bihar","Darbhanga",2516.85058048822,444.558548763845,68.1775119,6.75278259282672,97.4128965,37.088140591711,86.054355877114,26.0841483809826,483,0.160032933132031
"Bihar","Gaya",4969.52216378169,596.049869760678,68.1775119,6.75278259282672,97.4128965,37.088140591711,84.9343463291769,24.6966951935756,530,0.175775888176883
"Bihar","Gopalganj",2034.80621919348,337.881619233127,68.1775119,6.75278259282672,97.4128965,37.088140591711,84.3738212795619,26.4438986097057,275,0.223977187455189
"Bihar","Jahanabad",937.581425234024,214.300343290154,68.1775119,6.75278259282672,97.4128965,37.088140591711,85.0169375963438,25.1551644491558,220,0.256550653545301
"Bihar","Jamui",3100.31963937347,391.078522330529,68.1775119,6.75278259282672,97.4128965,37.088140591711,86.2938993876888,24.7835582048688,316,0.254734873416153
"Bihar","Kaimur",3368.59252825984,366.511112026986,68.1775119,6.75278259282672,97.4128965,37.088140591711,83.6056380374791,24.9919024815378,362,0.315125866215744
"Bihar","Katihar",3043.3166558758,454.984250932625,68.1775119,6.75278259282672,97.4128965,37.088140591711,87.640463083356,25.5487603822307,448,0.184741420593591
"Bihar","Khagaria",1494.20195226049,284.322225871655,68.1775119,6.75278259282672,97.4128965,37.088140591711,86.6015755340207,25.5108237386762,242,0.23227236538054
"Bihar","Kishanganj",1928.18464737057,362.667552049099,68.1775119,6.75278259282672,97.4128965,37.088140591711,87.9355552378328,26.2962271767579,422,0.184221826056732
"Bihar","Lakhisarai",1221.59971229325,222.168043537571,68.1775119,6.75278259282672,97.4128965,37.088140591711,86.1367022776786,25.1611894939778,181,0.311010896187985
"Bihar","Madhepura",1808.14583198712,331.958520247975,68.1775119,6.75278259282672,97.4128965,37.088140591711,86.8989771074258,25.8227302185423,312,0.206193836187518
"Bihar","Madhubani",3502.26057968952,441.522365169189,68.1775119,6.75278259282672,97.4128965,37.088140591711,86.2217893992215,26.4022552214538,424,0.225763071430017
"Bihar","Munger",1410.72204621032,257.975155240068,68.1775119,6.75278259282672,97.4128965,37.088140591711,86.5260444359204,25.2098392810065,195,0.266376281749357
"Bihar","Muzaffarpur",3179.83165397288,409.551250482993,68.1775119,6.75278259282672,97.4128965,37.088140591711,85.3286483733096,26.1522279571815,406,0.23823056441841
"Bihar","Nalanda",2369.66622983218,388.73772698813,68.1775119,6.75278259282672,97.4128965,37.088140591711,85.4500161736584,25.2189515385079,384,0.197053276995232
"Bihar","Nawada",2489.81002452508,364.940416805059,68.1775119,6.75278259282672,97.4128965,37.088140591711,85.5897814364557,24.8110722032617,324,0.234926575319455
"Bihar","Pashchimi Champaran",5229.09624507184,463.405426236617,68.1775119,6.75278259282672,97.4128965,37.088140591711,84.3389466162228,27.0799065197909,388,0.305994957449994
"Bihar","Patna",3195.83820409202,553.244425802767,68.1775119,6.75278259282672,97.4128965,37.088140591711,85.2233874375293,25.4559152649635,462,0.131208072134011
"Bihar","Purbi Champaran",3973.84844244676,455.730860883818,68.1775119,6.75278259282672,97.4128965,37.088140591711,84.9219111735617,26.6183251701082,460,0.240438652835126
"Bihar","Purnia",3228.25222245423,431.055866261452,68.1775119,6.75278259282672,97.4128965,37.088140591711,87.4051169285111,25.8154072936719,433,0.218328385421192
"Bihar","Rohtas",3846.46331073534,395.256022958004,68.1775119,6.75278259282672,97.4128965,37.088140591711,84.0260785920405,24.9799219987511,276,0.30939583663883
"Bihar","Saharsa",1668.54435319035,286.280611737124,68.1775119,6.75278259282672,97.4128965,37.088140591711,86.5906847646329,25.8142723185704,312,0.255837231299918
"Bihar","Samastipur",2671.18658752408,444.281148284253,68.1775119,6.75278259282672,97.4128965,37.088140591711,85.8657099618423,25.7729971727149,441,0.17005848982037
"Bihar","Saran",2642.66272555529,317.940009102023,68.1775119,6.75278259282672,97.4128965,37.088140591711,84.8231332264423,25.905615505456,226,0.328519564500886
"Bihar","Sheikhpura",678.411007049809,212.762556656122,68.1775119,6.75278259282672,97.4128965,37.088140591711,85.8384308328672,25.1237122544299,225,0.188326896207998
"Bihar","Sheohar",444.67545995353,164.601935004081,68.1775119,6.75278259282672,97.4128965,37.088140591711,85.3018538372522,26.4979362889083,172,0.206244869680868
"Bihar","Sitamarhi",2188.61527497196,363.957328192247,68.1775119,6.75278259282672,97.4128965,37.088140591711,85.5526162959808,26.585165133659,337,0.207624382371638
"Bihar","Siwan",2220.12556663535,304.272320791968,68.1775119,6.75278259282672,97.4128965,37.088140591711,84.3869652373831,26.1613390492049,242,0.301343971803978
"Bihar","Supaul",2420.51159240727,349.05345959032,68.1775119,6.75278259282672,97.4128965,37.088140591711,86.8080667619626,26.245048843077,343,0.24965090074067
"Bihar","Vaishali",2039.00550948356,255.356483719322,68.1775119,6.75278259282672,97.4128965,37.088140591711,85.3682606951692,25.7630265420107,216,0.392947458690865
"Chandigarh","Chandigarh",114.692354922868,57.0361719026091,68.1775119,6.75278259282672,97.4128965,37.088140591711,76.7806220505144,30.7294255336404,60,0.443040670293509
"Chhattisgarh","Balod",3369.66771676042,395.955507971128,68.1775119,6.75278259282672,97.4128965,37.088140591711,81.1884592454812,20.7415417972251,345,0.270087300359152
"Chhattisgarh","Baloda Bazar",4668.94249747507,473.686327945247,68.1775119,6.75278259282672,97.4128965,37.088140591711,82.3275822218139,21.5820211355973,306,0.261484945102435
"Chhattisgarh","Balrampur",6269.0791326345,643.430720230838,68.1775119,6.75278259282672,97.4128965,37.088140591711,83.5011928947744,23.5925744894348,433,0.190287399692944
"Chhattisgarh","Bastar",5399.38988208475,561.854905982317,68.1775119,6.75278259282672,97.4128965,37.088140591711,81.8678944802553,19.0958682918417,374,0.214934532770556
"Chhattisgarh","Bemetara",2238.83452431785,353.267199637497,68.1775119,6.75278259282672,97.4128965,37.088140591711,81.4699214740722,21.6608338728717,322,0.225437016420151
"Chhattisgarh","Bijapur",9249.52884545048,705.76193540641,68.1775119,6.75278259282672,97.4128965,37.088140591711,80.8005806995279,18.8608768219768,422,0.233352797843589
"Chhattisgarh","Bilaspur",3547.49608495151,434.886599085361,68.1775119,6.75278259282672,97.4128965,37.088140591711,82.1158416173007,22.1801100318846,326,0.235710939266539
"Chhattisgarh","Dakshin Bastar Dantewada",2819.78873523079,452.719795813871,68.1775119,6.75278259282672,97.4128965,37.088140591711,81.3901768472007,18.8045893628503,298,0.172889040938421
"Chhattisgarh","Dhamtari",4085.77190319006,420.036593666216,68.1775119,6.75278259282672,97.4128965,37.088140591711,81.8088465835146,20.5551901405336,306,0.291011214801767
"Chhattisgarh","Durg",2298.56075826101,326.809968356943,68.1775119,6.75278259282672,97.4128965,37.088140591711,81.3831108726275,21.2203358025718,254,0.270442699438145
"Chhattisgarh","Gariyaband",4845.44358761013,504.618333584219,68.1775119,6.75278259282672,97.4128965,37.088140591711,82.2352281089533,20.4480012827488,338,0.239120800325135
"Chhattisgarh","Gaurela-Pendra-Marwahi",1993.81542316014,264.238440956731,68.1775119,6.75278259282672,97.4128965,37.088140591711,81.9989189679185,22.8051040929952,200,0.358841628224216
"Chhattisgarh","Janjgir - Champa",4489.33542572188,537.090518632538,68.1775119,6.75278259282672,97.4128965,37.088140591711,82.5922467485556,21.9213523311193,420,0.195567618814673
"Chhattisgarh","Jashpur",5850.2382689572,492.25440128537,68.1775119,6.75278259282672,97.4128965,37.088140591711,83.8625587503945,22.8011080487424,366,0.303392054329228
"Chhattisgarh","Kabirdham",4195.67468296844,406.717556133307,68.1775119,6.75278259282672,97.4128965,37.088140591711,81.2224284547297,22.0924752387753,350,0.318732120918039
"Chhattisgarh","Kondagaon",5078.73019104724,474.618302284399,68.1775119,6.75278259282672,97.4128965,37.088140591711,81.6650846808911,19.7456535607489,288,0.283319223218347
"Chhattisgarh","Korba",6597.61210180629,478.086629871328,68.1775119,6.75278259282672,97.4128965,37.088140591711,82.6082503757403,22.5346177984528,307,0.362729974487994
"Chhattisgarh","Korea",6603.24321317374,528.770721594645,68.1775119,6.75278259282672,97.4128965,37.088140591711,82.2353600262491,23.4698456397525,399,0.296778446921246
"Chhattisgarh","Mahasamund",4748.23241326809,513.755428884644,68.1775119,6.75278259282672,97.4128965,37.088140591711,82.6085262947525,21.2079715138671,370,0.22606273841396
"Chhattisgarh","Mungeli",2774.90782739822,414.797071486231,68.1775119,6.75278259282672,97.4128965,37.088140591711,81.7304736672948,22.2403345228533,372,0.202668877851836
"Chhattisgarh","Narainpur",3903.52614947304,430.766450502894,68.1775119,6.75278259282672,97.4128965,37.088140591711,81.0850411351148,19.5702543319118,266,0.26435237326214
"Chhattisgarh","Raigarh",7045.22818295885,688.947465495743,68.1775119,6.75278259282672,97.4128965,37.088140591711,83.3030418070466,22.0850508506354,511,0.186523138390858
"Chhattisgarh","Raipur",2905.28523429098,283.155730770372,68.1775119,6.75278259282672,97.4128965,37.088140591711,81.8201973926062,21.28577819939,190,0.455352714061755
"Chhattisgarh","Raj Nandgaon",8070.89592875567,730.707675567743,68.1775119,6.75278259282672,97.4128965,37.088140591711,80.8200340433274,21.0394337444078,584,0.189952175851835
"Chhattisgarh","Sukma",5479.47586365854,622.411116794663,68.1775119,6.75278259282672,97.4128965,37.088140591711,81.3658018578762,18.2722601986032,347,0.177743693463815
"Chhattisgarh","Surajpur",5452.63004307939,576.904969831006,68.1775119,6.75278259282672,97.4128965,37.088140591711,82.8835769832773,23.4021058023721,416,0.205876765083445
"Chhattisgarh","Surguja",4007.67457953263,436.20934128307,68.1775119,6.75278259282672,97.4128965,37.088140591711,83.2272040827869,22.9283156737682,304,0.264674676331024
"Chhattisgarh","Uttar Bastar Kanker",7186.98623072702,638.894325940861,68.1775119,6.75278259282672,97.4128965,37.088140591711,81.1228380297681,20.1376762971669,406,0.221257812585447
"Delhi","Central",106.114278390527,87.695369381165,68.1775119,6.75278259282672,97.4128965,37.088140591711,77.2239223149811,28.6821973329666,81,0.173392522873006
"Delhi","East",31.1685617434196,23.6034539735383,68.1775119,6.75278259282672,97.4128965,37.088140591711,77.3043084082114,28.6223671958704,12,0.703032670753059
"Delhi","New Delhi",157.209152894439,78.7615662084996,68.1775119,6.75278259282672,97.4128965,37.088140591711,77.148859074024,28.5770476387856,63,0.318463016315425
"Delhi","North",292.067539250503,105.651409658083,68.1775119,6.75278259282672,97.4128965,37.088140591711,77.1076450877046,28.793446618511,93,0.328808142410188
"Delhi","North East",35.146477604618,44.4007365141024,68.1775119,6.75278259282672,97.4128965,37.088140591711,77.2564176442018,28.7228382751262,44,0.224032653073246
"Delhi","North West",152.950805365081,89.3763202623175,68.1775119,6.75278259282672,97.4128965,37.088140591711,77.0431241493457,28.7251956521643,75,0.240611672365847
"Delhi","Shahadra",34.4223697909262,31.3693780269642,68.1775119,6.75278259282672,97.4128965,37.088140591711,77.2978574253516,28.6772013966324,25,0.439580900264735
"Delhi","South",158.822491447751,68.2000549744376,68.1775119,6.75278259282672,97.4128965,37.088140591711,77.1910887349722,28.4812515176852,58,0.429093977489903
"Delhi","South East",101.669670009476,58.2706218809847,68.1775119,6.75278259282672,97.4128965,37.088140591711,77.2731485108427,28.5419363731701,53,0.376272060735027
"Delhi","South West",282.842533559622,109.356058095033,68.1775119,6.75278259282672,97.4128965,37.088140591711,76.967756996952,28.5763340285913,79,0.297213744117259
"Delhi","West",131.477176579345,70.8955211558119,68.1775119,6.75278259282672,97.4128965,37.088140591711,77.0640454778922,28.6554032669099,63,0.328717355551298
"Goa","North Goa",1743.48831863443,261.915272804513,68.1775119,6.75278259282672,97.4128965,37.088140591711,73.9767490697547,15.5496931522488,199,0.319379663132223
"Goa","South Goa",1953.63234009411,310.103184231373,68.1775119,6.75278259282672,97.4128965,37.088140591711,74.1147274622201,15.2002963789899,244,0.255293788655878
"Gujarat","Ahmadabad",7239.98491816576,839.293084320722,68.1775119,6.75278259282672,97.4128965,37.088140591711,72.2436606636861,22.7568530716757,579,0.129157680286446
"Gujarat","Amreli",7314.44317804961,697.320529768271,68.1775119,6.75278259282672,97.4128965,37.088140591711,71.2423294327697,21.4251142359306,603,0.189028040171412
"Gujarat","Anand",3176.34841818554,382.709280256528,68.1775119,6.75278259282672,97.4128965,37.088140591711,72.7507266631053,22.4267569723889,245,0.272521023783632
"Gujarat","Aravalli",3149.76547709132,407.189947584603,68.1775119,6.75278259282672,97.4128965,37.088140591711,73.3331452647415,23.4609294294401,319,0.238722847889387
"Gujarat","Banas Kantha",10763.1279546689,883.661725253524,68.1775119,6.75278259282672,97.4128965,37.088140591711,72.0237210697542,24.2873057757962,679,0.173211322813364
"Gujarat","Bharuch",4928.24866978504,768.35821559154,68.1775119,6.75278259282672,97.4128965,37.088140591711,72.9408836402256,21.78167961533,593,0.104899881795256
"Gujarat","Bhavnagar",6764.77314132073,484.724715520604,68.1775119,6.75278259282672,97.4128965,37.088140591711,71.8909217335635,21.5672200460601,346,0.361803506945358
"Gujarat","Botad",2479.10263438246,367.431639151904,68.1775119,6.75278259282672,97.4128965,37.088140591711,71.6752147656099,22.1112328634821,263,0.230755079878539
"Gujarat","Chhota Udepur",3459.55090785356,490.103385431826,68.1775119,6.75278259282672,97.4128965,37.088140591711,73.8733723584313,22.2194028891873,389,0.180989835296873
"Gujarat","Dahod",3640.88633008388,384.660134041408,68.1775119,6.75278259282672,97.4128965,37.088140591711,74.1124742262294,22.8603366043624,289,0.309216476505828
"Gujarat","Dangs",1765.78008983104,260.172223770076,68.1775119,6.75278259282672,97.4128965,37.088140591711,73.7006644520925,20.8048136856609,205,0.327811829507072
"Gujarat","Devbhumi Dwarka",4160.45731872973,619.436356427809,68.1775119,6.75278259282672,97.4128965,37.088140591711,69.4601733380055,22.1238646319279,530,0.136256601195844
"Gujarat","Disputed (Sabar Kantha & Sirohi)",1.20805810096307,10.382511177575,68.1775119,6.75278259282672,97.4128965,37.088140591711,72.9668637309597,24.4083283617213,16,0.140829251591948
"Gujarat","Disputed (Sabar Kantha & Udaipur)",12.2166941071164,58.1744703849013,68.1775119,6.75278259282672,97.4128965,37.088140591711,73.3297127502219,23.4375952835896,80,0.045362678210644
"Gujarat","Gandhinagar",2103.96772335726,404.794879204241,68.1775119,6.75278259282672,97.4128965,37.088140591711,72.6919327795561,23.2550825245081,348,0.161353695791755
"Gujarat","Gir Somnath",2646.08729126997,370.606927001706,68.1775119,6.75278259282672,97.4128965,37.088140591711,70.7549841779371,20.9042287414356,305,0.24209563886222
"Gujarat","Jamnagar",5916.41168654626,706.317221579528,68.1775119,6.75278259282672,97.4128965,37.088140591711,70.1951225906866,22.2848841237871,578,0.149028269802795
"Gujarat","Junagadh",6147.37693016201,635.260262465013,68.1775119,6.75278259282672,97.4128965,37.088140591711,70.4847973826048,21.3222586534051,447,0.191423973812544
"Gujarat","Kachchh",40699.0874765744,2010.70390648657,68.1775119,6.75278259282672,97.4128965,37.088140591711,69.9399579301479,23.6497707290292,1530,0.126502262381991
"Gujarat","Kheda",3442.91798244833,448.480861077731,68.1775119,6.75278259282672,97.4128965,37.088140591711,72.9505979807989,22.8375652600459,381,0.21510411197341
"Gujarat","Mahesana",4418.60891513223,577.405331724207,68.1775119,6.75278259282672,97.4128965,37.088140591711,72.4667808214869,23.6094004085122,490,0.166545862840774
"Gujarat","Mahisagar",2511.04791265175,367.756775252032,68.1775119,6.75278259282672,97.4128965,37.088140591711,73.6470346902544,23.187680459262,299,0.233315449946881
"Gujarat","Morbi",4980.74162761809,520.800328372087,68.1775119,6.75278259282672,97.4128965,37.088140591711,70.9034582944989,22.8349475857064,421,0.230760450878801
"Gujarat","Narmada",2818.98628336885,387.267156420685,68.1775119,6.75278259282672,97.4128965,37.088140591711,73.6449324763015,21.7369411179974,313,0.236200870267903
"Gujarat","Navsari",2202.5148595332,313.314107116072,68.1775119,6.75278259282672,97.4128965,37.088140591711,73.0926127056075,20.8152620500963,260,0.281947866002253
"Gujarat","Panch Mahals",3285.05659947915,443.588934628625,68.1775119,6.75278259282672,97.4128965,37.088140591711,73.6255927419277,22.7201174861431,334,0.209793154141228
"Gujarat","Patan",5784.62464984783,704.390758395679,68.1775119,6.75278259282672,97.4128965,37.088140591711,71.7588983433257,23.7704819430267,570,0.146506788710722
"Gujarat","Porbandar",2313.15574096466,406.114611939531,68.1775119,6.75278259282672,97.4128965,37.088140591711,69.776798034103,21.6549331872959,214,0.176245284802156
"Gujarat","Rajkot",7689.96029532864,934.142578582409,68.1775119,6.75278259282672,97.4128965,37.088140591711,70.7446138194518,22.0254797287943,731,0.110740792156271
"Gujarat","Sabar Kantha",4240.65311064716,564.891743475765,68.1775119,6.75278259282672,97.4128965,37.088140591711,73.0361989467768,23.8040673662941,435,0.166998341495805
"Gujarat","Surat",4334.24876671794,499.810898015879,68.1775119,6.75278259282672,97.4128965,37.088140591711,73.0711435983536,21.2689403189428,373,0.218027992267013
"Gujarat","Surendranagar",9176.52219616153,961.0782478595,68.1775119,6.75278259282672,97.4128965,37.088140591711,71.5931737794257,22.7660173632234,688,0.124844808504455
"Gujarat","Tapi",3141.3943397294,562.040829506148,68.1775119,6.75278259282672,97.4128965,37.088140591711,73.6266901729718,21.1915460823678,453,0.124967358135541
"Gujarat","Vadodara",4091.40694914675,474.198836280249,68.1775119,6.75278259282672,97.4128965,37.088140591711,73.2391255663874,22.247991346769,324,0.228644929504554
"Gujarat","Valsad",2948.11387000327,487.122062511798,68.1775119,6.75278259282672,97.4128965,37.088140591711,73.1203635162312,20.4181933842219,392,0.156127181001372
"Haryana","Ambala",1513.29970510791,362.427471609447,68.1775119,6.75278259282672,97.4128965,37.088140591711,76.9389887258371,30.3285215600186,325,0.144774673062279
"Haryana","Bhiwani",3291.80214545605,371.207576604075,68.1775119,6.75278259282672,97.4128965,37.088140591711,75.8902311620311,28.7799662508486,275,0.30019947209631
"Haryana","Charkhi Dadri",1384.11071685357,252.174821100045,68.1775119,6.75278259282672,97.4128965,37.088140591711,76.1534773929966,28.5768445532259,166,0.273512546216367
"Haryana","Faridabad",744.410621404691,146.428474835147,68.1775119,6.75278259282672,97.4128965,37.088140591711,77.3425233896918,28.352034406476,131,0.436286070554903
"Haryana","Fatehabad",2527.32615408764,318.293506619991,68.1775119,6.75278259282672,97.4128965,37.088140591711,75.5770766609582,29.5688061931039,229,0.313484157633636
"Haryana","Gurugram",1251.70464142114,240.664492733802,68.1775119,6.75278259282672,97.4128965,37.088140591711,76.9401721997216,28.3692587383042,182,0.271573686017105
"Haryana","Hisar",4074.73886822203,407.247908468632,68.1775119,6.75278259282672,97.4128965,37.088140591711,75.8225034790255,29.2117229105602,272,0.308739304085297
"Haryana","Jhajjar",1859.33112507645,304.736335903393,68.1775119,6.75278259282672,97.4128965,37.088140591711,76.6482140383771,28.604843427948,189,0.251604335711143
"Haryana","Jind",2728.74049736836,396.288663501593,68.1775119,6.75278259282672,97.4128965,37.088140591711,76.3037127752337,29.4351967288972,279,0.218347791093438
"Haryana","Kaithal",2273.71312512695,347.564768885583,68.1775119,6.75278259282672,97.4128965,37.088140591711,76.4138344385334,29.8113490311474,274,0.236523358895074
"Haryana","Karnal",2477.73054865171,334.996877609007,68.1775119,6.75278259282672,97.4128965,37.088140591711,76.8877056143905,29.6887074334999,266,0.277448525524907
"Haryana","Kurukshetra",1678.01482140165,250.80544368773,68.1775119,6.75278259282672,97.4128965,37.088140591711,76.7848054306639,30.0387180140329,199,0.335221403027419
"Haryana","Mahendragarh",1934.04653692046,383.392553931187,68.1775119,6.75278259282672,97.4128965,37.088140591711,76.1382024260071,28.1708104994264,282,0.165344379224751
"Haryana","Mewat",1513.95083985395,326.319690666194,68.1775119,6.75278259282672,97.4128965,37.088140591711,77.0501643468638,27.9851477598792,257,0.178663186724091
"Haryana","Palwal",1359.42139078387,229.25730713492,68.1775119,6.75278259282672,97.4128965,37.088140591711,77.3347276141097,28.0629202979312,203,0.32502561570072
"Haryana","Panchkula",880.187258684053,208.194227544364,68.1775119,6.75278259282672,97.4128965,37.088140591711,76.9775925524149,30.6863514171012,199,0.25518055264943
"Haryana","Panipat",1302.40001247243,200.953885994988,68.1775119,6.75278259282672,97.4128965,37.088140591711,76.9280741235677,29.3379119097859,164,0.405285846963493
"Haryana","Rewari",1553.13733231933,281.471618395033,68.1775119,6.75278259282672,97.4128965,37.088140591711,76.5362753957024,28.240951306732,225,0.246348829114451
"Haryana","Rohtak",1669.53061536552,241.189938901217,68.1775119,6.75278259282672,97.4128965,37.088140591711,76.5302362917944,28.912233117896,147,0.360649950107296
"Haryana","Sirsa",4271.71641352694,423.663640694709,68.1775119,6.75278259282672,97.4128965,37.088140591711,74.9010340673701,29.6156404323245,243,0.299067960880399
"Haryana","Sonipat",2180.66772392419,274.687888672205,68.1775119,6.75278259282672,97.4128965,37.088140591711,76.8749451629678,29.0565445816551,198,0.363178672725659
"Haryana","Yamunanagar",1721.10507291444,263.290696391283,68.1775119,6.75278259282672,97.4128965,37.088140591711,77.3021610906064,30.2342580484233,228,0.311993985760721
"Himachal Pradesh","Bilaspur",1164.94241630367,240.145582434831,68.1775119,6.75278259282672,97.4128965,37.088140591711,76.6701831511109,31.3710016042991,220,0.253842957140309
"Himachal Pradesh","Chamba",6517.81252108242,543.861301987963,68.1775119,6.75278259282672,97.4128965,37.088140591711,76.348105836138,32.6749028417713,393,0.276907942150147
"Himachal Pradesh","Hamirpur",1113.96501846202,181.45731382306,68.1775119,6.75278259282672,97.4128965,37.088140591711,76.5255475107747,31.6669788136244,130,0.425140483285752
"Himachal Pradesh","Kangra",5743.65598005724,552.502901130633,68.1775119,6.75278259282672,97.4128965,37.088140591711,76.3155587298906,32.1081908226731,408,0.236444468354338
"Himachal Pradesh","Kinnaur",6503.64189583764,485.681561889809,68.1775119,6.75278259282672,97.4128965,37.088140591711,78.4139967645748,31.5953234099005,330,0.346468097331822
"Himachal Pradesh","Kullu",5487.86991483399,408.267482926241,68.1775119,6.75278259282672,97.4128965,37.088140591711,77.398727739262,31.9022111735763,313,0.413736741516752
"Himachal Pradesh","Lahul & Spiti",13957.7812725716,899.948692617249,68.1775119,6.75278259282672,97.4128965,37.088140591711,77.6167923539144,32.4800520205943,643,0.21656623760434
"Himachal Pradesh","Mandi",3949.55782290211,322.310672661365,68.1775119,6.75278259282672,97.4128965,37.088140591711,76.9915095927596,31.6367604397868,251,0.477759099421022
"Himachal Pradesh","Shimla",5125.24584999176,533.131659507077,68.1775119,6.75278259282672,97.4128965,37.088140591711,77.6319866423235,31.1973615919605,404,0.226597763853648
"Himachal Pradesh","Sirmaur",2827.74161255891,333.578786928297,68.1775119,6.75278259282672,97.4128965,37.088140591711,77.4309854519707,30.6668126328206,286,0.319339570517358
"Himachal Pradesh","Solan",1935.39975254271,305.14929924679,68.1775119,6.75278259282672,97.4128965,37.088140591711,76.9095407544163,31.045254002283,273,0.261189546464359
"Himachal Pradesh","Una",1542.28915105078,235.291661047334,68.1775119,6.75278259282672,97.4128965,37.088140591711,76.2098868573176,31.5792530595764,184,0.350076208202967
"Jammu & Kashmir","Anantnag",2729.18406071471,346.478244764544,68.1775119,6.75278259282672,97.4128965,37.088140591711,75.3247786377998,33.8263627189767,266,0.285687177896985
"Jammu & Kashmir","Badgam",1250.21356648235,191.12005283574,68.1775119,6.75278259282672,97.4128965,37.088140591711,74.6346194122853,33.918197694476,147,0.430111998283722
"Jammu & Kashmir","Bandipura",4045.08176259309,413.043198325215,68.1775119,6.75278259282672,97.4128965,37.088140591711,74.8760276402496,34.5873292558756,244,0.297951940690346
"Jammu & Kashmir","Baramula",2063.82054192895,267.673037088621,68.1775119,6.75278259282672,97.4128965,37.088140591711,74.3025841567752,34.158269423468,172,0.361969969924895
"Jammu & Kashmir","Doda",2409.02979444489,285.55411497879,68.1775119,6.75278259282672,97.4128965,37.088140591711,75.7145065240597,33.0933631434676,179,0.371257460309226
"Jammu & Kashmir","Ganderbal",1622.26823449774,318.760272784741,68.1775119,6.75278259282672,97.4128965,37.088140591711,75.0322406202231,34.2620460427063,259,0.200633823112011
"Jammu & Kashmir","Jammu",2411.2182454597,365.501140774901,68.1775119,6.75278259282672,97.4128965,37.088140591711,74.7468289666017,32.8050117936745,293,0.226813505948302
"Jammu & Kashmir","Kathua",2500.3212676014,298.363651211685,68.1775119,6.75278259282672,97.4128965,37.088140591711,75.583321641091,32.5746637947824,248,0.352950541608284
"Jammu & Kashmir","Kishtwar",8173.82153397692,552.832041037913,68.1775119,6.75278259282672,97.4128965,37.088140591711,75.9709814375513,33.5499106169117,422,0.336084592678364
"Jammu & Kashmir","Kulgam",1264.16524065052,246.048559596599,68.1775119,6.75278259282672,97.4128965,37.088140591711,74.8598551597549,33.6063956172756,205,0.262404969124817
"Jammu & Kashmir","Kupwara",2745.79859819236,280.653085638424,68.1775119,6.75278259282672,97.4128965,37.088140591711,74.2070479218838,34.5213261754841,183,0.438065347302807
"Jammu & Kashmir","Mirpur",3625.34308937522,429.125847194594,68.1775119,6.75278259282672,97.4128965,37.088140591711,73.9285827063486,33.2422182881975,306,0.247394265859348
"Jammu & Kashmir","Muzaffarabad",4801.40857318997,587.122893576159,68.1775119,6.75278259282672,97.4128965,37.088140591711,73.9285014088019,34.5797891074107,342,0.17503322608588
"Jammu & Kashmir","Pulwama",897.023880738104,180.436741944795,68.1775119,6.75278259282672,97.4128965,37.088140591711,75.0169311931789,33.9407089800192,152,0.346229378184037
"Jammu & Kashmir","Punch",4248.09729966711,397.186419026077,68.1775119,6.75278259282672,97.4128965,37.088140591711,74.0175675709114,33.784124853445,271,0.338388456045853
"Jammu & Kashmir","Rajauri",2638.18486839024,298.553729692126,68.1775119,6.75278259282672,97.4128965,37.088140591711,74.3809619235114,33.2782050590351,240,0.371937602341213
"Jammu & Kashmir","Ramban",1288.840347694,164.515477488546,68.1775119,6.75278259282672,97.4128965,37.088140591711,75.1897238325667,33.3074600308212,85,0.598405343351035
"Jammu & Kashmir","Riasi",1934.36224436622,316.998022791178,68.1775119,6.75278259282672,97.4128965,37.088140591711,74.8315256030721,33.2389209834761,248,0.241899273523602
"Jammu & Kashmir","Samba",928.626484383464,185.095928970932,68.1775119,6.75278259282672,97.4128965,37.088140591711,75.0905957718854,32.5817200345749,163,0.340609844279628
"Jammu & Kashmir","Shupiyan",506.396601780011,157.659625326499,68.1775119,6.75278259282672,97.4128965,37.088140591711,74.8187121484872,33.7352988029279,124,0.256011613295549
"Jammu & Kashmir","Srinagar",281.71480054329,156.202829217828,68.1775119,6.75278259282672,97.4128965,37.088140591711,74.8212793395087,34.114529728949,149,0.145091421882042
"Jammu & Kashmir","Udhampur",2280.84560810633,279.180849127479,68.1775119,6.75278259282672,97.4128965,37.088140591711,75.2970061680123,32.8987223409514,229,0.367734608968383
"Jharkhand","Bokaro",2878.62027135695,412.201333143497,68.1775119,6.75278259282672,97.4128965,37.088140591711,85.9966319784819,23.6947560634708,354,0.212899900918917
"Jharkhand","Chatra",3805.47319649467,539.514075089064,68.1775119,6.75278259282672,97.4128965,37.088140591711,84.8914442153955,24.1645763062767,465,0.164290697308644
"Jharkhand","Deoghar",2486.03074401843,299.097902138383,68.1775119,6.75278259282672,97.4128965,37.088140591711,86.7402699025207,24.3284414236396,279,0.349212374975743
"Jharkhand","Dhanbad",2038.1031648339,221.902261121244,68.1775119,6.75278259282672,97.4128965,37.088140591711,86.4724153144754,23.8267823418566,137,0.520130800653562
"Jharkhand","Dumka",3759.37519174752,393.155442533868,68.1775119,6.75278259282672,97.4128965,37.088140591711,87.2663514029157,24.3195115735788,340,0.305630682355438
"Jharkhand","East Singhbhum",3555.02597475726,407.636531726556,68.1775119,6.75278259282672,97.4128965,37.088140591711,86.4514233453054,22.5825675097339,305,0.268847774994444
"Jharkhand","Garhwa",4104.74336703141,405.285563679489,68.1775119,6.75278259282672,97.4128965,37.088140591711,83.698585785111,24.1035595403888,239,0.314031782965219
"Jharkhand","Giridih",4964.13164450192,454.367189209927,68.1775119,6.75278259282672,97.4128965,37.088140591711,86.1110460883538,24.2936740828559,361,0.302161570466249
"Jharkhand","Godda",2284.86333680102,302.585444195907,68.1775119,6.75278259282672,97.4128965,37.088140591711,87.308689691827,24.8589103034484,273,0.313598536964847
"Jharkhand","Gumla",5360.30266528188,546.837179669859,68.1775119,6.75278259282672,97.4128965,37.088140591711,84.5324064556196,23.1032155505501,436,0.225259495444125
"Jharkhand","Hazaribagh",4335.49921628913,641.069809109918,68.1775119,6.75278259282672,97.4128965,37.088140591711,85.4259257906104,24.0620247054375,563,0.132567884872448
"Jharkhand","Jamtara",1806.73852667813,315.569961310806,68.1775119,6.75278259282672,97.4128965,37.088140591711,86.9071879603634,23.9757601042973,263,0.227988980399095
"Jharkhand","Khunti",2636.19986757827,374.988656685161,68.1775119,6.75278259282672,97.4128965,37.088140591711,85.2626406262074,22.9943526162703,339,0.235587333512335
"Jharkhand","Kodarma",1638.51265311348,308.179302148347,68.1775119,6.75278259282672,97.4128965,37.088140591711,85.668239047624,24.5000502179514,242,0.216796730686385
"Jharkhand","Latehar",4242.7730180389,487.821728297753,68.1775119,6.75278259282672,97.4128965,37.088140591711,84.4448620573203,23.7169537267784,386,0.224046096269418
"Jharkhand","Lohardaga",1505.01872681674,249.479590032929,68.1775119,6.75278259282672,97.4128965,37.088140591711,84.6718300926714,23.4757136087931,193,0.303865730965606
"Jharkhand","Pakur",1802.67621916265,323.618548050048,68.1775119,6.75278259282672,97.4128965,37.088140591711,87.6626181546309,24.5639832687739,306,0.216302123725955
"Jharkhand","Palamu",4419.72408625296,450.990663423416,68.1775119,6.75278259282672,97.4128965,37.088140591711,84.1689502576085,24.1997111476544,346,0.273067440769008
"Jharkhand","Ramgarh",1396.22915857433,322.918455989859,68.1775119,6.75278259282672,97.4128965,37.088140591711,85.5641550470773,23.6343256296687,254,0.168259980003631
"Jharkhand","Ranchi",4984.19378130329,596.621100415185,68.1775119,6.75278259282672,97.4128965,37.088140591711,85.375160078757,23.3286929528021,516,0.175957411893543
"Jharkhand","Sahibganj",2189.38395945411,302.760187404653,68.1775119,6.75278259282672,97.4128965,37.088140591711,87.6781833163549,25.0108149328287,255,0.300147178478169
"Jharkhand","Saraikela-Kharsawan",2658.88872613442,357.18092476937,68.1775119,6.75278259282672,97.4128965,37.088140591711,85.9503427894518,22.8473878333235,277,0.261898802030905
"Jharkhand","Simdega",3778.20283727879,391.119520979627,68.1775119,6.75278259282672,97.4128965,37.088140591711,84.5641397224938,22.5817332440113,279,0.310367436485281
"Jharkhand","West Singhbhum",7223.96668573329,521.658397588033,68.1775119,6.75278259282672,97.4128965,37.088140591711,85.5181212880812,22.4206795820919,416,0.333590129962991
"Karnataka","Bagalkot",6549.66643810558,650.60533528714,68.1775119,6.75278259282672,97.4128965,37.088140591711,75.6255738714412,16.2213474414276,382,0.194443668434296
"Karnataka","Ballari",8462.19147828526,765.159076673678,68.1775119,6.75278259282672,97.4128965,37.088140591711,76.5326650860487,15.1100292346823,458,0.18163069438817
"Karnataka","Belagavi",13438.9693823973,1074.98641543682,68.1775119,6.75278259282672,97.4128965,37.088140591711,74.8230760510575,16.120814087069,718,0.146140260203956
"Karnataka","Bengaluru Rural",2295.87186338586,473.187008751631,68.1775119,6.75278259282672,97.4128965,37.088140591711,77.5738462495442,13.2274183638839,425,0.128852213754322
"Karnataka","Bengaluru Urban",2197.83140939815,320.691074904113,68.1775119,6.75278259282672,97.4128965,37.088140591711,77.5937809716649,12.951880176123,279,0.268553299766702
"Karnataka","Bidar",5449.41696372323,535.346301218052,68.1775119,6.75278259282672,97.4128965,37.088140591711,77.2251067409478,17.952812086766,405,0.238940787400611
"Karnataka","Chamarajanagar",5646.44182885783,563.587907715595,68.1775119,6.75278259282672,97.4128965,37.088140591711,77.0975529688397,11.9581935379619,392,0.223388797117942
"Karnataka","Chik Ballapur",4244.03980934755,478.067123477073,68.1775119,6.75278259282672,97.4128965,37.088140591711,77.8354863180816,13.5779444690544,364,0.233352015396523
"Karnataka","Chikkamagaluru",7204.60010203596,567.809641170608,68.1775119,6.75278259282672,97.4128965,37.088140591711,75.6908236721325,13.4546027039294,453,0.280811066636454
"Karnataka","Chitradurga",8434.98831382527,660.793033407357,68.1775119,6.75278259282672,97.4128965,37.088140591711,76.5151895471058,14.16859613378,422,0.242752347245313
"Karnataka","Dakshina  Kannada",4856.84112717101,460.132567839077,68.1775119,6.75278259282672,97.4128965,37.088140591711,75.2507758577952,12.8531421382249,384,0.288268915787939
"Karnataka","Davangere",5921.05608150825,578.505522537551,68.1775119,6.75278259282672,97.4128965,37.088140591711,75.9541258318248,14.4087278764256,357,0.222327927815813
"Karnataka","Dharwad",4258.87181298943,450.748297565162,68.1775119,6.75278259282672,97.4128965,37.088140591711,75.1523226874961,15.390208949669,321,0.263412416398257
"Karnataka","Gadag",4656.09337064955,549.579923448484,68.1775119,6.75278259282672,97.4128965,37.088140591711,75.665271376501,15.4315353822682,377,0.193717932970962
"Karnataka","Hassan",6811.60347732741,625.89884383254,68.1775119,6.75278259282672,97.4128965,37.088140591711,76.1079695144545,12.9965161874976,516,0.218499739685141
"Karnataka","Haveri",4823.59872515925,453.69782073587,68.1775119,6.75278259282672,97.4128965,37.088140591711,75.4165252691724,14.7389777690422,309,0.294474470345178
"Karnataka","Kalaburagi",10957.5126791733,870.314076017796,68.1775119,6.75278259282672,97.4128965,37.088140591711,76.868843450867,17.2603181516338,582,0.181789933428502
"Karnataka","Kodagu",4104.36304452973,444.066254001471,68.1775119,6.75278259282672,97.4128965,37.088140591711,75.8013070566311,12.3250279872082,361,0.261553231775646
"Karnataka","Kolar",3981.07985591094,481.097209170997,68.1775119,6.75278259282672,97.4128965,37.088140591711,78.2178356161499,13.1395074646189,410,0.216144942448654
"Karnataka","Koppal",5570.82161728648,530.989726962154,68.1775119,6.75278259282672,97.4128965,37.088140591711,76.2212937931058,15.5625096027107,334,0.248288656459406
"Karnataka","Mandya",4961.53569261537,523.230150552045,68.1775119,6.75278259282672,97.4128965,37.088140591711,76.7971986304113,12.611482984331,405,0.227740599969196
"Karnataka","Mysuru",6309.61119935172,647.080208848172,68.1775119,6.75278259282672,97.4128965,37.088140591711,76.4404902924295,12.2104658923746,500,0.189363481106106
"Karnataka","Raichur",8443.5414167336,535.871370538252,68.1775119,6.75278259282672,97.4128965,37.088140591711,76.8916987427709,16.090657444256,303,0.369499105966812
"Karnataka","Ramanagaram",3512.40934597831,447.61041040425,68.1775119,6.75278259282672,97.4128965,37.088140591711,77.335391597784,12.6792489117519,359,0.220300067762466
"Karnataka","Shivamogga",8482.89195071411,722.7714884608,68.1775119,6.75278259282672,97.4128965,37.088140591711,75.220104486805,14.0432912418937,519,0.204057130184385
"Karnataka","Tumakuru",10596.2856619388,1051.61154570719,68.1775119,6.75278259282672,97.4128965,37.088140591711,76.9462054409299,13.5215129806813,749,0.120407303512659
"Karnataka","Udupi",3585.57141378387,360.580133568091,68.1775119,6.75278259282672,97.4128965,37.088140591711,74.8718590544444,13.4982260600619,257,0.346549000210713
"Karnataka","Uttara  Kannada",10278.2899855744,751.84979859796,68.1775119,6.75278259282672,97.4128965,37.088140591711,74.6194931119137,14.7914553758038,578,0.228490714128731
"Karnataka","Vijayapura",10494.2752225959,685.331747091432,68.1775119,6.75278259282672,97.4128965,37.088140591711,75.9527255480854,16.7944647653034,363,0.280776407520069
"Karnataka","Yadgir",5271.61504265713,530.455189826157,68.1775119,6.75278259282672,97.4128965,37.088140591711,76.9126727834888,16.6268810131659,335,0.235426934141632
"Kerala","Alappuzha",1418.72334284347,275.945595451363,68.1775119,6.75278259282672,97.4128965,37.088140591711,76.4470515207232,9.42859691519715,152,0.234131930282434
"Kerala","Ernakulam",3059.90593625519,388.372797293648,68.1775119,6.75278259282672,97.4128965,37.088140591711,76.5460568271176,10.0845252167507,317,0.254929640744933
"Kerala","Idukki",4357.92243991887,538.652729025696,68.1775119,6.75278259282672,97.4128965,37.088140591711,77.05689737272,9.83977146552222,466,0.188743338093041
"Kerala","Kannur",2966.55276326193,318.217521593898,68.1775119,6.75278259282672,97.4128965,37.088140591711,75.5234021119895,12.001090560435,268,0.368140640210917
"Kerala","Kasaragod",1994.82817900337,328.33579385649,68.1775119,6.75278259282672,97.4128965,37.088140591711,75.1510205408867,12.4621268753355,227,0.232529949746053
"Kerala","Kollam",2483.04680321197,328.377147517706,68.1775119,6.75278259282672,97.4128965,37.088140591711,76.8717523384779,8.96244522676379,251,0.289366943989592
"Kerala","Kottayam",2206.13399055341,300.563645593222,68.1775119,6.75278259282672,97.4128965,37.088140591711,76.6507600142528,9.63768946339951,256,0.30688018729315
"Kerala","Kozhikode",2349.0513332353,276.838545851056,68.1775119,6.75278259282672,97.4128965,37.088140591711,75.8332951389016,11.4855481137807,211,0.385167161210617
"Kerala","Malappuram",3555.61771677221,377.513001273506,68.1775119,6.75278259282672,97.4128965,37.088140591711,76.1543738786427,11.1332744656863,259,0.313517003416426
"Kerala","Palakkad",4483.40055091315,514.272862265857,68.1775119,6.75278259282672,97.4128965,37.088140591711,76.5564360717231,10.7955845048226,411,0.213024811511214
"Kerala","Pattanamthitta",2651.54776840294,374.996815215289,68.1775119,6.75278259282672,97.4128965,37.088140591711,76.926477532522,9.28483700706159,336,0.236948607500457
"Kerala","Thiruvananthapuram",2193.48700793919,266.308481396836,68.1775119,6.75278259282672,97.4128965,37.088140591711,77.0119540696848,8.60955433582155,174,0.388664553347699
"Kerala","Trissur",3029.89091314913,371.30959917792,68.1775119,6.75278259282672,97.4128965,37.088140591711,76.3143872721016,10.472045431208,263,0.276162371167908
"Kerala","Wayanad",2131.55491739324,269.75025646553,68.1775119,6.75278259282672,97.4128965,37.088140591711,76.0977275121352,11.7124190615639,218,0.368114273843265
"Ladakh","Dadra & Nagar Haveli",489.905778012249,217.795480444715,68.1775119,6.75278259282672,97.4128965,37.088140591711,73.0706177276369,20.1945126665711,184,0.12978505904241
"Ladakh","Daman",71.8645690952021,48.2763139354376,68.1775119,6.75278259282672,97.4128965,37.088140591711,72.8527915256982,20.4138554879479,34,0.387486417891553
"Ladakh","Diu",38.9312921021017,43.0489178748287,68.1775119,6.75278259282672,97.4128965,37.088140591711,70.937362237755,20.7210847716511,41,0.263988011003451
"Lakshadweep","Lakshadweep",29.1059140126622,136.083108108643,68.1775119,6.75278259282672,97.4128965,37.088140591711,72.9483717556223,10.3855651112627,152,0.0197507079029745
"Madhya Pradesh","Agar Malwa",2734.0723300346,368.051971434522,68.1775119,6.75278259282672,97.4128965,37.088140591711,76.0710905615734,23.8265630102921,267,0.253630552077208
"Madhya Pradesh","Alirajpur",3332.47903351536,465.42897602116,68.1775119,6.75278259282672,97.4128965,37.088140591711,74.3639331703517,22.3144471550542,370,0.193317181549487
"Madhya Pradesh","Anuppur",3775.1234264581,541.463292230463,68.1775119,6.75278259282672,97.4128965,37.088140591711,81.6825834648568,23.0569986623633,454,0.16180911413288
"Madhya Pradesh","Ashoknagar",4738.4395706224,416.645197992311,68.1775119,6.75278259282672,97.4128965,37.088140591711,77.8754203999696,24.6093916115024,314,0.343014476208942
"Madhya Pradesh","Balaghat",9247.25974534483,687.849185812868,68.1775119,6.75278259282672,97.4128965,37.088140591711,80.3598380673521,21.8808689569465,526,0.245604582466251
"Madhya Pradesh","Barwani",5428.37877035606,484.967985636592,68.1775119,6.75278259282672,97.4128965,37.088140591711,75.0209364870579,21.7881468471715,310,0.290037308811396
"Madhya Pradesh","Betul",10051.437327146,715.80634141289,68.1775119,6.75278259282672,97.4128965,37.088140591711,77.8712511286153,21.8783998168705,514,0.246517043199305
"Madhya Pradesh","Bhind",4463.44421949405,559.242722836959,68.1775119,6.75278259282672,97.4128965,37.088140591711,78.7213100698101,26.4219184470947,515,0.179340878425151
"Madhya Pradesh","Bhopal",2766.94062315364,361.466939726395,68.1775119,6.75278259282672,97.4128965,37.088140591711,77.3908825629903,23.4701787613463,301,0.266116951068296
"Madhya Pradesh","Burhanpur",3226.98094380394,331.315712620709,68.1775119,6.75278259282672,97.4128965,37.088140591711,76.3690917225483,21.3707387448499,218,0.369421527148791
"Madhya Pradesh","Chhatarpur",8676.56059182997,963.508704317474,68.1775119,6.75278259282672,97.4128965,37.088140591711,79.665787481091,24.7983117639705,719,0.117448150769658
"Madhya Pradesh","Chhindwara",11811.569709916,787.795758462458,68.1775119,6.75278259282672,97.4128965,37.088140591711,78.8540334603951,22.1225686704347,671,0.239160914294978
"Madhya Pradesh","Damoh",7303.86770971301,609.789808496249,68.1775119,6.75278259282672,97.4128965,37.088140591711,79.5267995601584,23.8123717318247,512,0.246832555287855
"Madhya Pradesh","Datia",2688.63547206367,532.482257335317,68.1775119,6.75278259282672,97.4128965,37.088140591711,78.5979058501393,25.8011925888238,441,0.119160277357851
"Madhya Pradesh","Dewas",7012.58999092341,810.040506322271,68.1775119,6.75278259282672,97.4128965,37.088140591711,76.4569296214622,22.7441057555622,726,0.134299636941698
"Madhya Pradesh","Dhar",8156.41522176885,587.507718452414,68.1775119,6.75278259282672,97.4128965,37.088140591711,75.1039499182184,22.4980062261159,379,0.296949116402205
"Madhya Pradesh","Dindori",5746.15936994937,620.340419505482,68.1775119,6.75278259282672,97.4128965,37.088140591711,81.0514074731604,22.8898301480074,532,0.187640841623304
"Madhya Pradesh","Disputed (Alirajpur & Dahod)",4.04746169873996,17.471448626261,68.1775119,6.75278259282672,97.4128965,37.088140591711,74.1230529767965,22.5253006778588,19,0.166622935201056
"Madhya Pradesh","Disputed (Baran & Sheopur",8.49332387605893,13.0826557567719,68.1775119,6.75278259282672,97.4128965,37.088140591711,76.7382337673113,25.3375379159592,9,0.623585088314256
"Madhya Pradesh","Disputed (Mandsaur & Jhalawar)",2.97742115793094,12.6868685530788,68.1775119,6.75278259282672,97.4128965,37.088140591711,75.7105703873468,24.1250405358916,17,0.232456264084522
"Madhya Pradesh","Disputed (Nimach & Chittaurgarh )",3.54733500674587,12.3349189804384,68.1775119,6.75278259282672,97.4128965,37.088140591711,75.1773579986371,25.0379474947633,14,0.292981006243448
"Madhya Pradesh","Disputed (Ratlam & Banswara)",0.660651080034545,4.1439675262173,68.1775119,6.75278259282672,97.4128965,37.088140591711,74.7237462873199,23.2177348579739,5,0.483447508559731
"Madhya Pradesh","Disputed (Ratlam & Mandsaur)",1.4326593134568,12.9738493899435,68.1775119,6.75278259282672,97.4128965,37.088140591711,75.3354509830469,23.8143485717286,18,0.106958446730513
"Madhya Pradesh","East Nimar",7468.05165005461,598.070454839198,68.1775119,6.75278259282672,97.4128965,37.088140591711,76.5684670198637,21.9352123106683,428,0.262368975859453
"Madhya Pradesh","Guna",6380.00838099147,657.783198082441,68.1775119,6.75278259282672,97.4128965,37.088140591711,77.1985629691133,24.5559070852592,497,0.185295793915862
"Madhya Pradesh","Gwalior",4561.912676728,377.267743988969,68.1775119,6.75278259282672,97.4128965,37.088140591711,78.1461542949463,26.039634059661,274,0.402770340129702
"Madhya Pradesh","Harda",3342.22644500352,305.884776928956,68.1775119,6.75278259282672,97.4128965,37.088140591711,77.1236826466851,22.2322976001808,202,0.448879743503731
"Madhya Pradesh","Hoshangabad",6685.84733914316,563.318966216185,68.1775119,6.75278259282672,97.4128965,37.088140591711,77.9906903566635,22.590667764467,379,0.264763170301802
"Madhya Pradesh","Indore",3908.00819008874,495.173522296761,68.1775119,6.75278259282672,97.4128965,37.088140591711,75.7820927108443,22.7130186926239,474,0.200285957398042
"Madhya Pradesh","Jabalpur",5094.4640393249,558.775267715071,68.1775119,6.75278259282672,97.4128965,37.088140591711,79.9758826358591,23.2340049777526,427,0.205037838280103
"Madhya Pradesh","Jhabua",3442.08815971214,335.37290001218,68.1775119,6.75278259282672,97.4128965,37.088140591711,74.6716278151398,22.8923894463579,220,0.384570459217091
"Madhya Pradesh","Katni",5052.75248818153,603.062463433092,68.1775119,6.75278259282672,97.4128965,37.088140591711,80.4011273830475,23.7527438183496,524,0.174587559356068
"Madhya Pradesh","Mandla",7510.59931638837,698.695171121322,68.1775119,6.75278259282672,97.4128965,37.088140591711,80.5122036104364,22.6392709681988,519,0.193334328325739
"Madhya Pradesh","Mandsaur",5545.39896016609,546.769194702395,68.1775119,6.75278259282672,97.4128965,37.088140591711,75.4051506915247,24.2044477874528,375,0.233095872987289
"Madhya Pradesh","Morena",4986.36654088496,613.394796327819,68.1775119,6.75278259282672,97.4128965,37.088140591711,77.8680247875,26.4128559432573,428,0.166538208689602
"Madhya Pradesh","Narshimapura",5135.44991399589,540.576950398453,68.1775119,6.75278259282672,97.4128965,37.088140591711,79.0879132364106,22.9361303092507,457,0.220837750198532
"Madhya Pradesh","Nimach",4287.90410685883,633.879467147462,68.1775119,6.75278259282672,97.4128965,37.088140591711,75.1417692430578,24.5908620584927,460,0.13410394690506
"Madhya Pradesh","Nivari",1323.18005163345,458.617790782552,68.1775119,6.75278259282672,97.4128965,37.088140591711,78.7481734999144,25.284666777028,382,0.0790545758542309
"Madhya Pradesh","Panna",7099.58997013578,834.038871637463,68.1775119,6.75278259282672,97.4128965,37.088140591711,80.1890323421986,24.4212790750141,769,0.128253890224697
"Madhya Pradesh","Raisen",8480.14434968717,755.512299820433,68.1775119,6.75278259282672,97.4128965,37.088140591711,78.120596308931,23.220076280208,636,0.186693858139769
"Madhya Pradesh","Rajgarh",6166.86722082847,457.921944470966,68.1775119,6.75278259282672,97.4128965,37.088140591711,76.7324681781044,23.861097903142,307,0.369565608475399
"Madhya Pradesh","Ratlam",4856.84994778814,545.846297459494,68.1775119,6.75278259282672,97.4128965,37.088140591711,75.0885445727658,23.5023184844008,406,0.204844266442601
"Madhya Pradesh","Rewa",6296.73262684269,623.522045470627,68.1775119,6.75278259282672,97.4128965,37.088140591711,81.5872728509851,24.7554091970593,547,0.203526746549777
"Madhya Pradesh","Sagar",10268.3034976815,980.397593834192,68.1775119,6.75278259282672,97.4128965,37.088140591711,78.7596957810387,23.8500816855575,849,0.134246844756319
"Madhya Pradesh","Satna",7526.26772118672,954.396247775072,68.1775119,6.75278259282672,97.4128965,37.088140591711,80.8307234874104,24.5286770424084,862,0.103832205834324
"Madhya Pradesh","Sehore",6570.755892371,833.12446638219,68.1775119,6.75278259282672,97.4128965,37.088140591711,77.127338342839,22.9876898831301,692,0.118961222904251
"Madhya Pradesh","Seoni",8760.45417968672,691.629686682473,68.1775119,6.75278259282672,97.4128965,37.088140591711,79.6891771453013,22.3170041268762,505,0.230138476726506
"Madhya Pradesh","Shahdol",5678.62164560602,594.934813561868,68.1775119,6.75278259282672,97.4128965,37.088140591711,81.4734917891973,23.6296023401985,413,0.201610910682363
"Madhya Pradesh","Shajapur",3461.34373021469,439.004662494958,68.1775119,6.75278259282672,97.4128965,37.088140591711,76.5593072641212,23.3839184311545,322,0.225692084534715
"Madhya Pradesh","Sheopur",6604.71300682797,537.73013120322,68.1775119,6.75278259282672,97.4128965,37.088140591711,77.007323996713,25.7544318971355,367,0.287035141401924
"Madhya Pradesh","Shivpuri",10285.5839366795,827.277085172,68.1775119,6.75278259282672,97.4128965,37.088140591711,77.8053878181827,25.3655235751765,642,0.188858626462137
"Madhya Pradesh","Sidhi",4775.53414836452,511.162923641775,68.1775119,6.75278259282672,97.4128965,37.088140591711,81.8340575064689,24.2207039034798,366,0.229674684264346
"Madhya Pradesh","Singrauli",5763.83096349548,497.163191617388,68.1775119,6.75278259282672,97.4128965,37.088140591711,82.4199109074333,24.2158496109672,372,0.293037476001557
"Madhya Pradesh","Tikamgarh",3722.67727395575,405.250139769679,68.1775119,6.75278259282672,97.4128965,37.088140591711,79.0161801731802,24.883136761686,302,0.28485175887099
"Madhya Pradesh","Ujjain",6101.94939141214,702.780848109916,68.1775119,6.75278259282672,97.4128965,37.088140591711,75.6690518725196,23.3308708112231,547,0.15525250985474
"Madhya Pradesh","Umaria",4581.2619620527,457.644726484656,68.1775119,6.75278259282672,97.4128965,37.088140591711,80.9731361902416,23.5628200176363,338,0.274876786784409
"Madhya Pradesh","Vidisha",7301.19335678735,653.833044124706,68.1775119,6.75278259282672,97.4128965,37.088140591711,77.813175091792,23.892387267622,568,0.214619897294439
"Madhya Pradesh","West Nimar",8025.97157348373,663.978965802082,68.1775119,6.75278259282672,97.4128965,37.088140591711,75.7716055003421,21.9187259695185,479,0.228769876695091
"Maharashtra","Ahamadnagar",17099.739885836,1323.45529414911,68.1775119,6.75278259282672,97.4128965,37.088140591711,74.6752191061563,19.2052626353633,986,0.12268199142439
"Maharashtra","Akola",5440.0310950138,594.923848618641,68.1775119,6.75278259282672,97.4128965,37.088140591711,77.0560260530579,20.7480092995604,473,0.193147231984901
"Maharashtra","Amaravati",12203.1683695065,913.533885594356,68.1775119,6.75278259282672,97.4128965,37.088140591711,77.5704721467268,21.1874637649037,665,0.18375245280839
"Maharashtra","Aurangabad",10121.1397066554,833.886382217124,68.1775119,6.75278259282672,97.4128965,37.088140591711,75.2797609451162,20.0274410608553,609,0.182904975832975
"Maharashtra","Bhandara",4139.0231055065,469.310288485506,68.1775119,6.75278259282672,97.4128965,37.088140591711,79.7629934224524,21.1156934652795,380,0.236149790421423
"Maharashtra","Bid",10608.1715872837,904.532396159746,68.1775119,6.75278259282672,97.4128965,37.088140591711,75.8382927722359,18.9466694835226,681,0.1629304091366
"Maharashtra","Buldhana",9742.38072956457,726.15951072027,68.1775119,6.75278259282672,97.4128965,37.088140591711,76.4071477627905,20.5109643914013,565,0.232172566421673
"Maharashtra","Chandrapur",11364.2842700425,667.310433671976,68.1775119,6.75278259282672,97.4128965,37.088140591711,79.4405711520559,20.1182908770332,396,0.320697904551108
"Maharashtra","Dhule",7189.1660188656,601.29498846252,68.1775119,6.75278259282672,97.4128965,37.088140591711,74.6005035247236,21.1103686197823,465,0.249869477396918
"Maharashtra","Gadchiroli",14506.6342204972,912.335249224286,68.1775119,6.75278259282672,97.4128965,37.088140591711,80.240437007301,19.7877905103982,510,0.219011850768633
"Maharashtra","Gondia",5185.02579625674,505.630208054926,68.1775119,6.75278259282672,97.4128965,37.088140591711,80.2178038130279,21.1652991462143,395,0.254855940368592
"Maharashtra","Hingoli",4709.94170858689,491.582958782112,68.1775119,6.75278259282672,97.4128965,37.088140591711,77.1003648127356,19.6376448339879,377,0.244924233627274
"Maharashtra","Jalgaon",11792.2768714563,793.427597703277,68.1775119,6.75278259282672,97.4128965,37.088140591711,75.4879666557389,20.9324816953407,613,0.235392665458327
"Maharashtra","Jalna",7677.12764654028,682.524769148254,68.1775119,6.75278259282672,97.4128965,37.088140591711,75.9803959507298,19.807420789494,483,0.207096038834527
"Maharashtra","Kolhapur",7674.42736662534,908.571448265232,68.1775119,6.75278259282672,97.4128965,37.088140591711,74.158440993644,16.4715240806865,712,0.116825506894999
"Maharashtra","Latur",7205.01473006071,537.857852571956,68.1775119,6.75278259282672,97.4128965,37.088140591711,76.7594187213562,18.3737377642002,360,0.312975044523156
"Maharashtra","Mumbai City",64.7069653444044,58.50951864552,68.1775119,6.75278259282672,97.4128965,37.088140591711,72.8379698011066,18.9886319398953,59,0.237524190233002
"Maharashtra","Nagpur",9896.87883338553,612.53949736496,68.1775119,6.75278259282672,97.4128965,37.088140591711,79.0850429231287,21.1782267548775,518,0.331466713010914
"Maharashtra","Nanded",10535.5397768486,1038.14013745308,68.1775119,6.75278259282672,97.4128965,37.088140591711,77.6177131172025,19.1123873881158,712,0.122844209583734
"Maharashtra","Nandurbar",5955.68992393699,706.768581521721,68.1775119,6.75278259282672,97.4128965,37.088140591711,74.2168499160348,21.5502344710051,546,0.149826099039726
"Maharashtra","Nashik",15515.6229169299,867.915578404352,68.1775119,6.75278259282672,97.4128965,37.088140591711,74.0706709330186,20.2598349188833,714,0.258835662167527
"Maharashtra","Palghar",5271.29957138055,455.346299626869,68.1775119,6.75278259282672,97.4128965,37.088140591711,73.0120703990636,19.7938296022576,353,0.319480193584127
"Maharashtra","Parbhani",6307.22100738861,584.539896919794,68.1775119,6.75278259282672,97.4128965,37.088140591711,76.6908894991091,19.2683455619673,432,0.23196346945721
"Maharashtra","Pune",15648.9106666717,991.971726661835,68.1775119,6.75278259282672,97.4128965,37.088140591711,74.067987243383,18.5710609417815,781,0.199845966531472
"Maharashtra","Ratnagiri",8286.49511866334,697.516811608397,68.1775119,6.75278259282672,97.4128965,37.088140591711,73.454769671958,17.274325720569,617,0.21402838968555
"Maharashtra","Raygad",6980.78245918877,687.862969093705,68.1775119,6.75278259282672,97.4128965,37.088140591711,73.2215620093989,18.5100158415156,572,0.18540016165587
"Maharashtra","Sangli",8609.69231652548,919.031015627325,68.1775119,6.75278259282672,97.4128965,37.088140591711,74.7677817289206,17.1138765825241,637,0.128096469102765
"Maharashtra","Satara",10477.6578728154,683.317004689283,68.1775119,6.75278259282672,97.4128965,37.088140591711,74.1726078024341,17.670019719481,591,0.281987346179412
"Maharashtra","Sindhudurg",5104.30102888858,575.041097077017,68.1775119,6.75278259282672,97.4128965,37.088140591711,73.7376591926555,16.133961553991,476,0.193976167855161
"Maharashtra","Solapur",14854.2804971217,1246.1368215914,68.1775119,6.75278259282672,97.4128965,37.088140591711,75.4832851629379,17.7906263789362,881,0.120207074164523
"Maharashtra","Sub Urban Mumbai",432.878730998472,115.286257786043,68.1775119,6.75278259282672,97.4128965,37.088140591711,72.8845911783333,19.1318436194629,91,0.409280475664689
"Maharashtra","Thane",4273.83819997589,425.895964788765,68.1775119,6.75278259282672,97.4128965,37.088140591711,73.3194443251303,19.3611149924796,323,0.296088056906838
"Maharashtra","Usmanabad",7575.03137416056,793.940018206594,68.1775119,6.75278259282672,97.4128965,37.088140591711,76.0370581049673,18.1884916756118,534,0.151014592161574
"Maharashtra","Wardha",6307.05774328734,479.502692473689,68.1775119,6.75278259282672,97.4128965,37.088140591711,78.5859248800937,20.7971875976255,349,0.344710546438707
"Maharashtra","Washim",5130.00043315827,591.449872687838,68.1775119,6.75278259282672,97.4128965,37.088140591711,77.2163253267135,20.2341995954506,408,0.184285591326147
"Maharashtra","Yavatmal",13585.6586845603,916.414430204315,68.1775119,6.75278259282672,97.4128965,37.088140591711,78.1610186851473,20.0835795130734,634,0.203285651188487
"Manipur","Bishnupur",481.04861332003,160.32967544227,68.1775119,6.75278259282672,97.4128965,37.088140591711,93.7977388657886,24.5357751729409,112,0.235164089663978
"Manipur","Chandel",1975.64770787993,236.940172232736,68.1775119,6.75278259282672,97.4128965,37.088140591711,94.0076499761461,24.1248180311923,148,0.4422236546154
"Manipur","Churachandpur",2435.21488234267,282.721389422377,68.1775119,6.75278259282672,97.4128965,37.088140591711,93.6028059400956,24.2771441777231,222,0.382851030366076
"Manipur","Imphal East",433.295637901125,180.597208705264,68.1775119,6.75278259282672,97.4128965,37.088140591711,94.0132716189653,24.8327090900281,147,0.166944499208624
"Manipur","Imphal West",487.838783841206,197.843027494705,68.1775119,6.75278259282672,97.4128965,37.088140591711,93.8729845514608,24.8031735550679,133,0.1566190877289
"Manipur","Jiribam",293.988983141813,133.243696240297,68.1775119,6.75278259282672,97.4128965,37.088140591711,93.1519228752506,24.6818216435733,120,0.208088259029165
"Manipur","Kakching",319.419730852337,117.466451068066,68.1775119,6.75278259282672,97.4128965,37.088140591711,93.917756682898,24.4281663440505,84,0.290900124820768
"Manipur","Kamjong",2381.46658517037,237.042646970289,68.1775119,6.75278259282672,97.4128965,37.088140591711,94.4320007580561,24.8248083257441,156,0.532600267245005
"Manipur","Kangpokpi",1730.83247851638,512.083570861821,68.1775119,6.75278259282672,97.4128965,37.088140591711,93.9475327994057,24.9929594689155,339,0.0829436637248902
"Manipur","Nonei",1178.89723354452,209.830566721737,68.1775119,6.75278259282672,97.4128965,37.088140591711,93.4557591397787,24.6772728684535,146,0.336471516370225
"Manipur","Pherzawl",2145.65799107574,276.271233453145,68.1775119,6.75278259282672,97.4128965,37.088140591711,93.2205726181273,24.3046607176129,223,0.353263712845238
"Manipur","Senapati",1750.15459013834,242.781635604129,68.1775119,6.75278259282672,97.4128965,37.088140591711,94.1251601924363,25.3985239863824,140,0.373125224318181
"Manipur","Tamenglong",3017.37002237062,371.273138969225,68.1775119,6.75278259282672,97.4128965,37.088140591711,93.5505178482098,25.053561443508,292,0.275075160892108
"Manipur","Tengnoupal",1228.45327610719,182.891180004056,68.1775119,6.75278259282672,97.4128965,37.088140591711,94.2229042297798,24.4126696106677,105,0.461511984199615
"Manipur","Thoubal",393.059876357893,131.586431999785,68.1775119,6.75278259282672,97.4128965,37.088140591711,94.0095890048112,24.6153753733618,111,0.285263597643118
"Manipur","Ukhrul",2092.81855192434,269.145518896255,68.1775119,6.75278259282672,97.4128965,37.088140591711,94.4294960771878,25.2376828256353,157,0.363050578863164
"Meghalaya","East Garo Hills",1580.9669552959,233.18451210497,68.1775119,6.75278259282672,97.4128965,37.088140591711,90.6304646156778,25.6188530782977,171,0.365370309753904
"Meghalaya","East Jaintia Hills",2014.78134875732,252.776446901426,68.1775119,6.75278259282672,97.4128965,37.088140591711,92.4638832924204,25.2657099859567,220,0.396245712364678
"Meghalaya","East Khasi Hills",2845.25645857741,322.715187834331,68.1775119,6.75278259282672,97.4128965,37.088140591711,91.8001156266959,25.3834446636174,268,0.343314757394609
"Meghalaya","North Garo Hills",1246.08538681252,272.35121024759,68.1775119,6.75278259282672,97.4128965,37.088140591711,90.6653570654382,25.8505485530604,209,0.211105256826068
"Meghalaya","Ri-Bhoi",2369.83726617281,383.54424500874,68.1775119,6.75278259282672,97.4128965,37.088140591711,91.8841648566464,25.8737170477139,326,0.20244052144752
"Meghalaya","South Garo Hills",1835.79198656177,270.041128166835,68.1775119,6.75278259282672,97.4128965,37.088140591711,90.5937127586346,25.3006822214269,235,0.31635412844421
"Meghalaya","South West Garo Hills",837.004475469979,138.80202488943,68.1775119,6.75278259282672,97.4128965,37.088140591711,89.989489475065,25.4462989954608,103,0.545941414452262
"Meghalaya","South West Khasi Hills",1305.67904465535,242.183991591217,68.1775119,6.75278259282672,97.4128965,37.088140591711,91.2458589505937,25.3124136606392,194,0.279740555155614
"Meghalaya","West Garo Hills",2658.94517268933,346.983872450017,68.1775119,6.75278259282672,97.4128965,37.088140591711,90.1977003807801,25.6419188167818,300,0.277524077143647
"Meghalaya","West Jaintia Hills",1798.65232318721,291.723075290582,68.1775119,6.75278259282672,97.4128965,37.088140591711,92.282055090863,25.4851360682772,242,0.265592324934285
"Meghalaya","West Khasi Hills",3923.31141304307,409.381017482147,68.1775119,6.75278259282672,97.4128965,37.088140591711,91.2617508357764,25.5983292308228,291,0.294176003451232
"Mizoram","Aizawl",3185.55713640603,520.881149801601,68.1775119,6.75278259282672,97.4128965,37.088140591711,92.8900749987752,23.84839634675,482,0.147542786407328
"Mizoram","Champhai",3400.56068753598,390.336400415972,68.1775119,6.75278259282672,97.4128965,37.088140591711,93.2310094929676,23.5405291392548,385,0.280467335181007
"Mizoram","Kolasib",1492.2379095184,257.453208994313,68.1775119,6.75278259282672,97.4128965,37.088140591711,92.7204370043087,24.1415455038299,243,0.282911964258151
"Mizoram","Lawngtlai",2426.32475978324,480.576817077297,68.1775119,6.75278259282672,97.4128965,37.088140591711,92.7660331536976,22.4329580310049,464,0.132018003507368
"Mizoram","Lunglei",4533.93585950024,451.632893790005,68.1775119,6.75278259282672,97.4128965,37.088140591711,92.7201489827152,22.9724513305896,445,0.279327764219332
"Mizoram","Mamit",3066.69119689539,402.751947884146,68.1775119,6.75278259282672,97.4128965,37.088140591711,92.4639919106873,23.7554896192323,397,0.237577118980911
"Mizoram","Saiha",1530.22280258947,269.288957142125,68.1775119,6.75278259282672,97.4128965,37.088140591711,93.0015298152784,22.2916533149333,204,0.265171865800681
"Mizoram","Serchhip",1445.56846556613,295.9751167656,68.1775119,6.75278259282672,97.4128965,37.088140591711,92.9415394854719,23.3087658658294,260,0.207366276079503
"Nagaland","Dimapur",762.212897553193,244.203487315545,68.1775119,6.75278259282672,97.4128965,37.088140591711,93.7941323981523,25.7811425410565,252,0.160613643537407
"Nagaland","Kiphire",1130.15767564409,186.32252976339,68.1775119,6.75278259282672,97.4128965,37.088140591711,94.8219669877705,25.8427052907161,139,0.409089336108868
"Nagaland","Kohima",1314.33117522099,209.852191156676,68.1775119,6.75278259282672,97.4128965,37.088140591711,94.108904381943,25.7718014876452,173,0.375048693416574
"Nagaland","Longleng",585.216791301798,177.31898271541,68.1775119,6.75278259282672,97.4128965,37.088140591711,94.7954097187144,26.5519934511719,184,0.23389243781769
"Nagaland","Mokokchung",1602.93380817779,284.585168030189,68.1775119,6.75278259282672,97.4128965,37.088140591711,94.5288517041901,26.4722669634249,301,0.248714399183094
"Nagaland","Mon",2178.79654810985,287.558107912298,68.1775119,6.75278259282672,97.4128965,37.088140591711,95.01680199735,26.6778290018108,250,0.331112295300115
"Nagaland","Paren",1827.16950394387,277.623232496461,68.1775119,6.75278259282672,97.4128965,37.088140591711,93.6240863254223,25.5084195203513,267,0.297904517433454
"Nagaland","Phek",1870.92235403579,283.943242546449,68.1775119,6.75278259282672,97.4128965,37.088140591711,94.5345614486906,25.6472368438558,209,0.29161009405928
"Nagaland","Tuensang",2133.11103264094,262.760236704433,68.1775119,6.75278259282672,97.4128965,37.088140591711,94.8875701650178,26.1666604742473,223,0.38824336020435
"Nagaland","Wokha",1607.85151206021,243.267244701203,68.1775119,6.75278259282672,97.4128965,37.088140591711,94.1917432346359,26.1884092359343,205,0.34141966346045
"Nagaland","Zunheboto",1575.09451821367,282.885359269488,68.1775119,6.75278259282672,97.4128965,37.088140591711,94.483993332139,25.9998151103635,227,0.247340675080439
"Odisha","Anugul",6374.12445121808,587.978955881846,68.1775119,6.75278259282672,97.4128965,37.088140591711,84.9052487815296,20.9863806530741,438,0.231689758678324
"Odisha","Balasore (Baleshwar)",3714.87282283821,524.989142071647,68.1775119,6.75278259282672,97.4128965,37.088140591711,86.9063111911923,21.494584162197,464,0.169376506807805
"Odisha","Baragarh",5837.54352497181,587.314813497384,68.1775119,6.75278259282672,97.4128965,37.088140591711,83.3490638062176,21.2195078874757,424,0.212666011399333
"Odisha","Baudh (Bauda)",3100.06084238495,403.882061397094,68.1775119,6.75278259282672,97.4128965,37.088140591711,84.1732362531602,20.6444272354632,240,0.238820142453366
"Odisha","Bhadrak",2507.531361813,344.445903973287,68.1775119,6.75278259282672,97.4128965,37.088140591711,86.6251208350628,20.9831061285401,298,0.265591510064613
"Odisha","Bolangir (Balangir)",6546.19279197819,549.929377083972,68.1775119,6.75278259282672,97.4128965,37.088140591711,83.171571847615,20.5893839607947,413,0.272009965391761
"Odisha","Cuttack",3854.91406164301,601.74174574461,68.1775119,6.75278259282672,97.4128965,37.088140591711,85.6962981224793,20.4533068234223,494,0.133784032235533
"Odisha","Deogarh",2954.34481126196,400.029071797235,68.1775119,6.75278259282672,97.4128965,37.088140591711,84.7852652965797,21.4670850990575,316,0.231999974374229
"Odisha","Dhenkanal",4458.32363224577,395.43140549072,68.1775119,6.75278259282672,97.4128965,37.088140591711,85.5239055063599,20.8269519257797,273,0.358293672243864
"Odisha","Gajapati",4130.98712975983,488.314581808411,68.1775119,6.75278259282672,97.4128965,37.088140591711,84.1611494290561,19.1844803129984,446,0.217702952802462
"Odisha","Ganjam",8394.97082938785,663.540366936573,68.1775119,6.75278259282672,97.4128965,37.088140591711,84.6725486311311,19.6244076771359,471,0.239604162326219
"Odisha","Jagatsinghpur",1736.72739673321,257.497576033062,68.1775119,6.75278259282672,97.4128965,37.088140591711,86.3352922999159,20.2186524608468,171,0.329151038022994
"Odisha","Jajapur",2899.67320209683,417.897215919775,68.1775119,6.75278259282672,97.4128965,37.088140591711,86.1493970221878,20.8561618587501,359,0.208650756334395
"Odisha","Jharsuguda",2071.22829847147,350.733325592406,68.1775119,6.75278259282672,97.4128965,37.088140591711,83.9464202134162,21.807159538854,220,0.211584460673836
"Odisha","Kalahandi",7897.78531798018,616.767152576808,68.1775119,6.75278259282672,97.4128965,37.088140591711,83.1079593869722,19.8676715840314,507,0.260899181025083
"Odisha","Kandhamal",8022.43940196987,632.15771564319,68.1775119,6.75278259282672,97.4128965,37.088140591711,84.0459901668177,20.1282539473852,474,0.252269893218915
"Odisha","Kendraparha",2530.61395876852,392.699902428313,68.1775119,6.75278259282672,97.4128965,37.088140591711,86.6097368417539,20.5525130341808,329,0.206212114989351
"Odisha","Keonjhar (Kendujhar)",8302.32836121914,641.97303926253,68.1775119,6.75278259282672,97.4128965,37.088140591711,85.7024388859056,21.5378226347841,510,0.253148985287835
"Odisha","Khordha",2878.45423230754,607.394570639677,68.1775119,6.75278259282672,97.4128965,37.088140591711,85.514304991074,20.0912146964017,548,0.0980454358487428
"Odisha","Koraput",8387.71435088979,768.097766928335,68.1775119,6.75278259282672,97.4128965,37.088140591711,82.7196399937237,18.812911708457,646,0.178657186691147
"Odisha","Malkangiri",5782.63358013285,492.341695011743,68.1775119,6.75278259282672,97.4128965,37.088140591711,81.9505019012369,18.2576298745643,359,0.299779758155044
"Odisha","Mayurbhanj",10408.9579620994,747.624869772545,68.1775119,6.75278259282672,97.4128965,37.088140591711,86.4085037788807,21.895452697971,600,0.234018202430024
"Odisha","Nabarangapur",5449.74820278105,538.198636322971,68.1775119,6.75278259282672,97.4128965,37.088140591711,82.3346023478322,19.5764108989429,434,0.236429201140188
"Odisha","Nayagarh",3895.09391313693,422.818357327587,68.1775119,6.75278259282672,97.4128965,37.088140591711,84.997837987912,20.2131209713948,310,0.273791605222123
"Odisha","Nuaparha",3847.1177965321,411.735363669187,68.1775119,6.75278259282672,97.4128965,37.088140591711,82.5769087349854,20.4658677847864,301,0.285173396784774
"Odisha","Puri",3473.59659083584,470.339271139095,68.1775119,6.75278259282672,97.4128965,37.088140591711,85.7253383512717,19.8790237164997,300,0.197318025171801
"Odisha","Rayagarha",7344.98957261872,765.840285754287,68.1775119,6.75278259282672,97.4128965,37.088140591711,83.5123162097566,19.3634123597468,658,0.157370973613726
"Odisha","Sambalpur",6651.321599553,632.714859959466,68.1775119,6.75278259282672,97.4128965,37.088140591711,84.2734290227177,21.4526763237942,469,0.208786177001235
"Odisha","Subarnapur",2365.05827566913,332.637608505926,68.1775119,6.75278259282672,97.4128965,37.088140591711,83.8225468609327,20.9308122275645,201,0.268601857124124
"Odisha","Sundargarh",9724.44915524062,786.804150638791,68.1775119,6.75278259282672,97.4128965,37.088140591711,84.5090105007643,22.0804321332374,539,0.197397473299052
"Puducherry","Karaikal",159.701844673639,110.421267667513,68.1775119,6.75278259282672,97.4128965,37.088140591711,79.8031325595719,10.9332463706573,146,0.164594128710662
"Puducherry","Mahe",9.38571873418368,24.1953262657084,68.1775119,6.75278259282672,97.4128965,37.088140591711,75.5392342401652,11.72574446246,31,0.201471877594588
"Puducherry","Puducherry",297.880463776135,327.002900151779,68.1775119,6.75278259282672,97.4128965,37.088140591711,79.7339425099265,11.9102423154386,300,0.0350064987935283
"Puducherry","Yanam",37.6174760819017,38.9359032501178,68.1775119,6.75278259282672,97.4128965,37.088140591711,82.252600859197,16.7277531944826,21,0.311816440333614
"Punjab","Amritsar",2677.44378124696,357.508862990283,68.1775119,6.75278259282672,97.4128965,37.088140591711,74.8995882797123,31.7056141600414,324,0.263242859043022
"Punjab","Barnala",1424.26447882424,230.703822285443,68.1775119,6.75278259282672,97.4128965,37.088140591711,75.4985365713749,30.3878585628656,200,0.336272170625945
"Punjab","Bathinda",3378.32772995282,410.475318443204,68.1775119,6.75278259282672,97.4128965,37.088140591711,75.0401648946363,30.1833600508406,307,0.251963449308659
"Punjab","Faridkot",1460.90437306274,228.181578422412,68.1775119,6.75278259282672,97.4128965,37.088140591711,74.7772482568017,30.6134802605078,164,0.352590407770146
"Punjab","Fatehgarh Sahib",1151.94921207754,235.903793953843,68.1775119,6.75278259282672,97.4128965,37.088140591711,76.3756194887166,30.6427278279575,203,0.260119760207666
"Punjab","Fazilka",2874.74509951173,357.5106653069,68.1775119,6.75278259282672,97.4128965,37.088140591711,74.1637295755693,30.2771316544599,191,0.282638423362518
"Punjab","Firozpur",2371.87814446406,368.485009065019,68.1775119,6.75278259282672,97.4128965,37.088140591711,74.7030127779575,30.9130691627001,281,0.21951418456397
"Punjab","Gurdaspur",2604.69006320468,313.154552237115,68.1775119,6.75278259282672,97.4128965,37.088140591711,75.2911367402263,31.9165698345416,285,0.333770891439386
"Punjab","Hoshiarpur",3381.87041518915,412.093437017073,68.1775119,6.75278259282672,97.4128965,37.088140591711,75.8579839833478,31.6249493462292,338,0.250250774631281
"Punjab","Jalandhar",2639.96667398541,428.507068518904,68.1775119,6.75278259282672,97.4128965,37.088140591711,75.5657085895542,31.2126964551538,405,0.180672613954662
"Punjab","Kapurthala",1630.40568791328,413.98326255961,68.1775119,6.75278259282672,97.4128965,37.088140591711,75.3998420312104,31.3545283175114,363,0.119547357299295
"Punjab","Ludhiana",3691.28626583077,384.746724714449,68.1775119,6.75278259282672,97.4128965,37.088140591711,75.8327402223513,30.8054475357724,312,0.313355793036866
"Punjab","Mansa",2172.07280092526,332.491148668899,68.1775119,6.75278259282672,97.4128965,37.088140591711,75.4384489020171,29.9072959147376,276,0.246901691176964
"Punjab","Moga",2248.49870182994,294.323396781982,68.1775119,6.75278259282672,97.4128965,37.088140591711,75.1701688509173,30.7618533049118,241,0.326176697407407
"Punjab","Pathankot",948.270869767247,238.104239504747,68.1775119,6.75278259282672,97.4128965,37.088140591711,75.6162139774647,32.2964927389404,191,0.210188048106644
"Punjab","Patiala",3315.78574608227,606.988345202175,68.1775119,6.75278259282672,97.4128965,37.088140591711,76.35070608678,30.281561441263,567,0.113092972681853
"Punjab","Rupnagar",1374.94685548485,316.924822826056,68.1775119,6.75278259282672,97.4128965,37.088140591711,76.4877169756069,31.0623648013546,273,0.172021711273326
"Punjab","Sangrur",3609.83944451966,492.818069566835,68.1775119,6.75278259282672,97.4128965,37.088140591711,75.8690364679368,30.2120459503652,449,0.186777476624897
"Punjab","Sas Nagar (Sahibzada Ajit Singh Nagar)",1092.96674127033,298.948749627951,68.1775119,6.75278259282672,97.4128965,37.088140591711,76.7397539747738,30.6811825195158,261,0.153682114776282
"Punjab","Shahid Bhagat Singh Nagar",1263.58414171246,252.567831331378,68.1775119,6.75278259282672,97.4128965,37.088140591711,76.1543034789214,31.1100992145884,215,0.248918950024127
"Punjab","Sri Muktsar Sahib",2640.57923133277,347.125909338347,68.1775119,6.75278259282672,97.4128965,37.088140591711,74.5383844041268,30.2998883111032,207,0.27538165540078
"Punjab","Tarn Taran",2415.307049425,301.339064143132,68.1775119,6.75278259282672,97.4128965,37.088140591711,74.8404176950845,31.3365636042722,256,0.334249943564729
"Rajasthan","Ajmer",8472.38243077494,792.926631542446,68.1775119,6.75278259282672,97.4128965,37.088140591711,74.7731645847494,26.2335484195083,550,0.16933604258581
"Rajasthan","Alwar",8381.38926274481,881.479472287448,68.1775119,6.75278259282672,97.4128965,37.088140591711,76.6016565176407,27.5909780935023,699,0.135550607842319
"Rajasthan","Banswara",4508.81041492209,406.904732784157,68.1775119,6.75278259282672,97.4128965,37.088140591711,74.3619565860484,23.4764865937843,275,0.342205004227294
"Rajasthan","Baran",6995.58361668037,622.819465805575,68.1775119,6.75278259282672,97.4128965,37.088140591711,76.7477355061256,24.995606883358,414,0.226625857628667
"Rajasthan","Barmer",28385.7186061839,1041.58613845087,68.1775119,6.75278259282672,97.4128965,37.088140591711,71.4749091178126,25.7350776112188,547,0.328790585803631
"Rajasthan","Bharatpur",5060.72078228971,702.384490437217,68.1775119,6.75278259282672,97.4128965,37.088140591711,77.2764732499971,27.2476906581064,578,0.128905786799823
"Rajasthan","Bhilwara",10488.3360418462,710.29005260815,68.1775119,6.75278259282672,97.4128965,37.088140591711,74.7266431850139,25.4816423632372,511,0.261243198544525
"Rajasthan","Bikaner",30255.7211270687,1154.48404968648,68.1775119,6.75278259282672,97.4128965,37.088140591711,73.1745953924108,28.1772249247157,697,0.28526040756672
"Rajasthan","Bundi",5775.00727226022,471.591424608279,68.1775119,6.75278259282672,97.4128965,37.088140591711,75.7906677153572,25.4856444435782,330,0.326310163501613
"Rajasthan","Chittaurgarh",7815.6375008647,977.904068199971,68.1775119,6.75278259282672,97.4128965,37.088140591711,74.7754805758212,24.8221927935439,719,0.102702677593901
"Rajasthan","Churu",13851.9018848868,975.614527632578,68.1775119,6.75278259282672,97.4128965,37.088140591711,74.6964623311982,28.3451152989059,757,0.182878543164501
"Rajasthan","Dausa",3416.59615703016,495.330853762039,68.1775119,6.75278259282672,97.4128965,37.088140591711,76.5103986559442,26.8576511845769,402,0.174989806420977
"Rajasthan","Dhaulpur",3036.31323058741,389.039733628443,68.1775119,6.75278259282672,97.4128965,37.088140591711,77.7021099885311,26.6809027317439,286,0.252097487651887
"Rajasthan","Dungarpur",3770.81119387833,367.844789653688,68.1775119,6.75278259282672,97.4128965,37.088140591711,73.8531140787365,23.7318777302774,234,0.350199429271272
"Rajasthan","Ganganagar",10934.2208873712,815.388934952218,68.1775119,6.75278259282672,97.4128965,37.088140591711,73.5705425749299,29.3961955450516,435,0.206665545977895
"Rajasthan","Hanumangarh",9709.72981800745,901.681785101544,68.1775119,6.75278259282672,97.4128965,37.088140591711,74.5613957470298,29.2660476074701,658,0.15007571334101
"Rajasthan","Jaipur",11137.5242294849,812.357344476412,68.1775119,6.75278259282672,97.4128965,37.088140591711,75.7197859218592,26.9765855136149,633,0.212082240788684
"Rajasthan","Jaisalmer",38442.7847182784,1160.03468590952,68.1775119,6.75278259282672,97.4128965,37.088140591711,70.900993862248,27.0751999763456,439,0.358990332464064
"Rajasthan","Jalor",10643.4786250147,726.287002271885,68.1775119,6.75278259282672,97.4128965,37.088140591711,72.2117170747769,25.099424630152,450,0.253557763397481
"Rajasthan","Jhalawar",6344.70398206286,737.234142948099,68.1775119,6.75278259282672,97.4128965,37.088140591711,76.1932648545299,24.3359299420121,541,0.146693323535356
"Rajasthan","Jhunjhunun",5923.03510755968,500.609007229397,68.1775119,6.75278259282672,97.4128965,37.088140591711,75.5496227779379,28.0926035579262,378,0.297000275416878
"Rajasthan","Jodhpur",22681.3846856086,1006.80086735622,68.1775119,6.75278259282672,97.4128965,37.088140591711,72.7858164725269,26.7477082980552,731,0.281185075883944
"Rajasthan","Karauli",5015.0473221339,510.803964336175,68.1775119,6.75278259282672,97.4128965,37.088140591711,76.9585987903584,26.5229139313101,343,0.241532947436785
"Rajasthan","Kota",5089.03367835617,599.154284001653,68.1775119,6.75278259282672,97.4128965,37.088140591711,76.1061574232487,25.1094070790858,391,0.178142626500841
"Rajasthan","Nagaur",17809.1230135188,912.043775150436,68.1775119,6.75278259282672,97.4128965,37.088140591711,74.1756208617084,27.0659588008337,642,0.269042587200399
"Rajasthan","Pali",12384.4273903638,851.48585390574,68.1775119,6.75278259282672,97.4128965,37.088140591711,73.5196893971606,25.707036551457,611,0.214650013817922
"Rajasthan","Pratapgarh",4438.24825945374,440.679968827433,68.1775119,6.75278259282672,97.4128965,37.088140591711,74.6503111820168,24.0291114768953,288,0.287193651435423
"Rajasthan","Raj Samand",4629.82791676909,683.475434489542,68.1775119,6.75278259282672,97.4128965,37.088140591711,73.8915383989329,25.2279375154762,579,0.124545744711713
"Rajasthan","Sawai Madhopur",5026.27214523108,555.600212463115,68.1775119,6.75278259282672,97.4128965,37.088140591711,76.4609553140575,26.2171919400328,406,0.204611979677547
"Rajasthan","Sikar",7727.24278201674,691.252030046854,68.1775119,6.75278259282672,97.4128965,37.088140591711,75.2884642846437,27.6341419168849,504,0.203217723557368
"Rajasthan","Sirohi",5136.43542898737,448.359079976234,68.1775119,6.75278259282672,97.4128965,37.088140591711,72.7761202446465,24.7617581445948,289,0.32108480849832
"Rajasthan","Tonk",7197.68504195326,656.486571990462,68.1775119,6.75278259282672,97.4128965,37.088140591711,75.6659339162633,26.1482865062532,542,0.209870312014465
"Rajasthan","Udaipur",11711.6668937389,855.088057444681,68.1775119,6.75278259282672,97.4128965,37.088140591711,73.6897540693632,24.4187594251687,620,0.201282905939039
"Sikkim","East",939.576131360547,144.90149683326,68.1775119,6.75278259282672,97.4128965,37.088140591711,88.6731625965588,27.2921755045529,105,0.562336270287247
"Sikkim","North",4226.3143495801,324.971704819467,68.1775119,6.75278259282672,97.4128965,37.088140591711,88.5282289146895,27.7434789914028,219,0.502898757815109
"Sikkim","South",733.265995772069,160.079378758275,68.1775119,6.75278259282672,97.4128965,37.088140591711,88.3849359360101,27.2862574833264,100,0.359584223605877
"Sikkim","West",1200.52063185086,179.540399551296,68.1775119,6.75278259282672,97.4128965,37.088140591711,88.1755588984222,27.3484846158927,122,0.468009983534095
"Tamil Nadu","Ariyalur",1934.91824916852,244.07237586988,68.1775119,6.75278259282672,97.4128965,37.088140591711,79.2429715373287,11.16262661468,183,0.408164498022911
"Tamil Nadu","Chengalpattu",2721.13299410502,344.666071339599,68.1775119,6.75278259282672,97.4128965,37.088140591711,79.9992442427347,12.5828044756785,257,0.28784756798061
"Tamil Nadu","Chennai",334.036212111216,122.356178140257,68.1775119,6.75278259282672,97.4128965,37.088140591711,80.2349142976335,13.1002986345962,99,0.280382954693372
"Tamil Nadu","Coimbatore",4721.91047628412,527.21358570516,68.1775119,6.75278259282672,97.4128965,37.088140591711,76.9758073223411,10.8780284119108,452,0.213478639771556
"Tamil Nadu","Cuddalore",3702.76543712714,504.219844438537,68.1775119,6.75278259282672,97.4128965,37.088140591711,79.450554439325,11.5360111833668,393,0.183019008009874
"Tamil Nadu","Dharmapuri",4497.47612789063,500.210266753403,68.1775119,6.75278259282672,97.4128965,37.088140591711,78.1931148105217,12.1005559874712,372,0.22587778910557
"Tamil Nadu","Dindigul",6051.99752101377,604.701507068038,68.1775119,6.75278259282672,97.4128965,37.088140591711,77.8196704953315,10.3916621598314,521,0.207982360783197
"Tamil Nadu","Erode",5109.06298879414,717.339473453929,68.1775119,6.75278259282672,97.4128965,37.088140591711,77.3802511333626,11.4796815149386,562,0.124767554197714
"Tamil Nadu","Kallakkurichi",3532.5987157601,396.299904422892,68.1775119,6.75278259282672,97.4128965,37.088140591711,79.0344575289844,11.8036300421753,323,0.282654715762432
"Tamil Nadu","Kanchipuram",1748.89719012376,413.516252942771,68.1775119,6.75278259282672,97.4128965,37.088140591711,79.8497700982519,12.8326144847905,341,0.128525403601831
"Tamil Nadu","Kanyakumari",1679.82249581575,232.169459464266,68.1775119,6.75278259282672,97.4128965,37.088140591711,77.3595303052086,8.30810391140877,183,0.391618388926478
"Tamil Nadu","Karur",2900.67711501346,443.311423987201,68.1775119,6.75278259282672,97.4128965,37.088140591711,78.1346566927951,10.8443033552212,308,0.185477573860831
"Tamil Nadu","Krishnagiri",5131.16159033965,609.578181151734,68.1775119,6.75278259282672,97.4128965,37.088140591711,78.032198433515,12.4900786535272,475,0.173526867973451
"Tamil Nadu","Madurai",3706.3954017991,514.863346085607,68.1775119,6.75278259282672,97.4128965,37.088140591711,78.0052660217892,9.92277131528763,443,0.175702387455296
"Tamil Nadu","Nagapattinam",2565.00292778746,513.859321381882,68.1775119,6.75278259282672,97.4128965,37.088140591711,79.7378560324994,10.8412618447316,443,0.12207008617441
"Tamil Nadu","Namakkal",3419.93302305452,397.898517935134,68.1775119,6.75278259282672,97.4128965,37.088140591711,78.1355281682936,11.3187825269973,322,0.271445609642464
"Tamil Nadu","Nilgiris",2430.40698377971,330.015585605173,68.1775119,6.75278259282672,97.4128965,37.088140591711,76.62627208751,11.4532554287423,243,0.280427091098949
"Tamil Nadu","Perambalur",1757.17041702192,276.026685144425,68.1775119,6.75278259282672,97.4128965,37.088140591711,78.8914989056393,11.2750109040157,208,0.289815498927838
"Tamil Nadu","Pudukkottai",4652.53009814669,644.150388163518,68.1775119,6.75278259282672,97.4128965,37.088140591711,78.87936520449,10.3608279596042,711,0.140904385314885
"Tamil Nadu","Ramanathapuram",4115.89234912899,712.801167272085,68.1775119,6.75278259282672,97.4128965,37.088140591711,78.6859762611652,9.43744205630031,592,0.101797489308807
"Tamil Nadu","Ranippettai",1851.2510968855,341.861422476048,68.1775119,6.75278259282672,97.4128965,37.088140591711,79.4615117339178,12.949969422988,274,0.199055875958867
"Tamil Nadu","Salem",6001.90130797086,869.243421651987,68.1775119,6.75278259282672,97.4128965,37.088140591711,78.1370946251454,11.6902680657634,679,0.0998196145511121
"Tamil Nadu","Sivaganga",4241.26882488596,646.183767249906,68.1775119,6.75278259282672,97.4128965,37.088140591711,78.5960785801768,9.91643742299071,564,0.127641992940715
"Tamil Nadu","Teni",2865.60644246725,322.22897860889,68.1775119,6.75278259282672,97.4128965,37.088140591711,77.4385128244055,9.89175460564022,282,0.346814478344805
"Tamil Nadu","Tenkasi",2808.40896955531,344.386865191363,68.1775119,6.75278259282672,97.4128965,37.088140591711,77.4598027395132,9.09247309253326,305,0.297561717645577
"Tamil Nadu","Thanjavur",3427.17643592388,602.437702610636,68.1775119,6.75278259282672,97.4128965,37.088140591711,79.2414680469974,10.6706752344162,630,0.118664835021294
"Tamil Nadu","Thiruvarur",2263.74756306085,437.520694630713,68.1775119,6.75278259282672,97.4128965,37.088140591711,79.5335026075828,10.6795853700624,423,0.148607476696222
"Tamil Nadu","Tiruchirapalli",4491.4752550053,760.030384679824,68.1775119,6.75278259282672,97.4128965,37.088140591711,78.570255211991,10.8912446154686,580,0.0977095392699978
"Tamil Nadu","Tirunelveli",3882.42154369924,435.510446230906,68.1775119,6.75278259282672,97.4128965,37.088140591711,77.5903398347077,8.57493922108162,381,0.257226316819664
"Tamil Nadu","Tiruppattur",2115.11898855231,305.0002535841,68.1775119,6.75278259282672,97.4128965,37.088140591711,78.6551195609428,12.5939863332821,246,0.285722385447564
"Tamil Nadu","Tiruppur",5195.70176389762,646.913004001077,68.1775119,6.75278259282672,97.4128965,37.088140591711,77.4075081166952,10.8389987369804,540,0.156013548852553
"Tamil Nadu","Tiruvallur",3229.25114830807,650.111608888244,68.1775119,6.75278259282672,97.4128965,37.088140591711,79.9326355892005,13.2440060327719,559,0.0960142832635368
"Tamil Nadu","Tiruvannamalai",6180.06846615585,675.993552483224,68.1775119,6.75278259282672,97.4128965,37.088140591711,79.1664660152744,12.4325777253479,573,0.169948776766186
"Tamil Nadu","Tuticorin",4741.4688920617,483.521965079481,68.1775119,6.75278259282672,97.4128965,37.088140591711,77.9975675915599,8.90134279737649,382,0.254853354437092
"Tamil Nadu","Vellore",2105.99475614851,410.989254346554,68.1775119,6.75278259282672,97.4128965,37.088140591711,78.9658076824335,12.9141302506243,315,0.156677349288587
"Tamil Nadu","Villupuram",3661.86765453277,563.363437047365,68.1775119,6.75278259282672,97.4128965,37.088140591711,79.5406132980122,12.1396875705376,478,0.144989046412468
"Tamil Nadu","Virudhunagar",4240.95603964775,526.289103549939,68.1775119,6.75278259282672,97.4128965,37.088140591711,77.9056005968377,9.49232839571651,472,0.192408776533759
"Telangana","Adilabad",3999.20139379048,376.944069276995,68.1775119,6.75278259282672,97.4128965,37.088140591711,78.565975603074,19.5198065046941,238,0.353695317107932
"Telangana","Bhadradri Kothagudem",6909.51797740425,616.242335822948,68.1775119,6.75278259282672,97.4128965,37.088140591711,80.7164129894477,17.6903223239368,328,0.22864123280425
"Telangana","Hyderabad",191.168137262702,94.771255903339,68.1775119,6.75278259282672,97.4128965,37.088140591711,78.4702449215054,17.3950142427941,94,0.267468166506117
