"state_name","district_name","area_sq_km","perimeter_km","bbox_xmin","bbox_ymin","bbox_xmax","bbox_ymax","centroid_lon","centroid_lat","num_vertices","compactness"
"Andaman & Nicobar Island","Nicobar",1700.28996543793,749.787384307272,68.1862489922762,6.755952892178,97.4152926679075,37.0782680515425,93.6028508185871,7.51687163196272,9424,0.0380063880377866
"Andaman & Nicobar Island","North & Middle Andaman",3366.05483823686,1566.58929338505,68.1862489922762,6.755952892178,97.4152926679075,37.0782680515425,92.8675206781055,12.8379017743252,29128,0.0172353752305978
"Andaman & Nicobar Island","South Andaman",2431.97069526846,1171.01287232414,68.1862489922762,6.755952892178,97.4152926679075,37.0782680515425,92.6489599683671,11.5192636033762,23899,0.0222866536232075
"Andhra Pradesh","Adilabad",16041.072597436,872.100193243171,68.1862489922762,6.755952892178,97.4152926679075,37.0782680515425,78.972134024206,19.2564583588589,681,0.265039438559903
"Andhra Pradesh","Anantapur",19224.3194489799,1312.96741519087,68.1862489922762,6.755952892178,97.4152926679075,37.0782680515425,77.5768775257398,14.4810282013888,1239,0.140137040782877
"Andhra Pradesh","Chittoor",15173.7257894919,1118.20195726882,68.1862489922762,6.755952892178,97.4152926679075,37.0782680515425,79.0143028636292,13.4672275371673,1163,0.152497105063784
"Andhra Pradesh","East Godavari",10843.570835791,801.370835641409,68.1862489922762,6.755952892178,97.4152926679075,37.0782680515425,82.011832437463,17.1885487786186,932,0.212185214814252
"Andhra Pradesh","Guntur",11431.4264441666,711.240474616163,68.1862489922762,6.755952892178,97.4152926679075,37.0782680515425,80.0915229452567,16.2988069938223,526,0.283973205655627
"Andhra Pradesh","Hyderabad",178.053454873504,64.9399514999992,68.1862489922762,6.755952892178,97.4152926679075,37.0782680515425,78.4699402009489,17.3898350827124,45,0.530562253435775
"Andhra Pradesh","Karimnagar",11896.3113534684,765.167553593513,68.1862489922762,6.755952892178,97.4152926679075,37.0782680515425,79.2409021969268,18.5496543638195,595,0.255334262067166
"Andhra Pradesh","Khammam",16075.0427069041,1059.73478983553,68.1862489922762,6.755952892178,97.4152926679075,37.0782680515425,80.6873004829477,17.5969117810132,931,0.179873678194932
"Andhra Pradesh","Krishna",8558.35409105897,892.364836849927,68.1862489922762,6.755952892178,97.4152926679075,37.0782680515425,80.8006672077709,16.5626435545063,1023,0.135056414962436
"Andhra Pradesh","Kurnool",17821.1106274671,854.827673675697,68.1862489922762,6.755952892178,97.4152926679075,37.0782680515425,78.0061497989109,15.5336216923617,666,0.306469657909823
"Andhra Pradesh","Mahbubnagar",18383.7005352155,996.513908621305,68.1862489922762,6.755952892178,97.4152926679075,37.0782680515425,78.1461340192037,16.4985310018087,875,0.232635544540365
"Andhra Pradesh","Medak",9761.02186044582,739.107480140794,68.1862489922762,6.755952892178,97.4152926679075,37.0782680515425,78.2156858384274,17.8880020946146,683,0.224538053913489
"Andhra Pradesh","Nalgonda",14089.6254232405,693.86029138205,68.1862489922762,6.755952892178,97.4152926679075,37.0782680515425,79.2886809389503,17.0677992856895,485,0.367760637116672
"Andhra Pradesh","Nizamabad",7910.90611795521,506.137471477446,68.1862489922762,6.755952892178,97.4152926679075,37.0782680515425,78.1439412064675,18.5261023867941,424,0.388060208186457
"Andhra Pradesh","Prakasam",17712.6855832524,818.243463022074,68.1862489922762,6.755952892178,97.4152926679075,37.0782680515425,79.515796526302,15.6213371514795,799,0.332452182816107
"Andhra Pradesh","Rangareddy",7551.82762156352,848.000994302423,68.1862489922762,6.755952892178,97.4152926679075,37.0782680515425,78.1773935855246,17.2880436220515,767,0.131968174513544
"Andhra Pradesh","Sri Potti Sriramulu Nellore",13122.9436148162,690.633303979315,68.1862489922762,6.755952892178,97.4152926679075,37.0782680515425,79.7344010543828,14.4268019444605,738,0.34573718557879
"Andhra Pradesh","Srikakulam",6321.63726017634,692.131094804877,68.1862489922762,6.755952892178,97.4152926679075,37.0782680515425,83.9880955916407,18.5785633604886,1134,0.16582985247772
"Andhra Pradesh","Visakhapatnam",11432.8546755638,908.864842882062,68.1862489922762,6.755952892178,97.4152926679075,37.0782680515425,82.6924731759084,17.8908986980859,1126,0.173926572600872
"Andhra Pradesh","Vizianagaram",5593.31395165656,760.887579946422,68.1862489922762,6.755952892178,97.4152926679075,37.0782680515425,83.3792756029586,18.4673798925251,1047,0.121405418582647
"Andhra Pradesh","Warangal",12805.8807802431,829.769663561718,68.1862489922762,6.755952892178,97.4152926679075,37.0782680515425,79.7992260806035,17.9551653421339,693,0.233724485510805
"Andhra Pradesh","West Godavari",7768.95137460267,497.316773210774,68.1862489922762,6.755952892178,97.4152926679075,37.0782680515425,81.4022625130714,16.8946197421233,386,0.394735379295575
"Andhra Pradesh","Y.s.r.",15154.6210702141,730.609334608158,68.1862489922762,6.755952892178,97.4152926679075,37.0782680515425,78.783564734829,14.4598685635731,578,0.356766865160318
"Arunanchal Pradesh","Anjaw",6513.04849081654,405.858662723904,68.1862489922762,6.755952892178,97.4152926679075,37.0782680515425,96.8287779445548,28.0654887571086,332,0.496872013317803
"Arunanchal Pradesh","Changlang",5039.54398632276,551.698347860319,68.1862489922762,6.755952892178,97.4152926679075,37.0782680515425,96.3451759927204,27.3626455767298,586,0.208064380353469
"Arunanchal Pradesh","Dibang Valley",7411.71180172021,587.860722340808,68.1862489922762,6.755952892178,97.4152926679075,37.0782680515425,95.902752516862,28.9513031611865,397,0.269512864469998
"Arunanchal Pradesh","East Kameng",6003.43500979969,498.235163972608,68.1862489922762,6.755952892178,97.4152926679075,37.0782680515425,92.9680093634965,27.4411160082642,435,0.303907156108699
"Arunanchal Pradesh","East Siang",3740.46102571631,384.355718819225,68.1862489922762,6.755952892178,97.4152926679075,37.0782680515425,95.1633931105049,28.123785971136,275,0.31817664879694
"Arunanchal Pradesh","Kurung Kumey",6785.62671278021,432.561581232366,68.1862489922762,6.755952892178,97.4152926679075,37.0782680515425,93.3924040323451,27.9998292062818,341,0.455726140569218
"Arunanchal Pradesh","Lohit",3894.52631945606,359.780356054885,68.1862489922762,6.755952892178,97.4152926679075,37.0782680515425,96.1952090126031,27.8401190553257,334,0.378085143661694
"Arunanchal Pradesh","Lower Dibang Valley",5689.06476781002,459.458673504249,68.1862489922762,6.755952892178,97.4152926679075,37.0782680515425,95.8803952645265,28.3725823926024,304,0.338655266099943
"Arunanchal Pradesh","Lower Subansiri",2479.16082209588,306.666438153816,68.1862489922762,6.755952892178,97.4152926679075,37.0782680515425,93.9390790114084,27.6255420498396,173,0.331269968322643
"Arunanchal Pradesh","Papum Pare",3780.64657827141,396.838382113207,68.1862489922762,6.755952892178,97.4152926679075,37.0782680515425,93.596939256545,27.2887907007391,295,0.301681447989794
"Arunanchal Pradesh","Tawang",2357.56592926951,288.558260960735,68.1862489922762,6.755952892178,97.4152926679075,37.0782680515425,91.9535775059184,27.661859835565,240,0.355800608654292
"Arunanchal Pradesh","Tirap",2030.84174783525,234.189610878219,68.1862489922762,6.755952892178,97.4152926679075,37.0782680515425,95.4409281706231,26.9471242138713,280,0.465318904137158
"Arunanchal Pradesh","Upper Siang",6767.2055555645,475.360173562654,68.1862489922762,6.755952892178,97.4152926679075,37.0782680515425,94.9180552689766,28.833554719531,351,0.37633416456008
"Arunanchal Pradesh","Upper Subansiri",6416.62678896951,476.077332553333,68.1862489922762,6.755952892178,97.4152926679075,37.0782680515425,93.9367368750235,28.2899524814251,448,0.355763702522239
"Arunanchal Pradesh","West Kameng",5266.15269663944,375.845686187118,68.1862489922762,6.755952892178,97.4152926679075,37.0782680515425,92.4109752304722,27.3028688830331,316,0.468472575031816
"Arunanchal Pradesh","West Siang",7939.51881770302,569.488499747332,68.1862489922762,6.755952892178,97.4152926679075,37.0782680515425,94.5116134918575,28.3208697892625,482,0.30763385639437
"Assam","Baksa",2370.93335950776,341.865878881289,68.1862489922762,6.755952892178,97.4152926679075,37.0782680515425,91.3465137397217,26.6648472744324,573,0.254928093436058
"Assam","Barpeta",2310.63800783517,303.929345010127,68.1862489922762,6.755952892178,97.4152926679075,37.0782680515425,91.0108407684389,26.340183460589,519,0.314337727086793
"Assam","Bongaigaon",1052.35441161256,258.278406019382,68.1862489922762,6.755952892178,97.4152926679075,37.0782680515425,90.6247809407963,26.3652045017432,407,0.198242011227405
"Assam","Cachar",3784.34103934425,397.522361755728,68.1862489922762,6.755952892178,97.4152926679075,37.0782680515425,92.856422483463,24.8112490377138,874,0.300937981423203
"Assam","Chirang",1730.65663990212,255.659010935937,68.1862489922762,6.755952892178,97.4152926679075,37.0782680515425,90.616292432577,26.6429735976534,496,0.332735062743406
"Assam","Darrang",1612.1112555349,265.259330292202,68.1862489922762,6.755952892178,97.4152926679075,37.0782680515425,92.0374031100528,26.449265434366,394,0.287914499417278
"Assam","Dhemaji",2606.43600731578,378.765713784475,68.1862489922762,6.755952892178,97.4152926679075,37.0782680515425,94.7778179686654,27.5777454905709,307,0.228305099394045
"Assam","Dhubri",2297.1670693063,562.415398160638,68.1862489922762,6.755952892178,97.4152926679075,37.0782680515425,90.0223752247053,26.0674859869248,888,0.0912615920629652
"Assam","Dibrugarh",3395.55279352864,406.934457735761,68.1862489922762,6.755952892178,97.4152926679075,37.0782680515425,95.0561737133253,27.3664427134754,458,0.257674486610784
"Assam","Dima Hasao",4905.13191033031,449.424519642668,68.1862489922762,6.755952892178,97.4152926679075,37.0782680515425,93.0341716694739,25.3770523486547,728,0.305173648033867
"Assam","Goalpara",2011.08078791067,313.576104831507,68.1862489922762,6.755952892178,97.4152926679075,37.0782680515425,90.6055064176761,26.0554561306391,376,0.257012034187403
"Assam","Golaghat",3365.49059187058,535.838875430757,68.1862489922762,6.755952892178,97.4152926679075,37.0782680515425,93.83344251842,26.4572669049276,820,0.147295611377738
"Assam","Hailakandi",1331.97378046984,231.823675286591,68.1862489922762,6.755952892178,97.4152926679075,37.0782680515425,92.5887726911375,24.4941175482428,476,0.311451169823923
"Assam","Jorhat",2997.98877202367,397.030512826208,68.1862489922762,6.755952892178,97.4152926679075,37.0782680515425,94.2565456844187,26.7939605395295,517,0.238996805796824
"Assam","Kamrup",2906.35372260962,402.376994881032,68.1862489922762,6.755952892178,97.4152926679075,37.0782680515425,91.4061476057048,26.118011010507,594,0.225575562026385
"Assam","Kamrup Metropolitan",1207.63049607996,293.619965798795,68.1862489922762,6.755952892178,97.4152926679075,37.0782680515425,91.8215987785031,26.0900254277514,391,0.176024357661512
"Assam","Karbi Anglong",10421.1927172296,1066.78260862396,68.1862489922762,6.755952892178,97.4152926679075,37.0782680515425,93.1487070698847,26.0654519399065,1759,0.115073530459627
"Assam","Karimganj",1868.78070592071,227.158570082617,68.1862489922762,6.755952892178,97.4152926679075,37.0782680515425,92.3774573611149,24.5813023518593,297,0.455103267053245
"Assam","Kokrajhar",3175.41529626111,361.297138842363,68.1862489922762,6.755952892178,97.4152926679075,37.0782680515425,90.1306286223955,26.5145082985434,649,0.30569008437843
"Assam","Lakhimpur",2884.51550294085,301.291155642595,68.1862489922762,6.755952892178,97.4152926679075,37.0782680515425,94.1258100261477,27.1689570451387,300,0.399309805611973
"Assam","Marigaon",1545.90147016715,193.55720292964,68.1862489922762,6.755952892178,97.4152926679075,37.0782680515425,92.2819639897205,26.2847692097586,229,0.5185289388002
"Assam","Nagaon",3994.28924051689,673.947710568493,68.1862489922762,6.755952892178,97.4152926679075,37.0782680515425,92.8425181079826,26.2229551733805,969,0.110508827182827
"Assam","Nalbari",1031.6915200118,189.121077841304,68.1862489922762,6.755952892178,97.4152926679075,37.0782680515425,91.3876683956173,26.3679254170109,327,0.362476500395361
"Assam","Sivasagar",2634.76660196572,348.185941986572,68.1862489922762,6.755952892178,97.4152926679075,37.0782680515425,94.8199941223078,27.007253609396,473,0.273104935550498
"Assam","Sonitpur",5198.37981722597,419.124184309296,68.1862489922762,6.755952892178,97.4152926679075,37.0782680515425,92.9392507298976,26.7823656075832,382,0.371871100852695
"Assam","Tinsukia",3794.76653859978,377.891306047979,68.1862489922762,6.755952892178,97.4152926679075,37.0782680515425,95.626500048295,27.578576395905,374,0.333934373609053
"Assam","Udalguri",2040.52212327409,297.938086093358,68.1862489922762,6.755952892178,97.4152926679075,37.0782680515425,92.0372676531911,26.7300670647115,415,0.288867793804009
"Bihar","Araria",2806.05925312153,347.908403472232,68.1862489922762,6.755952892178,97.4152926679075,37.0782680515425,87.3543412623022,26.1994971062454,515,0.291324401933401
"Bihar","Arwal",665.139873273177,175.626850136526,68.1862489922762,6.755952892178,97.4152926679075,37.0782680515425,84.6904035977688,25.1615798231641,270,0.270982361217612
"Bihar","Aurangabad",3276.87674831712,349.15819978933,68.1862489922762,6.755952892178,97.4152926679075,37.0782680515425,84.4121968260519,24.7928714697779,333,0.337773426452579
"Bihar","Banka",3099.60598127588,310.529174790222,68.1862489922762,6.755952892178,97.4152926679075,37.0782680515425,86.8408581430385,24.8536932335017,481,0.403935046990329
"Bihar","Begusarai",1936.23713932757,347.645923200163,68.1862489922762,6.755952892178,97.4152926679075,37.0782680515425,86.1308442340245,25.4952873353338,487,0.201323340776195
"Bihar","Bhagalpur",2542.19386034803,349.300170988423,68.1862489922762,6.755952892178,97.4152926679075,37.0782680515425,87.0843737232521,25.2704848153447,478,0.261830920819291
"Bihar","Bhojpur",2370.52096552462,271.585608247601,68.1862489922762,6.755952892178,97.4152926679075,37.0782680515425,84.5436805494516,25.4690455614389,260,0.403868666261338
"Bihar","Buxar",1707.68865336152,261.042623369915,68.1862489922762,6.755952892178,97.4152926679075,37.0782680515425,84.1018216211783,25.4914357286948,319,0.314916710447273
"Bihar","Darbhanga",2286.25422960858,368.443054089149,68.1862489922762,6.755952892178,97.4152926679075,37.0782680515425,86.0252890830517,26.1137956796366,633,0.211637995139368
"Bihar","Gaya",4962.37094765162,573.405733099654,68.1862489922762,6.755952892178,97.4152926679075,37.0782680515425,84.9359949626029,24.6990758356517,795,0.189659686299573
"Bihar","Gopalganj",2038.69336775595,326.463139696803,68.1862489922762,6.755952892178,97.4152926679075,37.0782680515425,84.3773087589404,26.4427446712125,347,0.240377308453704
"Bihar","Jamui",3047.27180537167,359.580319286538,68.1862489922762,6.755952892178,97.4152926679075,37.0782680515425,86.2952136586326,24.7838008111631,450,0.296161928928703
"Bihar","Jehanabad",930.227973328402,195.835934050225,68.1862489922762,6.755952892178,97.4152926679075,37.0782680515425,85.030135254037,25.1565697472873,415,0.304799669542222
"Bihar","Kaimur (bhabua)",3346.32134461515,340.693939998242,68.1862489922762,6.755952892178,97.4152926679075,37.0782680515425,83.6066668534519,24.9911276313017,553,0.362283612902411
"Bihar","Katihar",3057.33055377562,439.365733127506,68.1862489922762,6.755952892178,97.4152926679075,37.0782680515425,87.6449862195123,25.5454464794065,646,0.199021454306069
"Bihar","Khagaria",1489.05404977575,274.735322235268,68.1862489922762,6.755952892178,97.4152926679075,37.0782680515425,86.6031463307629,25.5121828904656,443,0.247908448355965
"Bihar","Kishanganj",1932.99410111618,356.416772793621,68.1862489922762,6.755952892178,97.4152926679075,37.0782680515425,87.9352826407859,26.2956154510643,544,0.191215954482577
"Bihar","Lakhisarai",1265.67225554446,200.963882190506,68.1862489922762,6.755952892178,97.4152926679075,37.0782680515425,86.1311643855241,25.1554658632175,282,0.393817581365773
"Bihar","Madhepura",1835.49661752014,320.517950480905,68.1862489922762,6.755952892178,97.4152926679075,37.0782680515425,86.8962875802521,25.8258921530904,487,0.224521915373765
"Bihar","Madhubani",3438.34896022129,416.434984852064,68.1862489922762,6.755952892178,97.4152926679075,37.0782680515425,86.2179269049568,26.4056646268547,750,0.249152586613385
"Bihar","Munger",1430.56280609381,229.904044258399,68.1862489922762,6.755952892178,97.4152926679075,37.0782680515425,86.5273503500052,25.209967190076,295,0.340113265678469
"Bihar","Muzaffarpur",3182.25852323724,395.419789371749,68.1862489922762,6.755952892178,97.4152926679075,37.0782680515425,85.3307590766841,26.1511446414733,652,0.255757584450592
"Bihar","Nalanda",2333.35894009732,347.733368982447,68.1862489922762,6.755952892178,97.4152926679075,37.0782680515425,85.4558618313256,25.2208211603762,503,0.242492705507179
"Bihar","Nawada",2481.44274374349,344.187778675286,68.1862489922762,6.755952892178,97.4152926679075,37.0782680515425,85.5941356085625,24.8110374998216,464,0.263222634765017
"Bihar","Pashchim Champaran",5248.0021514142,439.073769187386,68.1862489922762,6.755952892178,97.4152926679075,37.0782680515425,84.3412102331422,27.0792490224061,709,0.342080944986752
"Bihar","Patna",3203.27521330332,527.878491523313,68.1862489922762,6.755952892178,97.4152926679075,37.0782680515425,85.2221590846441,25.4564374030105,667,0.144456198987751
"Bihar","Purba Champaran",3978.98457969408,413.693600022762,68.1862489922762,6.755952892178,97.4152926679075,37.0782680515425,84.92467841958,26.618449738036,649,0.292162529249198
"Bihar","Purnia",3241.01246437706,412.058911260006,68.1862489922762,6.755952892178,97.4152926679075,37.0782680515425,87.407075618445,25.816136933963,639,0.239867795547739
"Bihar","Rohtas",3862.68818470508,384.699196152705,68.1862489922762,6.755952892178,97.4152926679075,37.0782680515425,84.02773516194,24.9794106764839,431,0.327987246991326
"Bihar","Saharsa",1686.4420875375,273.957157166661,68.1862489922762,6.755952892178,97.4152926679075,37.0782680515425,86.5897982353126,25.8165872784979,514,0.282368335835621
"Bihar","Samastipur",2901.51923163025,434.116713979893,68.1862489922762,6.755952892178,97.4152926679075,37.0782680515425,85.9036541173302,25.7769653697453,670,0.193473863190192
"Bihar","Saran (chhapra)",2641.71039803984,309.013941288644,68.1862489922762,6.755952892178,97.4152926679075,37.0782680515425,84.8253110731935,25.9046554565252,334,0.347647349933896
"Bihar","Sheikhpura",638.61615030856,161.072109415784,68.1862489922762,6.755952892178,97.4152926679075,37.0782680515425,85.8289192213426,25.1319427153143,219,0.309320760242213
"Bihar","Sheohar",288.157846639784,93.4170699788505,68.1862489922762,6.755952892178,97.4152926679075,37.0782680515425,85.2899303862692,26.5270418478767,136,0.414942415724826
"Bihar","Sitamarhi",2330.68293424433,356.106278251384,68.1862489922762,6.755952892178,97.4152926679075,37.0782680515425,85.5396928811158,26.5760005558045,585,0.230958419686679
"Bihar","Siwan",2222.85013926458,294.728701128947,68.1862489922762,6.755952892178,97.4152926679075,37.0782680515425,84.3895490376279,26.1607588505052,293,0.321569749987197
"Bihar","Supaul",2397.83885542971,322.82468715095,68.1862489922762,6.755952892178,97.4152926679075,37.0782680515425,86.8000910165164,26.2476973713191,456,0.289132146070044
"Bihar","Vaishali",2004.07327352255,245.562208765606,68.1862489922762,6.755952892178,97.4152926679075,37.0782680515425,85.3700148746263,25.7623140247754,294,0.417638375818595
"Chandigarh","Chandigarh",118.313335057758,52.6232671900619,68.1862489922762,6.755952892178,97.4152926679075,37.0782680515425,76.7814719942728,30.7300574557671,73,0.536893249934272
"Chhattisgarh","Bastar",10345.9071510593,627.017029195414,68.1862489922762,6.755952892178,97.4152926679075,37.0782680515425,81.7702588365398,19.4219625375819,608,0.330689014981774
"Chhattisgarh","Bijapur",8782.43816258926,566.461348577132,68.1862489922762,6.755952892178,97.4152926679075,37.0782680515425,80.7760996591664,18.8432157059746,560,0.343941357248498
"Chhattisgarh","Bilaspur",8337.50992893568,593.399839660655,68.1862489922762,6.755952892178,97.4152926679075,37.0782680515425,81.961668046489,22.3513168140311,700,0.29754412453341
"Chhattisgarh","Dakshin Bastar Dantewada",8873.2835429439,656.269447060466,68.1862489922762,6.755952892178,97.4152926679075,37.0782680515425,81.379639793416,18.4999575770822,617,0.258898689206929
"Chhattisgarh","Dhamtari",4058.07205960379,401.926686164261,68.1862489922762,6.755952892178,97.4152926679075,37.0782680515425,81.8105000441694,20.5561389180731,492,0.315671906952715
"Chhattisgarh","Durg",8599.04352525586,727.873244045231,68.1862489922762,6.755952892178,97.4152926679075,37.0782680515425,81.3538425752397,21.191189061517,961,0.203961642373841
"Chhattisgarh","Janjgir-champa",3867.95109914064,366.546661455686,68.1862489922762,6.755952892178,97.4152926679075,37.0782680515425,82.7379346445643,21.926231713916,444,0.361769793801308
"Chhattisgarh","Jashpur",5804.48325408311,462.872210302091,68.1862489922762,6.755952892178,97.4152926679075,37.0782680515425,83.8663619425888,22.8004287616608,548,0.340448332535013
"Chhattisgarh","Kabeerdham",4219.93788853756,370.320831850634,68.1862489922762,6.755952892178,97.4152926679075,37.0782680515425,81.2230753399795,22.0910305083514,491,0.386687057312875
"Chhattisgarh","Korba",6583.13382835862,459.007357371115,68.1862489922762,6.755952892178,97.4152926679075,37.0782680515425,82.6119111134737,22.5323127780582,569,0.39264787759635
"Chhattisgarh","Koriya",6638.49894464823,502.709134472498,68.1862489922762,6.755952892178,97.4152926679075,37.0782680515425,82.2371898749911,23.4681406574828,646,0.330100514541069
"Chhattisgarh","Mahasamund",4731.7023273077,474.152729758701,68.1862489922762,6.755952892178,97.4152926679075,37.0782680515425,82.6128195636093,21.2070992629781,528,0.264478741006654
"Chhattisgarh","Narayanpur",4272.32200855098,476.629644079817,68.1862489922762,6.755952892178,97.4152926679075,37.0782680515425,81.081192306772,19.6042647644641,478,0.236326129721106
"Chhattisgarh","Raigarh",7084.47870765374,658.486616713133,68.1862489922762,6.755952892178,97.4152926679075,37.0782680515425,83.3060317990777,22.0858225250253,799,0.205316502735858
"Chhattisgarh","Raipur",12443.3838941672,1001.40601838024,68.1862489922762,6.755952892178,97.4152926679075,37.0782680515425,82.1739574590738,21.0712869221797,1066,0.155929386289684
"Chhattisgarh","Rajnandgaon",8054.24945720674,684.621610581928,68.1862489922762,6.755952892178,97.4152926679075,37.0782680515425,80.8192711951024,21.0394061472498,1081,0.215940316135345
"Chhattisgarh","Surguja",15729.3780876675,774.895593006232,68.1862489922762,6.755952892178,97.4152926679075,37.0782680515425,83.2194010180043,23.3577647914051,959,0.329181207352465
"Chhattisgarh","Uttar Bastar Kanker",6800.04804462325,673.996369634021,68.1862489922762,6.755952892178,97.4152926679075,37.0782680515425,81.1291875158322,20.1477210487797,747,0.188107768121057
"Dadara & Nagar Havelli","Dadra & Nagar Haveli",493.413816687563,181.076694142208,68.1862489922762,6.755952892178,97.4152926679075,37.0782680515425,73.0706531479062,20.1950533926041,235,0.189101971355098
"Daman & Diu","Daman",73.5416570044491,46.3277846075341,68.1862489922762,6.755952892178,97.4152926679075,37.0782680515425,72.8523536238228,20.4140646222848,65,0.430586301720012
"Daman & Diu","Diu",35.6587473688131,61.3061983428419,68.1862489922762,6.755952892178,97.4152926679075,37.0782680515425,70.9398682238538,20.7208915063843,1069,0.119224957207201
"Goa","North Goa",1680.33769562382,279.358826417269,68.1862489922762,6.755952892178,97.4152926679075,37.0782680515425,73.9806565564653,15.5525333048694,475,0.270571244423729
"Goa","South Goa",1949.02219373539,307.328480949541,68.1862489922762,6.755952892178,97.4152926679075,37.0782680515425,74.1184361402666,15.1963551856956,555,0.259311053649833
"Gujarat","Ahmadabad",8017.57609413621,975.92135767962,68.1862489922762,6.755952892178,97.4152926679075,37.0782680515425,72.1959519765842,22.7100228490114,3809,0.105784809799419
"Gujarat","Amreli",7910.41298526702,830.577892156512,68.1862489922762,6.755952892178,97.4152926679075,37.0782680515425,71.216450615139,21.383896953593,4132,0.144094792985347
"Gujarat","Anand",2916.85014900205,520.046889808187,68.1862489922762,6.755952892178,97.4152926679075,37.0782680515425,72.7773275373079,22.4479783431395,4924,0.135531103817909
"Gujarat","Banas Kantha",10658.0882367631,796.069679860231,68.1862489922762,6.755952892178,97.4152926679075,37.0782680515425,72.0319357708137,24.2835235849951,878,0.211342582090135
"Gujarat","Bharuch",5279.70260898814,703.588863861598,68.1862489922762,6.755952892178,97.4152926679075,37.0782680515425,72.9251472075717,21.7864025797717,7639,0.13402364053272
"Gujarat","Bhavnagar",8372.00762453121,766.886263108384,68.1862489922762,6.755952892178,97.4152926679075,37.0782680515425,71.8410517647694,21.666564318425,8569,0.17888649802592
"Gujarat","Dohad",3595.58457664854,350.599450444144,68.1862489922762,6.755952892178,97.4152926679075,37.0782680515425,74.1159496051109,22.8572737036213,431,0.367584263610986
"Gujarat","Gandhinagar",2137.11363129516,360.367146787483,68.1862489922762,6.755952892178,97.4152926679075,37.0782680515425,72.6923348443247,23.2550048903357,426,0.206798362691746
"Gujarat","Jamnagar",10901.6696938424,1410.1174984917,68.1862489922762,6.755952892178,97.4152926679075,37.0782680515425,69.9135601697763,22.2521841513097,21200,0.0688957257840594
"Gujarat","Junagadh",8276.63381761559,745.074985417164,68.1862489922762,6.755952892178,97.4152926679075,37.0782680515425,70.5539850355412,21.2214817008608,5637,0.18735428884676
"Gujarat","Kachchh",42128.763581508,3451.93967137599,68.1862489922762,6.755952892178,97.4152926679075,37.0782680515425,69.9599577355328,23.6283968752901,49191,0.0444285544757043
"Gujarat","Kheda",3996.10848671176,486.648658907459,68.1862489922762,6.755952892178,97.4152926679075,37.0782680515425,73.0167333711576,22.8762750775375,512,0.212039158594944
"Gujarat","Mahesana",4414.27786190819,519.577870104215,68.1862489922762,6.755952892178,97.4152926679075,37.0782680515425,72.4619244101001,23.6089742889045,563,0.20547937699666
"Gujarat","Narmada",2824.03070541871,363.140004845933,68.1862489922762,6.755952892178,97.4152926679075,37.0782680515425,73.6475326069157,21.735371569952,369,0.26911077590064
"Gujarat","Navsari",2226.00741431162,315.343657387804,68.1862489922762,6.755952892178,97.4152926679075,37.0782680515425,73.0897288741471,20.8151731389863,448,0.281299052894567
"Gujarat","Panch Mahals",5297.90492191296,519.897334936349,68.1862489922762,6.755952892178,97.4152926679075,37.0782680515425,73.6641420059366,22.9039580876601,570,0.246308183681394
"Gujarat","Patan",5649.29097121755,621.526487231119,68.1862489922762,6.755952892178,97.4152926679075,37.0782680515425,71.7524287666405,23.7693562809245,841,0.183774193337591
"Gujarat","Porbandar",2287.9412247733,454.98233112951,68.1862489922762,6.755952892178,97.4152926679075,37.0782680515425,69.7780489557962,21.6534743642585,5272,0.13888830078718
"Gujarat","Rajkot",11197.5714919724,1139.67002571168,68.1862489922762,6.755952892178,97.4152926679075,37.0782680515425,70.7750397507734,22.2627377791607,1487,0.108336663363665
"Gujarat","Sabar Kantha",7426.14911267911,608.862659034415,68.1862489922762,6.755952892178,97.4152926679075,37.0782680515425,73.163690400409,23.6593461726118,590,0.25172992670845
"Gujarat","Surat",4332.28566390311,605.312842466502,68.1862489922762,6.755952892178,97.4152926679075,37.0782680515425,73.0719987313343,21.2659579999582,4363,0.148582333046032
"Gujarat","Surendranagar",10502.4296152581,888.659979381508,68.1862489922762,6.755952892178,97.4152926679075,37.0782680515425,71.5401132687609,22.7981920785581,1097,0.16711998931782
"Gujarat","Tapi",3154.65014328992,523.036847454533,68.1862489922762,6.755952892178,97.4152926679075,37.0782680515425,73.6311887550029,21.1915728775044,1092,0.14490937890243
"Gujarat","The Dangs",1763.61510189775,245.386555046894,68.1862489922762,6.755952892178,97.4152926679075,37.0782680515425,73.7012879995439,20.8043525428392,282,0.368054511684014
"Gujarat","Vadodara",7517.93934725401,827.35824787117,68.1862489922762,6.755952892178,97.4152926679075,37.0782680515425,73.5319187936872,22.2330813506982,1474,0.138013471581755
"Gujarat","Valsad",3000.07299185436,449.844563910735,68.1862489922762,6.755952892178,97.4152926679075,37.0782680515425,73.11470873724,20.4185192209179,617,0.18630166314272
"Haryana","Ambala",1512.4484822634,310.731423809802,68.1862489922762,6.755952892178,97.4152926679075,37.0782680515425,76.9421959521385,30.3285362604673,422,0.196843058502877
"Haryana","Bhiwani",4624.10993882704,381.158762102789,68.1862489922762,6.755952892178,97.4152926679075,37.0782680515425,75.9676173589873,28.7179427386706,316,0.399968877643549
"Haryana","Faridabad",840.968606517454,168.949641691047,68.1862489922762,6.755952892178,97.4152926679075,37.0782680515425,77.3547652637742,28.3327195438414,176,0.370232975780521
"Haryana","Fatehabad",2404.13433611957,305.773542094728,68.1862489922762,6.755952892178,97.4152926679075,37.0782680515425,75.5791588197717,29.5764279946863,239,0.323123680396423
"Haryana","Gurgaon",1237.24588369501,214.540105328202,68.1862489922762,6.755952892178,97.4152926679075,37.0782680515425,76.9407744126196,28.3680613898475,222,0.337791644346268
"Haryana","Hisar",4200.89698562043,414.011669471218,68.1862489922762,6.755952892178,97.4152926679075,37.0782680515425,75.8156088283959,29.215092247836,331,0.307982990041998
"Haryana","Jhajjar",1937.90332489691,310.440711339513,68.1862489922762,6.755952892178,97.4152926679075,37.0782680515425,76.6494135194346,28.6047512666334,314,0.25268800816861
"Haryana","Jind",2708.68987733702,375.72846391608,68.1862489922762,6.755952892178,97.4152926679075,37.0782680515425,76.3009313418822,29.4353807682916,391,0.241113182145944
"Haryana","Kaithal",2299.99100014342,336.404126912985,68.1862489922762,6.755952892178,97.4152926679075,37.0782680515425,76.4182258666262,29.8140218762309,480,0.255395576378867
"Haryana","Karnal",2639.49836417332,303.434537935699,68.1862489922762,6.755952892178,97.4152926679075,37.0782680515425,76.884748135837,29.6874621389076,326,0.36024771677891
"Haryana","Kurukshetra",1569.71068856928,231.364022795239,68.1862489922762,6.755952892178,97.4152926679075,37.0782680515425,76.7862007204378,30.0450696336051,298,0.368500283025687
"Haryana","Mahendragarh",1929.70318890326,357.928462549393,68.1862489922762,6.755952892178,97.4152926679075,37.0782680515425,76.1431667799532,28.1728887456537,406,0.189281386548607
"Haryana","Mewat",1467.03452496642,312.274273506032,68.1862489922762,6.755952892178,97.4152926679075,37.0782680515425,77.0465610358085,27.981664914673,383,0.189050480394545
"Haryana","Palwal",1323.44183426808,203.037996018933,68.1862489922762,6.755952892178,97.4152926679075,37.0782680515425,77.3183495436532,28.0474972983934,242,0.403422471879952
"Haryana","Panchkula",848.881683948142,175.320769453043,68.1862489922762,6.755952892178,97.4152926679075,37.0782680515425,76.9776260228044,30.6859848309377,226,0.347048595379795
"Haryana","Panipat",1226.58386345161,175.634724984709,68.1862489922762,6.755952892178,97.4152926679075,37.0782680515425,76.9263375835816,29.33258701542,161,0.499673527060001
"Haryana","Rewari",1492.25303244378,257.887910225643,68.1862489922762,6.755952892178,97.4152926679075,37.0782680515425,76.5433436968539,28.2357590764163,315,0.281961860988488
"Haryana","Rohtak",1720.40916604507,242.609716822127,68.1862489922762,6.755952892178,97.4152926679075,37.0782680515425,76.5291796395458,28.9145360638867,178,0.367303638035082
"Haryana","Sirsa",4239.62184761169,408.781228230511,68.1862489922762,6.755952892178,97.4152926679075,37.0782680515425,74.9014650056666,29.6147928654122,354,0.3188270032269
"Haryana","Sonipat",2157.97690771911,261.459487030949,68.1862489922762,6.755952892178,97.4152926679075,37.0782680515425,76.8794952716896,29.061719807786,228,0.396686889690701
"Haryana","Yamunanagar",1737.92388095015,244.71914821371,68.1862489922762,6.755952892178,97.4152926679075,37.0782680515425,77.3049820761122,30.2364381471492,342,0.364673924051262
"Himachal Pradesh","Bilaspur",1168.09942442394,218.121704469524,68.1862489922762,6.755952892178,97.4152926679075,37.0782680515425,76.6719022825254,31.372313421345,227,0.308526099351014
"Himachal Pradesh","Chamba",6474.31792404473,521.145149649539,68.1862489922762,6.755952892178,97.4152926679075,37.0782680515425,76.3542498057134,32.6774538134996,523,0.299561837332297
"Himachal Pradesh","Hamirpur",1123.51051314782,175.037429244101,68.1862489922762,6.755952892178,97.4152926679075,37.0782680515425,76.5257657678933,31.6680412646375,158,0.460813455902183
"Himachal Pradesh","Kangra",5717.85266810092,516.514183083036,68.1862489922762,6.755952892178,97.4152926679075,37.0782680515425,76.317688566014,32.1087502346654,494,0.269326025335387
"Himachal Pradesh","Kinnaur",6465.06011758308,478.526993861707,68.1862489922762,6.755952892178,97.4152926679075,37.0782680515425,78.4126246119595,31.5967944029001,701,0.354788511760928
"Himachal Pradesh","Kullu",5511.36920214147,389.464928232555,68.1862489922762,6.755952892178,97.4152926679075,37.0782680515425,77.4002175511787,31.9044673007981,385,0.456596584988882
"Himachal Pradesh","Lahul & Spiti",13833.9464879373,878.715668515063,68.1862489922762,6.755952892178,97.4152926679075,37.0782680515425,77.6161344048059,32.4805061600847,1110,0.225143397026047
"Himachal Pradesh","Mandi",3954.99574213401,307.359246714559,68.1862489922762,6.755952892178,97.4152926679075,37.0782680515425,76.9929435690799,31.6382845284602,303,0.526093962749102
"Himachal Pradesh","Shimla",5139.73374653316,520.178268415207,68.1862489922762,6.755952892178,97.4152926679075,37.0782680515425,77.6323885582107,31.1970427507505,660,0.238696514057436
"Himachal Pradesh","Sirmaur",2812.6547849354,313.70791609556,68.1862489922762,6.755952892178,97.4152926679075,37.0782680515425,77.4309608097672,30.6675581147893,469,0.359149561157156
"Himachal Pradesh","Solan",1959.14082269103,275.514861515483,68.1862489922762,6.755952892178,97.4152926679075,37.0782680515425,76.9095419214033,31.0429236556114,328,0.324328757319503
"Himachal Pradesh","Una",1540.53246191622,215.697396363673,68.1862489922762,6.755952892178,97.4152926679075,37.0782680515425,76.2100801078047,31.5806593564663,206,0.416093481732521
"Jammu & Kashmir","Anantnag",3144.62722272884,292.672073685097,68.1862489922762,6.755952892178,97.4152926679075,37.0782680515425,75.3574986647162,33.8152034097663,117,0.461335063711436
"Jammu & Kashmir","Badgam",1284.73556125274,144.541493095516,68.1862489922762,6.755952892178,97.4152926679075,37.0782680515425,74.6629687763026,33.8900064693679,63,0.772749150452166
"Jammu & Kashmir","Bandipore",2297.97318837443,302.958440824085,68.1862489922762,6.755952892178,97.4152926679075,37.0782680515425,74.8283178498517,34.5040358842772,104,0.314621724535129
"Jammu & Kashmir","Baramula",1773.37295871658,240.343647066398,68.1862489922762,6.755952892178,97.4152926679075,37.0782680515425,74.4633917151796,34.1627398557434,101,0.385784390877623
"Jammu & Kashmir","Data Not Available",85838.481531159,2266.77656508418,68.1862489922762,6.755952892178,97.4152926679075,37.0782680515425,74.9038318662706,35.5308082041802,4598,0.209929978991197
"Jammu & Kashmir","Doda",2079.53675107016,245.716515356146,68.1862489922762,6.755952892178,97.4152926679075,37.0782680515425,75.6497014902745,33.1008144043821,123,0.432820446304768
"Jammu & Kashmir","Ganderbal",1069.8146577313,187.497456933923,68.1862489922762,6.755952892178,97.4152926679075,37.0782680515425,75.1999640837947,34.2946659245307,68,0.382408594748416
"Jammu & Kashmir","Jammu",2007.70645519703,273.637349139483,68.1862489922762,6.755952892178,97.4152926679075,37.0782680515425,74.7883708398324,32.7625177201649,418,0.336945243696067
"Jammu & Kashmir","Kargil",14890.6657063607,715.961420622894,68.1862489922762,6.755952892178,97.4152926679075,37.0782680515425,76.4844521579774,33.9666012797458,351,0.365043597450793
"Jammu & Kashmir","Kathua",2356.93160070137,224.208228641482,68.1862489922762,6.755952892178,97.4152926679075,37.0782680515425,75.5937990276484,32.5662658879743,230,0.589187803587454
"Jammu & Kashmir","Kishtwar",8614.52311362287,457.526261095913,68.1862489922762,6.755952892178,97.4152926679075,37.0782680515425,76.014616655764,33.5295759481378,231,0.517141095509603
"Jammu & Kashmir","Kulgam",1329.01897478704,203.278023454627,68.1862489922762,6.755952892178,97.4152926679075,37.0782680515425,74.8605748381113,33.5881894273647,83,0.404166382340651
"Jammu & Kashmir","Kupwara",2008.56571908339,207.989887362213,68.1862489922762,6.755952892178,97.4152926679075,37.0782680515425,74.2660544463728,34.5319315458118,100,0.583460514625725
"Jammu & Kashmir","Leh (ladakh)",80274.5845591107,1820.78546068804,68.1862489922762,6.755952892178,97.4152926679075,37.0782680515425,78.4359199736487,34.3388361969949,3180,0.304277876738859
"Jammu & Kashmir","Pulwama",613.177724991007,120.037792636434,68.1862489922762,6.755952892178,97.4152926679075,37.0782680515425,75.0372773519506,33.9329531856742,36,0.534761622814855
"Jammu & Kashmir","Punch",2397.49094134892,233.602889582139,68.1862489922762,6.755952892178,97.4152926679075,37.0782680515425,74.1991619624244,33.7017815188474,100,0.552090682678849
"Jammu & Kashmir","Rajouri",1929.27485724306,190.919199650851,68.1862489922762,6.755952892178,97.4152926679075,37.0782680515425,74.3987750743043,33.3101740887877,93,0.665127276440945
"Jammu & Kashmir","Ramban",1112.09189134425,156.431245344897,68.1862489922762,6.755952892178,97.4152926679075,37.0782680515425,75.1860982714696,33.323005196871,69,0.571088654995011
"Jammu & Kashmir","Reasi",2283.96261597046,254.017810373644,68.1862489922762,6.755952892178,97.4152926679075,37.0782680515425,74.8223044235725,33.2074096107879,116,0.444805879220724
"Jammu & Kashmir","Samba",982.166516063576,159.789652071914,68.1862489922762,6.755952892178,97.4152926679075,37.0782680515425,75.1092932393431,32.5752310053838,217,0.483390026822828
"Jammu & Kashmir","Shupiyan",544.569538796405,112.80262410493,68.1862489922762,6.755952892178,97.4152926679075,37.0782680515425,74.8186878812657,33.7306682892416,39,0.537804960342411
"Jammu & Kashmir","Srinagar",1066.53523584978,143.032650271774,68.1862489922762,6.755952892178,97.4152926679075,37.0782680515425,74.9147612196323,34.175778952445,51,0.65511071149465
"Jammu & Kashmir","Udhampur",2399.31122227379,229.984938759496,68.1862489922762,6.755952892178,97.4152926679075,37.0782680515425,75.3276343479757,32.8940461106796,103,0.570029927666949
"Jharkhand","Bokaro",2795.92604466755,392.596213755388,68.1862489922762,6.755952892178,97.4152926679075,37.0782680515425,85.9880300670797,23.6915362996646,577,0.227951959546666
"Jharkhand","Chatra",3752.59851466427,478.178402664415,68.1862489922762,6.755952892178,97.4152926679075,37.0782680515425,84.8871011127799,24.1735433827147,608,0.206234848728844
"Jharkhand","Deoghar",2436.16595871624,288.475160770703,68.1862489922762,6.755952892178,97.4152926679075,37.0782680515425,86.7411407218041,24.3279742483466,398,0.367874670631658
"Jharkhand","Dhanbad",2129.38309458646,223.765136564476,68.1862489922762,6.755952892178,97.4152926679075,37.0782680515425,86.4719428079435,23.8292601609627,252,0.534415222544014
"Jharkhand","Dumka",3766.71799768797,378.164133967123,68.1862489922762,6.755952892178,97.4152926679075,37.0782680515425,87.2666368525163,24.3196757657453,660,0.33098803714158
"Jharkhand","Garhwa",4102.32245101744,395.420346087236,68.1862489922762,6.755952892178,97.4152926679075,37.0782680515425,83.6993258779939,24.1010488255098,502,0.32970203982357
"Jharkhand","Giridih",5005.03818006826,428.521322804177,68.1862489922762,6.755952892178,97.4152926679075,37.0782680515425,86.1102858949455,24.2963571355463,572,0.342509313300461
"Jharkhand","Godda",2237.87107713714,271.880883840711,68.1862489922762,6.755952892178,97.4152926679075,37.0782680515425,87.3121229314189,24.8595807723537,467,0.380441233625369
"Jharkhand","Gumla",5354.65312389534,521.825541577156,68.1862489922762,6.755952892178,97.4152926679075,37.0782680515425,84.5346756657698,23.1022616415798,617,0.247110125539399
"Jharkhand","Hazaribagh",3601.61358785071,435.282500279137,68.1862489922762,6.755952892178,97.4152926679075,37.0782680515425,85.4132105642698,23.9899794755557,595,0.238871625627476
"Jharkhand","Jamtara",1800.99303270565,304.635914960067,68.1862489922762,6.755952892178,97.4152926679075,37.0782680515425,86.9172313755407,23.9769125637121,442,0.243870736951701
"Jharkhand","Khunti",2706.62832892117,326.484359582116,68.1862489922762,6.755952892178,97.4152926679075,37.0782680515425,85.2745460262916,22.9977127001107,298,0.319090390214006
"Jharkhand","Kodarma",2514.61304678677,406.481509866681,68.1862489922762,6.755952892178,97.4152926679075,37.0782680515425,85.595598302743,24.4370358465208,531,0.191249116859981
"Jharkhand","Latehar",4256.96425031869,466.913434487105,68.1862489922762,6.755952892178,97.4152926679075,37.0782680515425,84.4432259581146,23.7177870497883,540,0.245378850102436
"Jharkhand","Lohardaga",1496.96895316582,228.471618406788,68.1862489922762,6.755952892178,97.4152926679075,37.0782680515425,84.6700222466153,23.4756825836562,278,0.360377892439188
"Jharkhand","Pakur",1813.85699711983,286.418386310461,68.1862489922762,6.755952892178,97.4152926679075,37.0782680515425,87.6641295554219,24.5632610808697,525,0.277850460903185
"Jharkhand","Palamu",4417.34566822055,435.426302193487,68.1862489922762,6.755952892178,97.4152926679075,37.0782680515425,84.1674305203009,24.2024156599275,516,0.29278035334457
"Jharkhand","Pashchimi Singhbhum",7214.12373223053,505.768833055755,68.1862489922762,6.755952892178,97.4152926679075,37.0782680515425,85.5195936894368,22.4197029084105,658,0.354396418365744
"Jharkhand","Purbi Singhbhum",3569.14413784394,407.672757780288,68.1862489922762,6.755952892178,97.4152926679075,37.0782680515425,86.4526603505135,22.5825657181261,524,0.269867489273004
"Jharkhand","Ramgarh",1353.09479182118,291.608266663894,68.1862489922762,6.755952892178,97.4152926679075,37.0782680515425,85.5605678381179,23.6307264695104,369,0.199957833940296
"Jharkhand","Ranchi",4933.36494525801,534.417151867424,68.1862489922762,6.755952892178,97.4152926679075,37.0782680515425,85.3707643031848,23.3313115116918,564,0.217066263852515
"Jharkhand","Sahibganj",2192.70701983602,262.878998937316,68.1862489922762,6.755952892178,97.4152926679075,37.0782680515425,87.6795588202758,25.0080642906222,329,0.398729792266744
"Jharkhand","Saraikela-kharsawan",2647.19128120304,346.643477363347,68.1862489922762,6.755952892178,97.4152926679075,37.0782680515425,85.9515597394939,22.8449346057845,450,0.276840179660925
"Jharkhand","Simdega",3783.36032436997,379.103244089539,68.1862489922762,6.755952892178,97.4152926679075,37.0782680515425,84.566368548066,22.5800730504173,416,0.330805382672855
"Karnataka","Bagalkot",6570.51203172897,628.401158555928,68.1862489922762,6.755952892178,97.4152926679075,37.0782680515425,75.6253755757714,16.2205490457034,651,0.209090896547363
"Karnataka","Bangalore",2182.71876192838,304.184996294713,68.1862489922762,6.755952892178,97.4152926679075,37.0782680515425,77.5959361111295,12.9508349532466,362,0.29643676662561
"Karnataka","Bangalore Rural",2305.9605770715,437.8087718537,68.1862489922762,6.755952892178,97.4152926679075,37.0782680515425,77.575011146874,13.2256680103746,497,0.15117947219584
"Karnataka","Belgaum",13396.4953626581,1040.85605164844,68.1862489922762,6.755952892178,97.4152926679075,37.0782680515425,74.8229819739027,16.119442103655,1114,0.155388802182194
"Karnataka","Bellary",8443.65386113571,746.106701991164,68.1862489922762,6.755952892178,97.4152926679075,37.0782680515425,76.5333572448835,15.1095629724178,735,0.190606805742746
"Karnataka","Bidar",5446.35659939594,515.96021107133,68.1862489922762,6.755952892178,97.4152926679075,37.0782680515425,77.2264537918465,17.9528289553027,526,0.257089011150046
"Karnataka","Bijapur",10508.4361689846,677.867385943774,68.1862489922762,6.755952892178,97.4152926679075,37.0782680515425,75.9530962880076,16.7937240839089,621,0.287381280757959
"Karnataka","Chamrajnagar",5667.85698885425,554.715539568951,68.1862489922762,6.755952892178,97.4152926679075,37.0782680515425,77.0997546903265,11.9568941949078,619,0.231466467228444
"Karnataka","Chikkaballapura",4218.51477949241,432.539280743655,68.1862489922762,6.755952892178,97.4152926679075,37.0782680515425,77.8361893466732,13.578231702316,414,0.283346812578939
"Karnataka","Chikmagalur",7213.42874063223,545.924952393394,68.1862489922762,6.755952892178,97.4152926679075,37.0782680515425,75.6913440990781,13.4542743346176,658,0.304148528821493
"Karnataka","Chitradurga",8449.43897093969,633.793297406065,68.1862489922762,6.755952892178,97.4152926679075,37.0782680515425,76.5164259590366,14.1675025243469,625,0.264327563861311
"Karnataka","Dakshina Kannada",4589.7971119937,479.629253227447,68.1862489922762,6.755952892178,97.4152926679075,37.0782680515425,75.2666509213704,12.8382205881942,743,0.250721758693832
"Karnataka","Davanagere",5946.55411284606,559.027540031756,68.1862489922762,6.755952892178,97.4152926679075,37.0782680515425,75.9547698295047,14.4080320890621,646,0.239116107387405
"Karnataka","Dharwad",4275.51712244331,440.956020094458,68.1862489922762,6.755952892178,97.4152926679075,37.0782680515425,75.1538389617218,15.3893519248641,451,0.276317226957321
"Karnataka","Gadag",4644.26547116919,534.804679163327,68.1862489922762,6.755952892178,97.4152926679075,37.0782680515425,75.6662779992887,15.43106595739,555,0.204049955210634
"Karnataka","Gulbarga",10966.1989264184,801.551257450975,68.1862489922762,6.755952892178,97.4152926679075,37.0782680515425,76.8694881938561,17.260174420047,687,0.2144881899241
"Karnataka","Hassan",6812.59550636851,606.652710114759,68.1862489922762,6.755952892178,97.4152926679075,37.0782680515425,76.109063825192,12.9953556446257,790,0.232617392700714
"Karnataka","Haveri",4810.11726795395,445.587796109162,68.1862489922762,6.755952892178,97.4152926679075,37.0782680515425,75.4177143014959,14.7380840418002,548,0.304438064986828
"Karnataka","Kodagu",4111.3765395657,428.400636691537,68.1862489922762,6.755952892178,97.4152926679075,37.0782680515425,75.8032746001081,12.3243641013145,564,0.281511993477047
"Karnataka","Kolar",3985.82927766911,447.636686413134,68.1862489922762,6.755952892178,97.4152926679075,37.0782680515425,78.217693180758,13.1393279856005,483,0.24996385418967
"Karnataka","Koppal",5568.84906211398,528.536280019047,68.1862489922762,6.755952892178,97.4152926679075,37.0782680515425,76.221865759224,15.5617493213331,540,0.250510367209581
"Karnataka","Mandya",4947.13425903778,509.1077246051,68.1862489922762,6.755952892178,97.4152926679075,37.0782680515425,76.7979567857814,12.6103556427367,648,0.23985246582455
"Karnataka","Mysore",6307.56842009062,622.447118385456,68.1862489922762,6.755952892178,97.4152926679075,37.0782680515425,76.4421191830618,12.2088017985956,800,0.204581761053919
"Karnataka","Raichur",8450.04502498773,526.75105644116,68.1862489922762,6.755952892178,97.4152926679075,37.0782680515425,76.893146779037,16.0894738234454,458,0.382699642453483
"Karnataka","Ramanagara",3516.41350675195,421.797633809338,68.1862489922762,6.755952892178,97.4152926679075,37.0782680515425,77.3364986532053,12.6785471383593,485,0.248371365693329
"Karnataka","Shimoga",8444.51490540088,694.327943198118,68.1862489922762,6.755952892178,97.4152926679075,37.0782680515425,75.2206504010386,14.0435528222502,758,0.220117860590612
"Karnataka","Tumkur",10615.1249779862,1002.88927201523,68.1862489922762,6.755952892178,97.4152926679075,37.0782680515425,76.9476668751748,13.5202276389078,1058,0.132626101674527
"Karnataka","Udupi",3866.55429437099,477.712517728689,68.1862489922762,6.755952892178,97.4152926679075,37.0782680515425,74.8834979696101,13.4666887372978,824,0.212912291460161
"Karnataka","Uttara Kannada",10191.1316716619,915.577919889136,68.1862489922762,6.755952892178,97.4152926679075,37.0782680515425,74.6229174978779,14.7940903064063,1550,0.152771258225188
"Karnataka","Yadgir",5283.80741914698,482.002087948472,68.1862489922762,6.755952892178,97.4152926679075,37.0782680515425,76.9136363175449,16.6264115271885,380,0.285797881552188
"Kerala","Alappuzha",1420.89793568176,283.504640476781,68.1862489922762,6.755952892178,97.4152926679075,37.0782680515425,76.4495797393854,9.42355795816615,362,0.222153113069911
"Kerala","Ernakulam",2410.66139188283,278.486438168919,68.1862489922762,6.755952892178,97.4152926679075,37.0782680515425,76.4726817122673,10.057657873254,356,0.39060515923903
"Kerala","Idukki",5007.07827555725,536.873839604294,68.1862489922762,6.755952892178,97.4152926679075,37.0782680515425,77.027463327843,9.88219787270892,665,0.218298001501855
"Kerala","Kannur",2948.14433377862,324.335035869056,68.1862489922762,6.755952892178,97.4152926679075,37.0782680515425,75.5262377374258,12.0006331093738,629,0.352185016396219
"Kerala","Kasaragod",1964.521674427,318.745313206486,68.1862489922762,6.755952892178,97.4152926679075,37.0782680515425,75.1536815693521,12.4628174936366,548,0.24298478119254
"Kerala","Kollam",2487.16908240775,317.689628358965,68.1862489922762,6.755952892178,97.4152926679075,37.0782680515425,76.8748698173652,8.96099051183568,457,0.309677107052692
"Kerala","Kottayam",2210.69585251583,270.665826029625,68.1862489922762,6.755952892178,97.4152926679075,37.0782680515425,76.6509193508322,9.63706545016174,331,0.379203213559449
"Kerala","Kozhikode",2331.50620684415,266.804966190256,68.1862489922762,6.755952892178,97.4152926679075,37.0782680515425,75.834361239127,11.4848010430673,404,0.411584131008094
"Kerala","Malappuram",3564.6771545059,362.282481116151,68.1862489922762,6.755952892178,97.4152926679075,37.0782680515425,76.1557811483011,11.1320660949634,391,0.341299301989108
"Kerala","Palakkad",4487.83118537089,495.148761297176,68.1862489922762,6.755952892178,97.4152926679075,37.0782680515425,76.5585836452989,10.7946411630586,591,0.230024969757613
"Kerala","Pathanamthitta",2644.34803903796,349.260671601227,68.1862489922762,6.755952892178,97.4152926679075,37.0782680515425,76.928967235944,9.28406064995431,469,0.272413803031131
"Kerala","Thiruvananthapuram",2179.30469593387,258.488971041441,68.1862489922762,6.755952892178,97.4152926679075,37.0782680515425,77.0150003196674,8.60845768986096,459,0.409867783489987
"Kerala","Thrissur",3026.66558705696,391.735375513493,68.1862489922762,6.755952892178,97.4152926679075,37.0782680515425,76.3161502935719,10.4711779776241,629,0.247849883257107
"Kerala","Wayanad",2129.79468608446,260.683548124063,68.1862489922762,6.755952892178,97.4152926679075,37.0782680515425,76.0981332619345,11.7112463759042,285,0.393840483730498
"Lakshadweep","Lakshadweep",662.987839785914,398.709789977808,68.1862489922762,6.755952892178,97.4152926679075,37.0782680515425,72.7350569518269,11.0910618546707,2901,0.0524084876940953
"Madhya Pradesh","Alirajpur",3340.82820626578,432.496629321278,68.1862489922762,6.755952892178,97.4152926679075,37.0782680515425,74.3645232801043,22.3138410729755,887,0.224439118069077
"Madhya Pradesh","Anuppur",3782.21886027016,508.123644412818,68.1862489922762,6.755952892178,97.4152926679075,37.0782680515425,81.6839936460456,23.0567413442945,622,0.184084707306039
"Madhya Pradesh","Ashoknagar",4726.41676039806,395.267694766934,68.1862489922762,6.755952892178,97.4152926679075,37.0782680515425,77.8751977873772,24.6093668473725,489,0.380153712361037
"Madhya Pradesh","Balaghat",9241.52331294371,651.875691010631,68.1862489922762,6.755952892178,97.4152926679075,37.0782680515425,80.3606110351892,21.88076281883,1124,0.273290072064077
"Madhya Pradesh","Barwani",5436.12757626417,467.42965336705,68.1862489922762,6.755952892178,97.4152926679075,37.0782680515425,75.0213162333814,21.7873731984054,1138,0.312656155844885
"Madhya Pradesh","Betul",10065.1631863156,685.422287286219,68.1862489922762,6.755952892178,97.4152926679075,37.0782680515425,77.8710400162519,21.8779627992925,1106,0.269224290245356
"Madhya Pradesh","Bhind",4467.61072913166,518.609076963854,68.1862489922762,6.755952892178,97.4152926679075,37.0782680515425,78.7226470101513,26.4210802844672,754,0.208739655207249
"Madhya Pradesh","Bhopal",2723.73695746069,335.398894815768,68.1862489922762,6.755952892178,97.4152926679075,37.0782680515425,77.3960757327971,23.477960060923,459,0.304264842699368
"Madhya Pradesh","Burhanpur",3201.13879805311,306.545056342413,68.1862489922762,6.755952892178,97.4152926679075,37.0782680515425,76.370196175689,21.372050812787,394,0.428080786459749
"Madhya Pradesh","Chhatarpur",8674.9014254176,897.647756774344,68.1862489922762,6.755952892178,97.4152926679075,37.0782680515425,79.6661442605279,24.7966516029607,1201,0.135289008110282
"Madhya Pradesh","Chhindwara",11804.0890303316,723.92593678023,68.1862489922762,6.755952892178,97.4152926679075,37.0782680515425,78.8554903147263,22.1213785197081,1202,0.283044074159365
"Madhya Pradesh","Damoh",7351.51948029521,567.39553792991,68.1862489922762,6.755952892178,97.4152926679075,37.0782680515425,79.5273068705662,23.812785130881,1006,0.286955890481603
"Madhya Pradesh","Datia",1886.22408491153,359.12975282888,68.1862489922762,6.755952892178,97.4152926679075,37.0782680515425,78.5687577163989,25.8504579226141,471,0.183780901177852
"Madhya Pradesh","Dewas",6965.45442474957,737.931294084774,68.1862489922762,6.755952892178,97.4152926679075,37.0782680515425,76.4564025778697,22.7450898795171,2334,0.160741294870875
"Madhya Pradesh","Dhar",8151.08099701588,564.55589848661,68.1862489922762,6.755952892178,97.4152926679075,37.0782680515425,75.1041389850194,22.4974287364752,735,0.321374322571074
"Madhya Pradesh","Dindori",5703.25145485169,552.309991145404,68.1862489922762,6.755952892178,97.4152926679075,37.0782680515425,81.0561008249436,22.888939471053,663,0.234945204400179
"Madhya Pradesh","East Nimar",7447.61801542757,572.615669600098,68.1862489922762,6.755952892178,97.4152926679075,37.0782680515425,76.5714391534716,21.9361857961392,1091,0.285430777969656
"Madhya Pradesh","Guna",6302.27501649407,622.20149280252,68.1862489922762,6.755952892178,97.4152926679075,37.0782680515425,77.2008203289391,24.554642092184,763,0.204571494243494
"Madhya Pradesh","Gwalior",5219.00545349065,562.780516055054,68.1862489922762,6.755952892178,97.4152926679075,37.0782680515425,78.2195721577489,26.0113776490054,701,0.20707110828544
"Madhya Pradesh","Harda",3317.43877750324,301.242613928563,68.1862489922762,6.755952892178,97.4152926679075,37.0782680515425,77.1211025210601,22.2341777930955,675,0.459388338038012
"Madhya Pradesh","Hoshangabad",6711.26173983039,537.890241884606,68.1862489922762,6.755952892178,97.4152926679075,37.0782680515425,77.9889319211819,22.5882848109416,1189,0.291492046591911
"Madhya Pradesh","Indore",3914.98056152493,445.796886263981,68.1862489922762,6.755952892178,97.4152926679075,37.0782680515425,75.7821759103413,22.7130583973429,1057,0.247551414697855
"Madhya Pradesh","Jabalpur",5107.29177136162,497.179591244652,68.1862489922762,6.755952892178,97.4152926679075,37.0782680515425,79.9765028248113,23.2325633858076,709,0.259641402999839
"Madhya Pradesh","Jhabua",3436.40302075851,327.893816158459,68.1862489922762,6.755952892178,97.4152926679075,37.0782680515425,74.6718095958419,22.8905895867208,387,0.401649752441971
"Madhya Pradesh","Katni",5062.20826230671,518.299481075379,68.1862489922762,6.755952892178,97.4152926679075,37.0782680515425,80.4014635231515,23.7541997537176,668,0.23680361300762
"Madhya Pradesh","Mandla",7545.99070683587,641.591378327264,68.1862489922762,6.755952892178,97.4152926679075,37.0782680515425,80.5134423195041,22.6404127574777,823,0.230361072308885
"Madhya Pradesh","Mandsaur",5640.95024323762,551.443182625904,68.1862489922762,6.755952892178,97.4152926679075,37.0782680515425,75.4055425129931,24.2113379956329,639,0.233109830726303
"Madhya Pradesh","Morena",4985.11905871807,584.322807196877,68.1862489922762,6.755952892178,97.4152926679075,37.0782680515425,77.868816959141,26.4137812929757,682,0.183476194186109
"Madhya Pradesh","Narsimhapur",5143.87985388554,490.000627306971,68.1862489922762,6.755952892178,97.4152926679075,37.0782680515425,79.0872804874493,22.9345658419533,978,0.269220054700587
"Madhya Pradesh","Neemuch",4161.37326372037,612.248470536332,68.1862489922762,6.755952892178,97.4152926679075,37.0782680515425,75.1446251927248,24.6056425784352,751,0.139505432164588
"Madhya Pradesh","Panna",7096.708372403,672.649609164844,68.1862489922762,6.755952892178,97.4152926679075,37.0782680515425,80.1917444404121,24.4204611810457,960,0.197101093910875
"Madhya Pradesh","Raisen",8498.14651521561,698.270796801343,68.1862489922762,6.755952892178,97.4152926679075,37.0782680515425,78.1183666118599,23.2170696320881,1472,0.21902128360422
"Madhya Pradesh","Rajgarh",6126.6319682542,442.353219302312,68.1862489922762,6.755952892178,97.4152926679075,37.0782680515425,76.7346444205357,23.8611831437134,719,0.393453372444107
"Madhya Pradesh","Ratlam",4825.62340558481,512.517541531629,68.1862489922762,6.755952892178,97.4152926679075,37.0782680515425,75.0900872118252,23.5010023123137,717,0.230858474669277
"Madhya Pradesh","Rewa",6308.30752585427,568.796631945114,68.1862489922762,6.755952892178,97.4152926679075,37.0782680515425,81.5896230655755,24.7551591832208,788,0.245024035617036
"Madhya Pradesh","Sagar",10253.1229120205,886.34752314778,68.1862489922762,6.755952892178,97.4152926679075,37.0782680515425,78.7588728333003,23.848030330631,1705,0.164005327889336
"Madhya Pradesh","Satna",7497.64902844854,795.987281829542,68.1862489922762,6.755952892178,97.4152926679075,37.0782680515425,80.8333371890702,24.5327229214301,1081,0.14870402146225
"Madhya Pradesh","Sehore",6568.62561528788,781.579069666378,68.1862489922762,6.755952892178,97.4152926679075,37.0782680515425,77.1285847759052,22.9911851291272,1874,0.135125879062799
"Madhya Pradesh","Seoni",8752.71679484862,660.309443423174,68.1862489922762,6.755952892178,97.4152926679075,37.0782680515425,79.6902374039463,22.315650461826,779,0.252265420788311
"Madhya Pradesh","Shahdol",5685.29999187056,581.1652933409,68.1862489922762,6.755952892178,97.4152926679075,37.0782680515425,81.4727681917591,23.6290004957488,764,0.211526073737849
"Madhya Pradesh","Shajapur",6299.73065177407,681.400662749956,68.1862489922762,6.755952892178,97.4152926679075,37.0782680515425,76.3456801029053,23.5796817668308,1324,0.170500926038217
"Madhya Pradesh","Sheopur",6544.05569963266,515.985477896147,68.1862489922762,6.755952892178,97.4152926679075,37.0782680515425,77.0104340346031,25.7524664417566,589,0.308874384875976
"Madhya Pradesh","Shivpuri",10472.5530908461,725.788869802942,68.1862489922762,6.755952892178,97.4152926679075,37.0782680515425,77.812507579824,25.3626742657363,952,0.249828411730066
"Madhya Pradesh","Sidhi",4775.05025349504,483.535349545648,68.1862489922762,6.755952892178,97.4152926679075,37.0782680515425,81.8352834166198,24.2197841104163,562,0.256644139745194
"Madhya Pradesh","Singrauli",5779.43259533852,468.306721480204,68.1862489922762,6.755952892178,97.4152926679075,37.0782680515425,82.4207286715183,24.2166695896988,524,0.331157263167952
"Madhya Pradesh","Tikamgarh",5066.90701606554,714.014565465902,68.1862489922762,6.755952892178,97.4152926679075,37.0782680515425,78.9466627703066,24.9883043640992,868,0.124893160582706
"Madhya Pradesh","Ujjain",6092.14710451162,656.765604918953,68.1862489922762,6.755952892178,97.4152926679075,37.0782680515425,75.6683918603864,23.3316891829939,1275,0.177484096661644
"Madhya Pradesh","Umaria",4588.19744423296,439.15775400705,68.1862489922762,6.755952892178,97.4152926679075,37.0782680515425,80.9718934329539,23.564403651917,665,0.298958463021024
"Madhya Pradesh","Vidisha",7306.67135528566,589.047614623871,68.1862489922762,6.755952892178,97.4152926679075,37.0782680515425,77.8133595893437,23.8927085058091,1052,0.264623637257364
"Madhya Pradesh","West Nimar",8057.57958576606,635.779733262716,68.1862489922762,6.755952892178,97.4152926679075,37.0782680515425,75.7745075075929,21.920478814919,1196,0.250496180476318
"Maharashtra","Ahmadnagar",17053.9910019205,1263.57296563238,68.1862489922762,6.755952892178,97.4152926679075,37.0782680515425,74.6769016086567,19.2034946895738,1475,0.134225565539814
"Maharashtra","Akola",5406.83692522131,560.208608588013,68.1862489922762,6.755952892178,97.4152926679075,37.0782680515425,77.0532859696497,20.7489077376733,754,0.216497845424923
"Maharashtra","Amravati",12207.5944195619,874.702433079668,68.1862489922762,6.755952892178,97.4152926679075,37.0782680515425,77.5720157121549,21.18784024737,1078,0.200502266783204
"Maharashtra","Aurangabad",10115.8273872594,730.688309350659,68.1862489922762,6.755952892178,97.4152926679075,37.0782680515425,75.2734502420964,20.0215151635272,847,0.238093180417936
"Maharashtra","Bhandara",3858.94184862417,451.077229117945,68.1862489922762,6.755952892178,97.4152926679075,37.0782680515425,79.7508959960479,21.1292108942649,542,0.238328670429716
"Maharashtra","Bid",11045.3266868157,883.910222802028,68.1862489922762,6.755952892178,97.4152926679075,37.0782680515425,75.8696790320334,18.9304150539745,1087,0.177652824226552
"Maharashtra","Buldana",9750.9965134624,709.803749047828,68.1862489922762,6.755952892178,97.4152926679075,37.0782680515425,76.408265540342,20.5110566451808,968,0.243210481432518
"Maharashtra","Chandrapur",11303.5885954538,642.026240306333,68.1862489922762,6.755952892178,97.4152926679075,37.0782680515425,79.4437713324003,20.1179276329161,594,0.34460426608783
"Maharashtra","Dhule",7185.09639310462,581.288335959869,68.1862489922762,6.755952892178,97.4152926679075,37.0782680515425,74.6010954590785,21.1098765838403,986,0.267214023147026
"Maharashtra","Garhchiroli",14447.8126551895,897.408087872472,68.1862489922762,6.755952892178,97.4152926679075,37.0782680515425,80.2410825227043,19.7849175933389,796,0.225440535288797
"Maharashtra","Gondiya",5471.79310053846,481.98943979381,68.1862489922762,6.755952892178,97.4152926679075,37.0782680515425,80.2053523584194,21.1489712391824,899,0.295981444431187
"Maharashtra","Hingoli",4690.29229630129,477.859240320847,68.1862489922762,6.755952892178,97.4152926679075,37.0782680515425,77.118899976307,19.6151571225892,676,0.258112950857159
"Maharashtra","Jalgaon",11771.4339919388,732.318359573714,68.1862489922762,6.755952892178,97.4152926679075,37.0782680515425,75.4899047847171,20.9355152289444,961,0.275828661022578
"Maharashtra","Jalna",7770.24486600137,688.01355386921,68.1862489922762,6.755952892178,97.4152926679075,37.0782680515425,75.9818855933203,19.818194792796,850,0.206276892963598
"Maharashtra","Kolhapur",7670.25574082279,906.21250302962,68.1862489922762,6.755952892178,97.4152926679075,37.0782680515425,74.159751874747,16.4697251783165,1281,0.117370676752134
"Maharashtra","Latur",6751.0429157627,533.606978920596,68.1862489922762,6.755952892178,97.4152926679075,37.0782680515425,76.7750846365849,18.360522948141,535,0.297946117684365
"Maharashtra","Mumbai",149.263012532704,64.2286027555931,68.1862489922762,6.755952892178,97.4152926679075,37.0782680515425,72.849622870786,18.9596278262386,78,0.454679232146274
"Maharashtra","Mumbai Suburban",452.63141894187,108.339607273763,68.1862489922762,6.755952892178,97.4152926679075,37.0782680515425,72.8850695711787,19.1295802908444,139,0.484596247553967
"Maharashtra","Nagpur",9924.07397427685,582.928007670514,68.1862489922762,6.755952892178,97.4152926679075,37.0782680515425,79.0875738810205,21.1762846344326,714,0.36700333651467
"Maharashtra","Nanded",10595.86770493,1012.91863566955,68.1862489922762,6.755952892178,97.4152926679075,37.0782680515425,77.6240084873413,19.1159324668612,1040,0.129776861955567
"Maharashtra","Nandurbar",5901.39308347066,663.505694289972,68.1862489922762,6.755952892178,97.4152926679075,37.0782680515425,74.2186989967652,21.5496491711415,1875,0.168451583789929
"Maharashtra","Nashik",15557.6667195516,829.092828917446,68.1862489922762,6.755952892178,97.4152926679075,37.0782680515425,74.0714197005704,20.2592156758313,1009,0.28441206139215
"Maharashtra","Osmanabad",7565.01395946726,738.900571684448,68.1862489922762,6.755952892178,97.4152926679075,37.0782680515425,76.0387884395914,18.1890666914186,956,0.174119572671069
"Maharashtra","Parbhani",6337.89031789207,543.202297189118,68.1862489922762,6.755952892178,97.4152926679075,37.0782680515425,76.6827641575403,19.2857340976104,689,0.269917714143897
"Maharashtra","Pune",15655.6946930334,946.081582179321,68.1862489922762,6.755952892178,97.4152926679075,37.0782680515425,74.0690818445038,18.5708849763273,1220,0.21979865550165
"Maharashtra","Raigarh",7156.28460288525,626.709819265234,68.1862489922762,6.755952892178,97.4152926679075,37.0782680515425,73.2148367785774,18.5171944928465,854,0.22896255854532
"Maharashtra","Ratnagiri",8261.20961627744,704.863721828637,68.1862489922762,6.755952892178,97.4152926679075,37.0782680515425,73.4568331974296,17.2737274926608,1094,0.208950391152047
"Maharashtra","Sangli",8562.87212381562,895.537832049448,68.1862489922762,6.755952892178,97.4152926679075,37.0782680515425,74.7699013437465,17.1120178691237,994,0.13417186226363
"Maharashtra","Satara",10506.7880799075,617.142350331845,68.1862489922762,6.755952892178,97.4152926679075,37.0782680515425,74.1737890633452,17.668588175792,780,0.346664313372326
"Maharashtra","Sindhudurg",5071.65392294031,608.115991571623,68.1862489922762,6.755952892178,97.4152926679075,37.0782680515425,73.7398756205926,16.1343153199037,899,0.172340213409798
"Maharashtra","Solapur",14904.2572115132,1189.20608717983,68.1862489922762,6.755952892178,97.4152926679075,37.0782680515425,75.4829007567692,17.7897555377406,1474,0.132435969068666
"Maharashtra","Thane",9521.90830338475,620.921268634979,68.1862489922762,6.755952892178,97.4152926679075,37.0782680515425,73.1508997088885,19.5991546955066,893,0.310356457893892
"Maharashtra","Wardha",6309.40210766803,466.587632909482,68.1862489922762,6.755952892178,97.4152926679075,37.0782680515425,78.5876390415899,20.7957715723679,615,0.364193024718285
"Maharashtra","Washim",5196.10104941735,571.935950121052,68.1862489922762,6.755952892178,97.4152926679075,37.0782680515425,77.2190422373918,20.2375596533329,747,0.199614764483164
"Maharashtra","Yavatmal",13530.70738918,899.612728815168,68.1862489922762,6.755952892178,97.4152926679075,37.0782680515425,78.1622272389586,20.0839412964978,1147,0.210096676687456
"Manipur","Bishnupur",480.389479628524,161.602441021749,68.1862489922762,6.755952892178,97.4152926679075,37.0782680515425,93.8010934702261,24.5352206866,161,0.231157249828542
"Manipur","Chandel",3183.72256901708,325.015875725726,68.1862489922762,6.755952892178,97.4152926679075,37.0782680515425,94.0931839653174,24.2354916369753,367,0.378735426132793
"Manipur","Churachandpur",4578.52969390056,400.884226878269,68.1862489922762,6.755952892178,97.4152926679075,37.0782680515425,93.4268760110357,24.289771766768,435,0.358012311257609
"Manipur","Imphal East",920.554772658106,331.339583875486,68.1862489922762,6.755952892178,97.4152926679075,37.0782680515425,93.9421205390664,24.8165532290279,398,0.105368998689495
"Manipur","Imphal West",300.500516094671,131.922077054124,68.1862489922762,6.755952892178,97.4152926679075,37.0782680515425,93.154397763848,24.6815995096484,244,0.216980210064435
"Manipur","Senapati",3482.62662549447,664.295812006398,68.1862489922762,6.755952892178,97.4152926679075,37.0782680515425,94.0401500616225,25.1965068961194,804,0.0991730685359415
"Manipur","Tamenglong",4193.35404012203,423.100210079871,68.1862489922762,6.755952892178,97.4152926679075,37.0782680515425,93.5272595389724,24.9472726017582,568,0.294364147264491
"Manipur","Thoubal",713.466327276329,220.919373936849,68.1862489922762,6.755952892178,97.4152926679075,37.0782680515425,93.9716115641483,24.5308256393143,282,0.183702783724728
"Manipur","Ukhrul",4455.63728154906,377.839811787493,68.1862489922762,6.755952892178,97.4152926679075,37.0782680515425,94.4339846887268,25.0202515308263,487,0.392196994014739
"Meghalaya","East Garo Hills",2930.86673856823,372.366789055506,68.1862489922762,6.755952892178,97.4152926679075,37.0782680515425,90.6342213161097,25.73516920749,336,0.265622008701175
"Meghalaya","East Khasi Hills",2804.70612965925,282.624429334706,68.1862489922762,6.755952892178,97.4152926679075,37.0782680515425,91.8006510593449,25.3804038298693,335,0.441243002135676
"Meghalaya","Jaintia Hills",3796.93081983161,345.375482165609,68.1862489922762,6.755952892178,97.4152926679075,37.0782680515425,92.3810762617589,25.3683533177882,509,0.399999584242052
"Meghalaya","Ri Bhoi",2420.15089072059,369.008806939358,68.1862489922762,6.755952892178,97.4152926679075,37.0782680515425,91.8910240541253,25.8704371993879,441,0.223346342740162
"Meghalaya","South Garo Hills",1922.51345674537,237.482903551356,68.1862489922762,6.755952892178,97.4152926679075,37.0782680515425,90.5852966128907,25.3016201662663,211,0.428365565164222
"Meghalaya","West Garo Hills",3345.68354095432,295.869434177658,68.1862489922762,6.755952892178,97.4152926679075,37.0782680515425,90.1448135543037,25.5850496321354,247,0.480280021626078
"Meghalaya","West Khasi Hills",5227.3146928341,412.183400515448,68.1862489922762,6.755952892178,97.4152926679075,37.0782680515425,91.2607819162198,25.526494161012,478,0.386640651951909
"Mizoram","Aizawl",3731.74583212262,430.840561064709,68.1862489922762,6.755952892178,97.4152926679075,37.0782680515425,92.8890546890183,23.8106196595476,646,0.25263222957213
"Mizoram","Champhai",3350.64277299757,309.451410118442,68.1862489922762,6.755952892178,97.4152926679075,37.0782680515425,93.2400165489744,23.529404271062,228,0.439696552175173
"Mizoram","Kolasib",1347.05439550576,228.27162357646,68.1862489922762,6.755952892178,97.4152926679075,37.0782680515425,92.7269359160005,24.1979720421483,797,0.324856186570743
"Mizoram","Lawangtlai",1996.82929498989,311.193974125659,68.1862489922762,6.755952892178,97.4152926679075,37.0782680515425,92.7131972494198,22.3836003111253,317,0.259112548486976
"Mizoram","Lunglei",4516.52666393656,404.938575613506,68.1862489922762,6.755952892178,97.4152926679075,37.0782680515425,92.7225822571743,22.9719224887202,563,0.346127528037163
"Mizoram","Mamit",3034.32442251838,376.922829412387,68.1862489922762,6.755952892178,97.4152926679075,37.0782680515425,92.4671841739397,23.7540130119945,731,0.268390408648221
"Mizoram","Saiha",1972.93647438747,294.759633282016,68.1862489922762,6.755952892178,97.4152926679075,37.0782680515425,93.0121744953873,22.3766977902919,314,0.285355962009023
"Mizoram","Serchhip",1151.46542703159,228.456006159168,68.1862489922762,6.755952892178,97.4152926679075,37.0782680515425,92.9592087726421,23.2659557882721,214,0.277239818759621
"NCT of Delhi","Central",15.101087938055,23.8576167876305,68.1862489922762,6.755952892178,97.4152926679075,37.0782680515425,77.2196750529063,28.6431174920456,37,0.33339876265828
"NCT of Delhi","East",65.266041076968,34.2060610388624,68.1862489922762,6.755952892178,97.4152926679075,37.0782680515425,77.2980234524868,28.6292477046883,57,0.700956393349356
"NCT of Delhi","New Delhi",38.5016133095799,25.3761581367453,68.1862489922762,6.755952892178,97.4152926679075,37.0782680515425,77.2139706379733,28.6108832955442,30,0.751340929521336
"NCT of Delhi","North",69.078177613031,48.4801840164888,68.1862489922762,6.755952892178,97.4152926679075,37.0782680515425,77.2115367150327,28.7105633703873,58,0.369336489106949
"NCT of Delhi","North East",62.5246985825973,46.5479860967381,68.1862489922762,6.755952892178,97.4152926679075,37.0782680515425,77.2739762786786,28.7076916694322,65,0.362626617453736
"NCT of Delhi","North West",443.090785811629,105.656427270173,68.1862489922762,6.755952892178,97.4152926679075,37.0782680515425,77.0868666195134,28.768778506398,103,0.498781963663667
"NCT of Delhi","South",253.768459996967,75.9906738758509,68.1862489922762,6.755952892178,97.4152926679075,37.0782680515425,77.2273859777654,28.5013612863289,95,0.552238799889472
"NCT of Delhi","South West",434.516890373558,117.798082013406,68.1862489922762,6.755952892178,97.4152926679075,37.0782680515425,77.0273634460578,28.5723773065566,123,0.393495788171819
"NCT of Delhi","West",122.118188107176,57.7105680993574,68.1862489922762,6.755952892178,97.4152926679075,37.0782680515425,77.0657001244424,28.6553205352627,66,0.460765036706008
"Nagaland","Dimapur",811.29045624364,185.996530575397,68.1862489922762,6.755952892178,97.4152926679075,37.0782680515425,93.7850839267351,25.7785248555431,301,0.29469756300803
"Nagaland","Kiphire",1148.79622772275,188.886357745374,68.1862489922762,6.755952892178,97.4152926679075,37.0782680515425,94.825142482506,25.8448555040134,249,0.404624038382542
"Nagaland","Kohima",1477.5898191694,201.294775908252,68.1862489922762,6.755952892178,97.4152926679075,37.0782680515425,94.1290759378352,25.781038711434,304,0.458246066814334
"Nagaland","Longleng",564.444372668948,154.944882780396,68.1862489922762,6.755952892178,97.4152926679075,37.0782680515425,94.8003091991557,26.5554010519025,230,0.295444926222918
"Nagaland","Mokokchung",1605.88483950724,246.872767848512,68.1862489922762,6.755952892178,97.4152926679075,37.0782680515425,94.5317561544475,26.4719652514448,325,0.331114263747082
"Nagaland","Mon",1841.43374873521,229.339669409896,68.1862489922762,6.755952892178,97.4152926679075,37.0782680515425,95.0216550642866,26.7311799990457,309,0.43995433179354
"Nagaland","Peren",1742.35570782057,237.143606794803,68.1862489922762,6.755952892178,97.4152926679075,37.0782680515425,93.6235216174247,25.4995701202448,356,0.389335356286333
"Nagaland","Phek",2051.60489506571,275.200683302646,68.1862489922762,6.755952892178,97.4152926679075,37.0782680515425,94.5255214559228,25.6608305000004,313,0.340411775580784
"Nagaland","Tuensang",2469.17813229504,276.231835480619,68.1862489922762,6.755952892178,97.4152926679075,37.0782680515425,94.9057524137731,26.2001918445896,432,0.406644429795811
"Nagaland","Wokha",1626.23249621201,232.919208146403,68.1862489922762,6.755952892178,97.4152926679075,37.0782680515425,94.1926288941738,26.1848720349211,302,0.376688090130179
"Nagaland","Zunheboto",1260.03700486502,204.212350997923,68.1862489922762,6.755952892178,97.4152926679075,37.0782680515425,94.5252815157256,26.0316336249236,227,0.379689994941247
"Odisha","Anugul",6357.96241131073,564.369106677724,68.1862489922762,6.755952892178,97.4152926679075,37.0782680515425,84.9089593849474,20.986365568182,610,0.250842635310299
"Odisha","Balangir",6563.38197348784,529.206496610445,68.1862489922762,6.755952892178,97.4152926679075,37.0782680515425,83.17388259924,20.5904622433142,680,0.294501295740091
"Odisha","Baleshwar",3876.03400920094,527.903011377917,68.1862489922762,6.755952892178,97.4152926679075,37.0782680515425,86.9170445749282,21.4897786114199,825,0.174778965393889
"Odisha","Bargarh",5794.13765344341,554.008405471867,68.1862489922762,6.755952892178,97.4152926679075,37.0782680515425,83.3534407075151,21.2202245249977,593,0.237228009488655
"Odisha","Baudh",3116.4165833455,396.370819633881,68.1862489922762,6.755952892178,97.4152926679075,37.0782680515425,84.177644896041,20.6468148073169,392,0.249265412662532
"Odisha","Bhadrak",2479.36045335583,304.904387562025,68.1862489922762,6.755952892178,97.4152926679075,37.0782680515425,86.6254019966588,20.9858586642708,484,0.335136852062617
"Odisha","Cuttack",3940.54529902203,614.99950361363,68.1862489922762,6.755952892178,97.4152926679075,37.0782680515425,85.7057445102065,20.4495929055996,806,0.130923213922937
"Odisha","Debagarh",2809.39610132563,359.473511846925,68.1862489922762,6.755952892178,97.4152926679075,37.0782680515425,84.8037143617099,21.465935617536,408,0.273205256174524
"Odisha","Dhenkanal",4469.9504713454,392.793952423958,68.1862489922762,6.755952892178,97.4152926679075,37.0782680515425,85.5262128156757,20.8261747958936,453,0.364068403861115
"Odisha","Gajapati",4057.29339421949,432.026148470077,68.1862489922762,6.755952892178,97.4152926679075,37.0782680515425,84.160680162015,19.1733827082964,551,0.273165728202518
"Odisha","Ganjam",8477.57857543857,604.941060677716,68.1862489922762,6.755952892178,97.4152926679075,37.0782680515425,84.671068289639,19.6269331259495,631,0.291108952052189
"Odisha","Jagatsinghapur",1738.40980499316,245.172458134534,68.1862489922762,6.755952892178,97.4152926679075,37.0782680515425,86.3436509284037,20.2218201699848,357,0.363428234303336
"Odisha","Jajapur",2895.54828773648,403.232075398722,68.1862489922762,6.755952892178,97.4152926679075,37.0782680515425,86.1521972715,20.8559284591782,542,0.223784773630463
"Odisha","Jharsuguda",2115.46573524365,336.96592972086,68.1862489922762,6.755952892178,97.4152926679075,37.0782680515425,83.9547338856281,21.8059851164334,335,0.234122889427427
"Odisha","Kalahandi",7898.50165940443,594.756284822991,68.1862489922762,6.755952892178,97.4152926679075,37.0782680515425,83.1092314033895,19.8676985519955,780,0.28059278384462
"Odisha","Kandhamal",8045.26914003613,606.859308535744,68.1862489922762,6.755952892178,97.4152926679075,37.0782680515425,84.0472431155992,20.1288956780248,683,0.274520262447504
"Odisha","Kendrapara",2475.90555681333,401.403252677619,68.1862489922762,6.755952892178,97.4152926679075,37.0782680515425,86.6096988180122,20.5531261916616,753,0.193099951110674
"Odisha","Kendujhar",8302.26771222979,617.563398817269,68.1862489922762,6.755952892178,97.4152926679075,37.0782680515425,85.7050722619247,21.5370810231747,772,0.273554271102771
"Odisha","Khordha",2748.544096396,592.641383926244,68.1862489922762,6.755952892178,97.4152926679075,37.0782680515425,85.5114179698229,20.0899626642682,863,0.0983396420958006
"Odisha","Koraput",8701.54480794808,750.905865544824,68.1862489922762,6.755952892178,97.4152926679075,37.0782680515425,82.7212662084531,18.8165459065908,1045,0.193925639125534
"Odisha","Malkangiri",5819.89347150091,479.283323362724,68.1862489922762,6.755952892178,97.4152926679075,37.0782680515425,81.9563312475971,18.2580674935642,496,0.318375956939198
"Odisha","Mayurbhanj",10423.9735731004,721.744042445037,68.1862489922762,6.755952892178,97.4152926679075,37.0782680515425,86.4111794587695,21.8951716004249,921,0.251464538896715
"Odisha","Nabarangapur",5297.98206846102,500.458747510285,68.1862489922762,6.755952892178,97.4152926679075,37.0782680515425,82.3376637543805,19.588042083612,650,0.265817628256919
"Odisha","Nayagarh",3888.8138146615,410.211652608568,68.1862489922762,6.755952892178,97.4152926679075,37.0782680515425,84.9994379388377,20.2130572263287,442,0.290409640394603
"Odisha","Nuapada",3863.36714203314,397.465704785511,68.1862489922762,6.755952892178,97.4152926679075,37.0782680515425,82.5783146726091,20.4656624244567,413,0.307309879672349
"Odisha","Puri",3552.53947479996,451.211209571935,68.1862489922762,6.755952892178,97.4152926679075,37.0782680515425,85.7208942043665,19.8765477600209,657,0.219274947437788
"Odisha","Rayagada",7364.17782784746,720.809379427161,68.1862489922762,6.755952892178,97.4152926679075,37.0782680515425,83.5138447994864,19.3622777982248,994,0.178112037922029
"Odisha","Sambalpur",6726.08964038056,585.745368809944,68.1862489922762,6.755952892178,97.4152926679075,37.0782680515425,84.2809338854698,21.4519119379782,594,0.246351260023834
"Odisha","Subarnapur",2356.40618158887,323.351283597469,68.1862489922762,6.755952892178,97.4152926679075,37.0782680515425,83.8248629734165,20.931535644788,343,0.28321147038639
"Odisha","Sundargarh",9717.71459875407,763.616233200103,68.1862489922762,6.755952892178,97.4152926679075,37.0782680515425,84.5105774348629,22.0797761915053,833,0.209422673580796
"Puducherry","Karaikal",153.269771865598,97.3661257334605,68.1862489922762,6.755952892178,97.4152926679075,37.0782680515425,79.8020626397852,10.9343779155463,165,0.20316579693243
"Puducherry","Mahe",9.85053715828371,20.9571285065605,68.1862489922762,6.755952892178,97.4152926679075,37.0782680515425,75.5415383824557,11.7266775631252,64,0.281842332737815
"Puducherry","Puducherry",300.021201530245,320.143386516197,68.1862489922762,6.755952892178,97.4152926679075,37.0782680515425,79.7329985154781,11.9120981369803,479,0.0367851677362404
"Puducherry","Yanam",37.8203099617079,39.1918629023009,68.1862489922762,6.755952892178,97.4152926679075,37.0782680515425,82.2545597024979,16.7266491552377,36,0.309416260717204
"Punjab","Amritsar",2659.86450565053,345.323861037118,68.1862489922762,6.755952892178,97.4152926679075,37.0782680515425,74.9006678112724,31.7046123320927,599,0.2802955493876
"Punjab","Barnala",1485.34898121031,227.73359433482,68.1862489922762,6.755952892178,97.4152926679075,37.0782680515425,75.5048001322394,30.3971937253501,312,0.359901921474268
"Punjab","Bathinda",3369.47032331044,400.790884024765,68.1862489922762,6.755952892178,97.4152926679075,37.0782680515425,75.0406592610375,30.1827656993458,453,0.263594187710142
"Punjab","Faridkot",1450.81098628241,221.446745564971,68.1862489922762,6.755952892178,97.4152926679075,37.0782680515425,74.7791685202872,30.6108633843243,263,0.371776637618754
"Punjab","Fatehgarh Sahib",1142.92987702488,256.890495935263,68.1862489922762,6.755952892178,97.4152926679075,37.0782680515425,76.365315704266,30.6322207411033,360,0.217637323007978
"Punjab","Firozpur",5204.2458461313,612.116336777728,68.1862489922762,6.755952892178,97.4152926679075,37.0782680515425,74.4009033289674,30.5604870083593,882,0.174541911232725
"Punjab","Gurdaspur",3619.22616675698,435.072889254959,68.1862489922762,6.755952892178,97.4152926679075,37.0782680515425,75.3864434664484,32.0241967251194,608,0.240271103733749
"Punjab","Hoshiarpur",3366.71424280427,387.862774523123,68.1862489922762,6.755952892178,97.4152926679075,37.0782680515425,75.8587646553976,31.626010136759,473,0.281228882210552
"Punjab","Jalandhar",2605.72798538771,397.943638217622,68.1862489922762,6.755952892178,97.4152926679075,37.0782680515425,75.5665768926322,31.2126148972866,471,0.206773942763565
"Punjab","Kapurthala",1661.29236435199,405.477177534403,68.1862489922762,6.755952892178,97.4152926679075,37.0782680515425,75.4030718970013,31.3540586593655,491,0.126976427344098
"Punjab","Ludhiana",3584.79948005706,384.293352186084,68.1862489922762,6.755952892178,97.4152926679075,37.0782680515425,75.8381529565057,30.8087414365134,490,0.305034518783229
"Punjab","Mansa",2211.10301419304,318.345880067879,68.1862489922762,6.755952892178,97.4152926679075,37.0782680515425,75.4389455444686,29.9083750643277,344,0.274170278480831
"Punjab","Moga",2346.63969590171,264.118188952829,68.1862489922762,6.755952892178,97.4152926679075,37.0782680515425,75.1680453027655,30.7700129082751,302,0.422726676926437
"Punjab","Muktsar",2604.49640295625,329.958322991998,68.1862489922762,6.755952892178,97.4152926679075,37.0782680515425,74.5410207740048,30.2946403176371,337,0.300618325040322
"Punjab","Patiala",3329.36512238898,565.406922732637,68.1862489922762,6.755952892178,97.4152926679075,37.0782680515425,76.3539675413488,30.2814547316659,1283,0.130872695225224
"Punjab","Rupnagar",1383.81333165485,300.819211293912,68.1862489922762,6.755952892178,97.4152926679075,37.0782680515425,76.4864181791253,31.0593710015952,363,0.192165861736004
"Punjab","Sahibzada Ajit Singh Nagar",1107.63456079113,275.586753825005,68.1862489922762,6.755952892178,97.4152926679075,37.0782680515425,76.7377593313973,30.6809132205526,388,0.183269284307443
"Punjab","Sangrur",3599.11011657586,482.308729210289,68.1862489922762,6.755952892178,97.4152926679075,37.0782680515425,75.8686189203647,30.2135201545605,1074,0.194426184700523
"Punjab","Shahid Bhagat Singh Nagar",1300.94959798626,230.529841386837,68.1862489922762,6.755952892178,97.4152926679075,37.0782680515425,76.1559632510569,31.1091263966664,259,0.307621037346278
"Punjab","Tarn Taran",2393.1154299568,287.976529312712,68.1862489922762,6.755952892178,97.4152926679075,37.0782680515425,74.8446086764195,31.3373248034032,510,0.362626321412966
"Rajasthan","Ajmer",8522.10193898542,792.39694337139,68.1862489922762,6.755952892178,97.4152926679075,37.0782680515425,74.7751665352521,26.2298966382707,801,0.170557572275239
"Rajasthan","Alwar",8307.18266078142,806.314868230266,68.1862489922762,6.755952892178,97.4152926679075,37.0782680515425,76.6060217425253,27.5914734023689,1215,0.160566258534424
"Rajasthan","Banswara",4506.03147522736,386.148938221086,68.1862489922762,6.755952892178,97.4152926679075,37.0782680515425,74.3639023659264,23.4751743906518,386,0.379747037927322
"Rajasthan","Baran",6820.34863216093,600.047433718341,68.1862489922762,6.755952892178,97.4152926679075,37.0782680515425,76.7565904818292,24.9951738075519,615,0.238037441372664
"Rajasthan","Barmer",28420.6048641216,1028.78753226981,68.1862489922762,6.755952892178,97.4152926679075,37.0782680515425,71.4732681921759,25.7355837899987,854,0.337436296377664
"Rajasthan","Bharatpur",5055.66581323035,644.820666792439,68.1862489922762,6.755952892178,97.4152926679075,37.0782680515425,77.2788276636067,27.2456545245674,940,0.152795416295299
"Rajasthan","Bhilwara",10463.2786911165,714.612857442513,68.1862489922762,6.755952892178,97.4152926679075,37.0782680515425,74.7290716102045,25.4799675409454,745,0.257475556397943
"Rajasthan","Bikaner",30224.8794862003,1074.28011577851,68.1862489922762,6.755952892178,97.4152926679075,37.0782680515425,73.1773973734494,28.1777241675463,1784,0.329108703249316
"Rajasthan","Bundi",5581.98997593283,434.439623420846,68.1862489922762,6.755952892178,97.4152926679075,37.0782680515425,75.7774785598053,25.4700396333122,405,0.371655067816011
"Rajasthan","Chittaurgarh",7645.34653654001,898.334815640418,68.1862489922762,6.755952892178,97.4152926679075,37.0782680515425,74.7797956011283,24.8286856154811,1027,0.119050322554587
"Rajasthan","Churu",13896.0700684238,913.273778236458,68.1862489922762,6.755952892178,97.4152926679075,37.0782680515425,74.6985159446333,28.3455047547695,1707,0.209362975744335
"Rajasthan","Dausa",3477.81380161261,436.283986703662,68.1862489922762,6.755952892178,97.4152926679075,37.0782680515425,76.5139471234507,26.8560956148744,790,0.229603045664962
"Rajasthan","Dhaulpur",3027.60227620797,374.012789229672,68.1862489922762,6.755952892178,97.4152926679075,37.0782680515425,77.7033429421179,26.6807878063501,455,0.271979255799099
"Rajasthan","Dungarpur",3786.30826518381,353.239940770952,68.1862489922762,6.755952892178,97.4152926679075,37.0782680515425,73.8551349103652,23.7324883456065,316,0.381317052148839
"Rajasthan","Ganganagar",10684.1559329875,733.062044261132,68.1862489922762,6.755952892178,97.4152926679075,37.0782680515425,73.5631546189319,29.3954773957601,1873,0.249843821811968
"Rajasthan","Hanumangarh",9930.56947751039,818.395008350809,68.1862489922762,6.755952892178,97.4152926679075,37.0782680515425,74.5490112969299,29.2713898398324,2000,0.186319398985586
"Rajasthan","Jaipur",11265.2837371498,734.395351222617,68.1862489922762,6.755952892178,97.4152926679075,37.0782680515425,75.7243097034627,26.9804512438704,852,0.262477548144041
"Rajasthan","Jaisalmer",38442.4067561746,1149.71300199237,68.1862489922762,6.755952892178,97.4152926679075,37.0782680515425,70.9033846846987,27.0773996958198,843,0.365461429049806
"Rajasthan","Jalor",10732.0282006325,714.067009950311,68.1862489922762,6.755952892178,97.4152926679075,37.0782680515425,72.2118643729444,25.0977708125502,668,0.264492725052944
"Rajasthan","Jhalawar",6256.2129979937,715.906073781841,68.1862489922762,6.755952892178,97.4152926679075,37.0782680515425,76.1967703884307,24.3288572846285,868,0.153394326250729
"Rajasthan","Jhunjhunun",5922.95257139139,469.950215333636,68.1862489922762,6.755952892178,97.4152926679075,37.0782680515425,75.5524066316082,28.0919064808194,499,0.337011261302407
"Rajasthan","Jodhpur",22866.9880097869,997.781393914082,68.1862489922762,6.755952892178,97.4152926679075,37.0782680515425,72.7880279421156,26.7508295818047,1121,0.288634357328863
"Rajasthan","Karauli",4939.53012865506,499.777443497368,68.1862489922762,6.755952892178,97.4152926679075,37.0782680515425,76.9638510679694,26.5206790285288,2112,0.24850904500961
"Rajasthan","Kota",5510.3847386312,647.67247766547,68.1862489922762,6.755952892178,97.4152926679075,37.0782680515425,76.1293168569732,25.1241301332209,630,0.16507484637346
"Rajasthan","Nagaur",17658.0200529134,894.922829412346,68.1862489922762,6.755952892178,97.4152926679075,37.0782680515425,74.1879483176724,27.0640395028684,1043,0.277064380058467
"Rajasthan","Pali",12355.4420539524,836.03445174954,68.1862489922762,6.755952892178,97.4152926679075,37.0782680515425,73.5206486850342,25.7078734562099,974,0.222136437886422
"Rajasthan","Pratapgarh",4307.45286737378,409.768431634212,68.1862489922762,6.755952892178,97.4152926679075,37.0782680515425,74.6809595800134,24.0294254388048,492,0.322369097241737
"Rajasthan","Rajsamand",4802.44569484119,603.251711406122,68.1862489922762,6.755952892178,97.4152926679075,37.0782680515425,73.892301928618,25.2163252474145,618,0.165834620529854
"Rajasthan","Sawai Madhopur",5037.21095433987,539.133873378833,68.1862489922762,6.755952892178,97.4152926679075,37.0782680515425,76.4679213130294,26.2168528135723,2027,0.217774369475659
"Rajasthan","Sikar",7694.83316231409,665.117275096474,68.1862489922762,6.755952892178,97.4152926679075,37.0782680515425,75.2875448279651,27.6365969002395,648,0.218581104522125
"Rajasthan","Sirohi",5159.29942699398,438.208544739997,68.1862489922762,6.755952892178,97.4152926679075,37.0782680515425,72.7743139443591,24.7589055142747,395,0.337628355982861
"Rajasthan","Tonk",7250.35610543771,631.741750408873,68.1862489922762,6.755952892178,97.4152926679075,37.0782680515425,75.6718656455054,26.1457796978867,768,0.228291658370715
"Rajasthan","Udaipur",11917.7494792828,714.992045444006,68.1862489922762,6.755952892178,97.4152926679075,37.0782680515425,73.7064030316148,24.4076551611931,705,0.292955526824294
"Sikkim","East",942.6009994052,143.122903906518,68.1862489922762,6.755952892178,97.4152926679075,37.0782680515425,88.6780467448869,27.2927582036452,237,0.578255112666278
"Sikkim","North",4261.13694927064,309.503975071403,68.1862489922762,6.755952892178,97.4152926679075,37.0782680515425,88.5324470194452,27.7433956242139,582,0.558988526538884
"Sikkim","South",730.999511721936,158.982075665578,68.1862489922762,6.755952892178,97.4152926679075,37.0782680515425,88.3878736714802,27.2867591595845,185,0.363438243820649
"Sikkim","West",1200.07874832866,174.166004108233,68.1862489922762,6.755952892178,97.4152926679075,37.0782680515425,88.1779431647605,27.3491224586347,242,0.497156169547872
"Tamil Nadu","Ariyalur",1951.68050939123,246.377822544254,68.1862489922762,6.755952892178,97.4152926679075,37.0782680515425,79.2442226629073,11.1605355564502,354,0.404031628256258
"Tamil Nadu","Chennai",128.498757219657,51.7072916191661,68.1862489922762,6.755952892178,97.4152926679075,37.0782680515425,80.2523095364806,13.0646981760118,90,0.603955875474449
"Tamil Nadu","Coimbatore",4654.41601858154,493.380570674437,68.1862489922762,6.755952892178,97.4152926679075,37.0782680515425,76.9755799524056,10.8745243034344,591,0.240276322676718
"Tamil Nadu","Cuddalore",3701.39394124258,497.089473253605,68.1862489922762,6.755952892178,97.4152926679075,37.0782680515425,79.4508980003473,11.5350313318123,836,0.188237454442047
"Tamil Nadu","Dharmapuri",4517.79993854939,456.700747419064,68.1862489922762,6.755952892178,97.4152926679075,37.0782680515425,78.1957880751721,12.0968852171892,402,0.27219078272827
"Tamil Nadu","Dindigul",6070.92656836125,580.547577136797,68.1862489922762,6.755952892178,97.4152926679075,37.0782680515425,77.8200349714055,10.3897599725516,721,0.226354540243352
"Tamil Nadu","Erode",5763.40460745813,569.201571015765,68.1862489922762,6.755952892178,97.4152926679075,37.0782680515425,77.4143016601738,11.5152011226028,650,0.223540796081613
"Tamil Nadu","Kancheepuram",4624.25105070821,427.952802959206,68.1862489922762,6.755952892178,97.4152926679075,37.0782680515425,79.9478672659253,12.6951648181976,532,0.317292288793383
"Tamil Nadu","Kanniyakumari",1689.67352227361,217.827004983,68.1862489922762,6.755952892178,97.4152926679075,37.0782680515425,77.3614287975266,8.3069414730568,300,0.447496066553848
"Tamil Nadu","Karur",2894.31866057154,432.161598974913,68.1862489922762,6.755952892178,97.4152926679075,37.0782680515425,78.133091004949,10.8429781948341,503,0.194743899182857
"Tamil Nadu","Krishnagiri",5143.03633330529,558.091294834692,68.1862489922762,6.755952892178,97.4152926679075,37.0782680515425,78.0326938693894,12.4890384874233,525,0.207500410231432
"Tamil Nadu","Madurai",3696.12554570984,484.063985108584,68.1862489922762,6.755952892178,97.4152926679075,37.0782680515425,78.0062943866346,9.92096295155951,620,0.198221626187632
"Tamil Nadu","Nagappattinam",2486.73221478115,479.59309594176,68.1862489922762,6.755952892178,97.4152926679075,37.0782680515425,79.7388997861477,10.8494293913963,956,0.135860447116591
"Tamil Nadu","Namakkal",3406.22700693113,384.253708916478,68.1862489922762,6.755952892178,97.4152926679075,37.0782680515425,78.1361387329709,11.3162522005849,449,0.28989939953204
"Tamil Nadu","Perambalur",1753.76095219375,276.396393876107,68.1862489922762,6.755952892178,97.4152926679075,37.0782680515425,78.8930149959503,11.273340439942,358,0.288479870993764
"Tamil Nadu","Pudukkottai",4657.79938206055,607.791954218876,68.1862489922762,6.755952892178,97.4152926679075,37.0782680515425,78.8812431086592,10.3586215788658,983,0.15844580653214
"Tamil Nadu","Ramanathapuram",3947.78667041531,511.133497184986,68.1862489922762,6.755952892178,97.4152926679075,37.0782680515425,78.6732836375783,9.44013375830445,647,0.189886833993138
"Tamil Nadu","Salem",5218.08838465759,635.383484362134,68.1862489922762,6.755952892178,97.4152926679075,37.0782680515425,78.2221464234083,11.6740577088568,745,0.162423719311535
"Tamil Nadu","Sivaganga",4253.60173832509,594.56562098031,68.1862489922762,6.755952892178,97.4152926679075,37.0782680515425,78.5986602250132,9.91508795565904,783,0.151205330310087
"Tamil Nadu","Thanjavur",3393.81602366519,607.346643386132,68.1862489922762,6.755952892178,97.4152926679075,37.0782680515425,79.2413045963553,10.6715181096724,1053,0.11561784987242
"Tamil Nadu","The Nilgiris",2554.35343699679,309.623464056851,68.1862489922762,6.755952892178,97.4152926679075,37.0782680515425,76.6418772437722,11.4558934585787,313,0.334829043733526
"Tamil Nadu","Theni",2853.54989337967,318.556889649518,68.1862489922762,6.755952892178,97.4152926679075,37.0782680515425,77.4393583328976,9.89024252294951,438,0.35336320869701
"Tamil Nadu","Thiruvallur",3257.59289135519,593.422154951963,68.1862489922762,6.755952892178,97.4152926679075,37.0782680515425,79.9399684202594,13.2430854739184,736,0.116246305713038
"Tamil Nadu","Thiruvarur",2272.75771199615,470.983634441364,68.1862489922762,6.755952892178,97.4152926679075,37.0782680515425,79.5359960769435,10.6798862587473,1031,0.128751225273315
"Tamil Nadu","Thoothukkudi",4632.36293002818,483.684562652638,68.1862489922762,6.755952892178,97.4152926679075,37.0782680515425,78.0044297205752,8.890838602329,740,0.248821548420256
"Tamil Nadu","Tiruchirappalli",4510.37390802427,734.218769735563,68.1862489922762,6.755952892178,97.4152926679075,37.0782680515425,78.5704387021341,10.8889134903064,925,0.105140840578956
"Tamil Nadu","Tirunelveli",6800.08318773592,591.603473590378,68.1862489922762,6.755952892178,97.4152926679075,37.0782680515425,77.5419537590894,8.7986969067987,805,0.244153333975923
"Tamil Nadu","Tiruppur",5204.41141869975,608.358463925576,68.1862489922762,6.755952892178,97.4152926679075,37.0782680515425,77.4054154525629,10.8381290498529,741,0.176710508163918
"Tamil Nadu","Tiruvannamalai",6185.82654154975,653.228299301133,68.1862489922762,6.755952892178,97.4152926679075,37.0782680515425,79.1676926330751,12.4310832245999,777,0.1821703193008
"Tamil Nadu","Vellore",6070.17775325126,687.804551160577,68.1862489922762,6.755952892178,97.4152926679075,37.0782680515425,79.0103744374876,12.8122691355178,745,0.16124311604246
"Tamil Nadu","Viluppuram",7186.86592288076,826.580975453247,68.1862489922762,6.755952892178,97.4152926679075,37.0782680515425,79.2921479126402,11.9734675860246,1251,0.132183910591745
"Tamil Nadu","Virudunagar",4385.84838326863,655.935878532098,68.1862489922762,6.755952892178,97.4152926679075,37.0782680515425,77.9430899389048,9.48397307032596,1131,0.128097515017046
"Tripura","Dhalai",2254.57569495066,278.106665969179,68.1862489922762,6.755952892178,97.4152926679075,37.0782680515425,91.9259058134659,23.8430718869884,265,0.36631262556783
"Tripura","North Tripura",2045.16993398558,301.67624334273,68.1862489922762,6.755952892178,97.4152926679075,37.0782680515425,92.155520143471,24.1305027588282,445,0.282395024672466
"Tripura","South Tripura",3143.82971065475,343.354048796528,68.1862489922762,6.755952892178,97.4152926679075,37.0782680515425,91.6095503454536,23.3684510893431,436,0.335107796507414
"Tripura","West Tripura",2996.95773131322,383.880339122409,68.1862489922762,6.755952892178,97.4152926679075,37.0782680515425,91.4648712488088,23.8022327860621,495,0.255563449944214
"Uttar Pradesh","Agra",4026.006342313,721.867807713541,68.1862489922762,6.755952892178,97.4152926679075,37.0782680515425,78.0794655307731,27.0376597300448,947,0.0970887634178346
"Uttar Pradesh","Aligarh",3743.72903228031,425.319501961721,68.1862489922762,6.755952892178,97.4152926679075,37.0782680515425,78.0793106281431,27.9268664863277,532,0.260066059944947
"Uttar Pradesh","Allahabad",5216.95818417764,522.536409915448,68.1862489922762,6.755952892178,97.4152926679075,37.0782680515425,81.9717175109704,25.2988961002261,1223,0.240101075529004
"Uttar Pradesh","Ambedkar Nagar",2315.34114104242,361.320981388437,68.1862489922762,6.755952892178,97.4152926679075,37.0782680515425,82.6685470200442,26.4200619913877,487,0.222863265890593
"Uttar Pradesh","Auraiya",2006.76598568013,256.039255358911,68.1862489922762,6.755952892178,97.4152926679075,37.0782680515425,79.482755075918,26.6606863559192,332,0.384674576474378
"Uttar Pradesh","Azamgarh",4270.62085882308,456.01620707396,68.1862489922762,6.755952892178,97.4152926679075,37.0782680515425,83.0696552790165,26.0470417667237,732,0.258071665698299
"Uttar Pradesh","Baghpat",1328.79105348307,195.146326019507,68.1862489922762,6.755952892178,97.4152926679075,37.0782680515425,77.3128621061487,29.0552731126553,223,0.438475973324881
"Uttar Pradesh","Bahraich",4325.85007853162,462.208213671993,68.1862489922762,6.755952892178,97.4152926679075,37.0782680515425,81.4518672345219,27.7363845402254,592,0.25445208291543
"Uttar Pradesh","Ballia",3004.31725414526,404.543234817985,68.1862489922762,6.755952892178,97.4152926679075,37.0782680515425,84.1054632061332,25.8753841093151,471,0.230688407128779
"Uttar Pradesh","Balrampur",3323.84217039148,391.797391277116,68.1862489922762,6.755952892178,97.4152926679075,37.0782680515425,82.3775932174304,27.4849716269966,582,0.272099145282688
"Uttar Pradesh","Banda",4532.37313118666,611.603802869352,68.1862489922762,6.755952892178,97.4152926679075,37.0782680515425,80.5617986170399,25.4650048781961,1054,0.152263274770337
"Uttar Pradesh","Bara Banki",3792.82758042326,431.157456959629,68.1862489922762,6.755952892178,97.4152926679075,37.0782680515425,81.3274026226556,26.9386423203494,636,0.256390046419784
"Uttar Pradesh","Bareilly",3785.02737679683,378.839748320287,68.1862489922762,6.755952892178,97.4152926679075,37.0782680515425,79.4222822126008,28.4494285529913,608,0.331411679983404
"Uttar Pradesh","Basti",2883.0197630613,309.211934099089,68.1862489922762,6.755952892178,97.4152926679075,37.0782680515425,82.6310870848603,26.818345199662,374,0.378917784180496
"Uttar Pradesh","Bijnor",4318.31173722448,346.935217756461,68.1862489922762,6.755952892178,97.4152926679075,37.0782680515425,78.3987560158325,29.386982961831,440,0.450844814779652
"Uttar Pradesh","Budaun",5077.78048083372,441.821005040559,68.1862489922762,6.755952892178,97.4152926679075,37.0782680515425,78.9453619190966,28.115296411114,551,0.326882045813662
"Uttar Pradesh","Bulandshahr",3560.20808619867,364.451138496601,68.1862489922762,6.755952892178,97.4152926679075,37.0782680515425,78.0123046418112,28.3575741643985,430,0.33682678794869
