"state_name","district_name","area_sq_km","perimeter_km","bbox_xmin","bbox_ymin","bbox_xmax","bbox_ymax","centroid_lon","centroid_lat","num_vertices","compactness"
"Andaman & Nicobar","Andamans",5158.60865311482,2963.70605394765,68.1061138,6.76044369281943,97.4115971,37.0872939917106,92.7731463395363,12.2780083924092,2411,0.00738026900409056
"Andaman & Nicobar","Nicobars",1646.08224811015,717.305203487868,68.1061138,6.76044369281943,97.4115971,37.0872939917106,93.5972787669748,7.50396775194921,506,0.0402025344502226
"Andhra Pradesh","Anantapur",19138.3632120486,1372.55140230247,68.1061138,6.76044369281943,97.4115971,37.0872939917106,77.5730384075989,14.4815760176107,777,0.127660758599341
"Andhra Pradesh","Chittoor",15017.6762490376,1225.74275572264,68.1061138,6.76044369281943,97.4115971,37.0872939917106,79.0063539137225,13.4648426188323,830,0.125607025499765
"Andhra Pradesh","East godavari",13000.6854259154,932.455421391997,68.1061138,6.76044369281943,97.4115971,37.0872939917106,81.9026240616517,17.2655000902973,502,0.187897048088102
"Andhra Pradesh","Guntur",11402.7739662775,783.95076638751,68.1061138,6.76044369281943,97.4115971,37.0872939917106,80.079348027528,16.292555874857,375,0.233153962895428
"Andhra Pradesh","Kadapa",15369.1650484127,779.119129075713,68.1061138,6.76044369281943,97.4115971,37.0872939917106,78.7811009467184,14.4641480501677,405,0.318165000561748
"Andhra Pradesh","Krishna",8762.08693973829,813.715372893648,68.1061138,6.76044369281943,97.4115971,37.0872939917106,80.7981305904405,16.5563931552401,412,0.166292391986941
"Andhra Pradesh","Kurnool",17654.6045718621,887.530700564354,68.1061138,6.76044369281943,97.4115971,37.0872939917106,77.9991398107502,15.5325090039441,432,0.281644379824351
"Andhra Pradesh","Prakasam",17634.9481046113,835.596351791578,68.1061138,6.76044369281943,97.4115971,37.0872939917106,79.5151831424797,15.6163794805306,390,0.31738834858013
"Andhra Pradesh","Spsr nellore",13176.489448597,675.311974880782,68.1061138,6.76044369281943,97.4115971,37.0872939917106,79.7393487926232,14.4185128444791,324,0.363078624011705
"Andhra Pradesh","Srikakulam",5804.16673312631,655.351646478161,68.1061138,6.76044369281943,97.4115971,37.0872939917106,84.0213237589997,18.597870302808,434,0.169824738281245
"Andhra Pradesh","Visakhapatanam",11537.8451984474,969.723348976754,68.1061138,6.76044369281943,97.4115971,37.0872939917106,82.6934395871026,17.8931723897015,690,0.154183843110919
"Andhra Pradesh","Vizianagaram",6165.77229654719,812.312470659204,68.1061138,6.76044369281943,97.4115971,37.0872939917106,83.383491117357,18.4716516796075,599,0.117422441158948
"Andhra Pradesh","West godavari",8565.65203350281,692.781598032312,68.1061138,6.76044369281943,97.4115971,37.0872939917106,81.3800546345721,16.9476352180658,385,0.224273316533175
"Arunachal Pradesh","Anjaw",6041.7546873618,400.791470083301,68.1061138,6.76044369281943,97.4115971,37.0872939917106,96.8480955090163,28.0741539124159,186,0.472646027080331
"Arunachal Pradesh","Changlang",5102.18713116868,558.143886581161,68.1061138,6.76044369281943,97.4115971,37.0872939917106,96.3343782359705,27.3603269173588,304,0.20581352104899
"Arunachal Pradesh","Dibang Valley",8889.68049268983,570.679284440606,68.1061138,6.76044369281943,97.4115971,37.0872939917106,95.9204706894143,28.8962402621138,250,0.343013963752167
"Arunachal Pradesh","East Kameng",6286.52042260884,493.508188583714,68.1061138,6.76044369281943,97.4115971,37.0872939917106,92.9575794523042,27.4424729182563,266,0.324363119491187
"Arunachal Pradesh","East Siang",3848.30212612146,395.4755505701,68.1061138,6.76044369281943,97.4115971,37.0872939917106,95.1544205112199,28.121005801414,194,0.309200185683978
"Arunachal Pradesh","Kurung Kumey",6851.93597287436,428.865109658315,68.1061138,6.76044369281943,97.4115971,37.0872939917106,93.384257071867,27.9956479777245,225,0.468146443993871
"Arunachal Pradesh","Lohit",4454.65677331054,389.609647617033,68.1061138,6.76044369281943,97.4115971,37.0872939917106,96.2231273419565,27.8598693230543,205,0.368777747094848
"Arunachal Pradesh","Lower Dibang Valley",4109.58537580658,368.574776640355,68.1061138,6.76044369281943,97.4115971,37.0872939917106,95.8181997498416,28.2891739323732,168,0.380151448155825
"Arunachal Pradesh","Lower Subansiri",2755.68319877329,319.687955025243,68.1061138,6.76044369281943,97.4115971,37.0872939917106,93.923333777801,27.6141243833687,186,0.338833705526036
"Arunachal Pradesh","Papum Pare",3414.65055217589,412.006936107153,68.1061138,6.76044369281943,97.4115971,37.0872939917106,93.5936662863169,27.2683383907259,230,0.252782540789263
"Arunachal Pradesh","Tawang",2446.7774032172,296.440751095994,68.1061138,6.76044369281943,97.4115971,37.0872939917106,91.9614068781529,27.6601783373329,145,0.349887570745597
"Arunachal Pradesh","Tirap",1975.08816590644,240.065994775347,68.1061138,6.76044369281943,97.4115971,37.0872939917106,95.4315054910341,26.9442785806127,148,0.430660516805685
"Arunachal Pradesh","Upper Siang",6573.32338986597,477.359099696645,68.1061138,6.76044369281943,97.4115971,37.0872939917106,94.9290324164309,28.8311692988217,231,0.362497028973824
"Arunachal Pradesh","Upper Subansiri",6303.65947916883,464.600598156537,68.1061138,6.76044369281943,97.4115971,37.0872939917106,93.930645851385,28.288575475999,241,0.366980577312044
"Arunachal Pradesh","West Kameng",4921.3481807768,362.976571917583,68.1061138,6.76044369281943,97.4115971,37.0872939917106,92.393263594481,27.289842554704,190,0.4693931707242
"Arunachal Pradesh","West Siang",8117.15817754366,580.394433613378,68.1061138,6.76044369281943,97.4115971,37.0872939917106,94.4959668106749,28.341005080649,320,0.302808035641129
"Assam","Baksa",2534.75758138408,485.530294514426,68.1061138,6.76044369281943,97.4115971,37.0872939917106,91.355370814536,26.6675826189752,368,0.135118130967416
"Assam","Barpeta",2263.06052881952,408.89862624768,68.1061138,6.76044369281943,97.4115971,37.0872939917106,91.0050955527341,26.3386068711147,301,0.170088413780015
"Assam","Bongaigaon",1104.77844724958,291.964656269399,68.1061138,6.76044369281943,97.4115971,37.0872939917106,90.6178306511413,26.3605440458651,224,0.162863774160841
"Assam","Cachar",3787.43121117043,408.388120468774,68.1061138,6.76044369281943,97.4115971,37.0872939917106,92.8545283305837,24.8126929770672,301,0.28537006674019
"Assam","Chirang",1908.41141544437,290.716317904732,68.1061138,6.76044369281943,97.4115971,37.0872939917106,90.6009943432286,26.6603032892582,180,0.283754691617436
"Assam","Darrang",1580.11432032601,354.252412463732,68.1061138,6.76044369281943,97.4115971,37.0872939917106,92.0307439117684,26.4484934046318,269,0.158224138643678
"Assam","Dhemaji",2532.23055357393,381.578999193909,68.1061138,6.76044369281943,97.4115971,37.0872939917106,94.759511751837,27.5782655706259,172,0.21854666291409
"Assam","Dhuburi",2147.2280616524,564.789469056399,68.1061138,6.76044369281943,97.4115971,37.0872939917106,90.0150378642027,26.0505954473145,438,0.0845891882905384
"Assam","Dibrugarh",3385.86476775416,424.233063360911,68.1061138,6.76044369281943,97.4115971,37.0872939917106,95.0534721983009,27.3673581735116,300,0.236412505835654
"Assam","Goalpara",1965.98097471613,323.975730015397,68.1061138,6.76044369281943,97.4115971,37.0872939917106,90.6025719963105,26.0522331896199,212,0.235377106904569
"Assam","Golaghat",3284.64806211207,560.475099782649,68.1061138,6.76044369281943,97.4115971,37.0872939917106,93.8306638687252,26.4477677782471,490,0.131397185077585
"Assam","Hailakandi",1330.10406236105,236.205893277646,68.1061138,6.76044369281943,97.4115971,37.0872939917106,92.5883458820037,24.4969885646572,152,0.299580834360361
"Assam","Jorhat",3081.87591350908,450.923925975299,68.1061138,6.76044369281943,97.4115971,37.0872939917106,94.2423795811467,26.79508817681,368,0.190466435203893
"Assam","Kamrrup Rural",3090.98306650655,529.991346994878,68.1061138,6.76044369281943,97.4115971,37.0872939917106,91.4117159008593,26.0991962714713,388,0.138283044228548
"Assam","Kamrup metro",1026.94269153253,223.043423490879,68.1061138,6.76044369281943,97.4115971,37.0872939917106,91.8790390198857,26.1313240468264,148,0.25940433390099
"Assam","Karbi Anglong",7322.44764786614,709.217385165314,68.1061138,6.76044369281943,97.4115971,37.0872939917106,93.4049837269058,26.1576271958679,674,0.182939460249553
"Assam","Karimganj",1861.36145903591,239.036935345877,68.1061138,6.76044369281943,97.4115971,37.0872939917106,92.3756774659246,24.5830399650723,128,0.409364857188912
"Assam","Kokrajhar",3206.58028224842,387.553811902627,68.1061138,6.76044369281943,97.4115971,37.0872939917106,90.1140955971423,26.4916211030307,268,0.268279788913291
"Assam","Lakhimpur",2897.93260241455,334.65837402804,68.1061138,6.76044369281943,97.4115971,37.0872939917106,94.1289826034951,27.1700797851159,195,0.325158230531482
"Assam","Morigaon",1469.21515605001,206.984974720937,68.1061138,6.76044369281943,97.4115971,37.0872939917106,92.2802359866217,26.2844958627802,122,0.430940808847743
"Assam","NC Hills",4870.25650733541,461.70284558156,68.1061138,6.76044369281943,97.4115971,37.0872939917106,93.0313966443199,25.3780574163837,357,0.287102250556353
"Assam","Nagaon",4032.03837988456,716.518375683243,68.1061138,6.76044369281943,97.4115971,37.0872939917106,92.8362670847948,26.2260536534271,529,0.0986915241317895
"Assam","Nalbari",1053.47488868339,235.573815061982,68.1061138,6.76044369281943,97.4115971,37.0872939917106,91.3827153036924,26.3709216900728,176,0.238550329835487
"Assam","Sibsagar",2628.44143178875,370.123924810163,68.1061138,6.76044369281943,97.4115971,37.0872939917106,94.8160623668365,27.0082450923718,281,0.241109238122255
"Assam","Sonitpur",5250.08234552613,452.790057482533,68.1061138,6.76044369281943,97.4115971,37.0872939917106,92.9335189448847,26.7836651910373,223,0.321797166285226
"Assam","Tinsukia",3839.66017423622,399.372603546486,68.1061138,6.76044369281943,97.4115971,37.0872939917106,95.6165424854124,27.5817998169093,284,0.302514443099959
"Assam","Udalguri",2007.53923115125,420.477873865244,68.1061138,6.76044369281943,97.4115971,37.0872939917106,92.033488684625,26.7292858704117,306,0.142688052314449
"Bihar","Araria",2799.44312450342,362.04508331338,68.1061138,6.76044369281943,97.4115971,37.0872939917106,87.362988879531,26.1995291825938,283,0.268383742406383
"Bihar","Arwal",638.585344459373,184.072172460464,68.1061138,6.76044369281943,97.4115971,37.0872939917106,84.6807106539615,25.1634432368202,124,0.236838627314949
"Bihar","Aurangabad",3308.72042342709,359.284248152001,68.1061138,6.76044369281943,97.4115971,37.0872939917106,84.4111252361393,24.7909309477526,236,0.3221021189932
"Bihar","Banka",3031.72507558435,326.861108975288,68.1061138,6.76044369281943,97.4115971,37.0872939917106,86.8397986902197,24.854949919887,262,0.356593300956415
"Bihar","Begusarai",1925.00287581394,350.231608662605,68.1061138,6.76044369281943,97.4115971,37.0872939917106,86.1296694959154,25.4980755699678,255,0.197210742782226
"Bihar","Bhagalpur",2558.03135451267,364.219806137159,68.1061138,6.76044369281943,97.4115971,37.0872939917106,87.0827487678746,25.2711280356979,295,0.242319636988124
"Bihar","Bhojpur",2476.19386631341,278.664413267299,68.1061138,6.76044369281943,97.4115971,37.0872939917106,84.5377568000133,25.4723416284168,180,0.400711204206108
"Bihar","Buxar",1601.21348337558,273.018457895843,68.1061138,6.76044369281943,97.4115971,37.0872939917106,84.0915811753158,25.4925493367896,201,0.26994487334326
"Bihar","Darbhanga",2507.49943773026,440.452873374523,68.1061138,6.76044369281943,97.4115971,37.0872939917106,86.0536797355803,26.0845774667059,431,0.162424602752361
"Bihar","Gaya",4954.05338759751,582.994992508365,68.1061138,6.76044369281943,97.4115971,37.0872939917106,84.9371168546757,24.6982347958135,434,0.183164328222737
"Bihar","Gopalganj",2034.03229857289,334.297913897773,68.1061138,6.76044369281943,97.4115971,37.0872939917106,84.3742376983568,26.444759072953,228,0.228718016403407
"Bihar","Jahanabad",930.731056645969,213.862685769467,68.1061138,6.76044369281943,97.4115971,37.0872939917106,85.0193964714903,25.1563946002338,187,0.255719611877171
"Bihar","Jamui",3199.35743022936,386.591744107648,68.1061138,6.76044369281943,97.4115971,37.0872939917106,86.2905108854108,24.782462003784,282,0.269009412228082
"Bihar","Kaimur (Bhabua)",3352.9609248935,356.648520964035,68.1061138,6.76044369281943,97.4115971,37.0872939917106,83.6062350698075,24.9949788632902,301,0.331251231553661
"Bihar","Katihar",3045.78269575039,446.250757030077,68.1061138,6.76044369281943,97.4115971,37.0872939917106,87.6414810728832,25.5507087765597,386,0.192198877638312
"Bihar","Khagaria",1491.2514858323,279.959836275069,68.1061138,6.76044369281943,97.4115971,37.0872939917106,86.6015877939914,25.5126022206905,212,0.239094338000752
"Bihar","Kishanganj",1918.23124747325,351.070487600964,68.1061138,6.76044369281943,97.4115971,37.0872939917106,87.9371205448457,26.2969335849896,334,0.195578981591257
"Bihar","Lakhisarai",1278.03936650215,226.833494636701,68.1061138,6.76044369281943,97.4115971,37.0872939917106,86.1280011175531,25.1574988691675,171,0.312133029818177
"Bihar","Madhepura",1800.62390321923,320.135445347412,68.1061138,6.76044369281943,97.4115971,37.0872939917106,86.898449159613,25.823755312827,236,0.220782858277
"Bihar","Madhubani",3521.41677365281,430.146092619703,68.1061138,6.76044369281943,97.4115971,37.0872939917106,86.2218436760107,26.4022418334784,354,0.239163735598271
"Bihar","Munger",1410.88800055968,254.307949305984,68.1061138,6.76044369281943,97.4115971,37.0872939917106,86.5262378305264,25.2117299014986,164,0.274146390530189
"Bihar","Muzaffarpur",3163.70407266771,401.38443712268,68.1061138,6.76044369281943,97.4115971,37.0872939917106,85.3294697360779,26.1534392994626,344,0.24676562332722
"Bihar","Nalanda",2365.33364595808,382.078005141429,68.1061138,6.76044369281943,97.4115971,37.0872939917106,85.4508192931601,25.2204224536944,324,0.203609575403582
"Bihar","Nawada",2488.70714562115,356.921146832734,68.1061138,6.76044369281943,97.4115971,37.0872939917106,85.5909638806063,24.8125528697786,255,0.245492992150806
"Bihar","Pashchim Champaran",5230.8852759023,455.99806824007,68.1061138,6.76044369281943,97.4115971,37.0872939917106,84.3408292300715,27.0803040158125,316,0.316125153678306
"Bihar","Patna",3197.24054984628,545.251824976494,68.1061138,6.76044369281943,97.4115971,37.0872939917106,85.2256538710709,25.4576518606499,395,0.135142180120434
"Bihar","Purbi Champaran",3980.29450445008,449.708923599392,68.1061138,6.76044369281943,97.4115971,37.0872939917106,84.9224934477612,26.6191837568437,391,0.247321607297271
"Bihar","Purnia",3218.55531005234,423.870127467198,68.1061138,6.76044369281943,97.4115971,37.0872939917106,87.4037272241931,25.8164471267897,361,0.225115407291418
"Bihar","Rohtas",3885.76344805509,388.010881382389,68.1061138,6.76044369281943,97.4115971,37.0872939917106,84.0265962772947,24.9806431709791,225,0.324338431762142
"Bihar","Saharsa",1667.26335394853,279.854604944972,68.1061138,6.76044369281943,97.4115971,37.0872939917106,86.5913752965137,25.8151776085983,255,0.267515625174934
"Bihar","Samastipur",2665.73793188663,443.028723064308,68.1061138,6.76044369281943,97.4115971,37.0872939917106,85.8656732089385,25.7745532853651,390,0.170672499171479
"Bihar","Saran",2636.92833030949,315.616473763652,68.1061138,6.76044369281943,97.4115971,37.0872939917106,84.8227440834899,25.9084035811246,200,0.332651023086461
"Bihar","Seikhpura",621.586180029422,186.443398591522,68.1061138,6.76044369281943,97.4115971,37.0872939917106,85.8283230971219,25.1319383686875,173,0.224707305618867
"Bihar","Sheohar",445.282682435109,158.76391387729,68.1061138,6.76044369281943,97.4115971,37.0872939917106,85.303214791241,26.5009421379291,148,0.221994429021147
"Bihar","Sitamarhi",2182.11117724135,357.91207100358,68.1061138,6.76044369281943,97.4115971,37.0872939917106,85.5527014880803,26.5860859623079,294,0.214059273151322
"Bihar","Siwan",2213.47254469864,299.84262595117,68.1061138,6.76044369281943,97.4115971,37.0872939917106,84.3869975433575,26.1622552124828,202,0.309383578298114
"Bihar","Supaul",2418.57634277952,339.341549191614,68.1061138,6.76044369281943,97.4115971,37.0872939917106,86.8083192703267,26.2464736623845,264,0.263934151014987
"Bihar","Vaishali",2037.11182120173,248.23973685283,68.1061138,6.76044369281943,97.4115971,37.0872939917106,85.3685530183405,25.7644094747376,175,0.415414956370673
"Chandigarh","Chandigarh",117.314260446194,51.4888765676217,68.1061138,6.76044369281943,97.4115971,37.0872939917106,76.7813548319293,30.7300366294794,36,0.556075599831791
"Chhattisgarh","Balod",3356.69617413324,391.873787631832,68.1061138,6.76044369281943,97.4115971,37.0872939917106,81.1898305497975,20.7419978580844,306,0.274681536748252
"Chhattisgarh","Baloda Bazar",4666.55421338318,468.607421212087,68.1061138,6.76044369281943,97.4115971,37.0872939917106,82.3280574054033,21.5821092744587,264,0.267047093390723
"Chhattisgarh","Balrampur",6264.89985321217,644.804070226304,68.1061138,6.76044369281943,97.4115971,37.0872939917106,83.5006056882777,23.5931951863689,400,0.189351372142596
"Chhattisgarh","Bastar",5391.44000992942,567.393892612495,68.1061138,6.76044369281943,97.4115971,37.0872939917106,81.8696075198217,19.0965099114249,347,0.210448254366737
"Chhattisgarh","Bemetara",2867.7672892911,389.672616036506,68.1061138,6.76044369281943,97.4115971,37.0872939917106,81.5243848470391,21.708424619519,290,0.237330741704949
"Chhattisgarh","Bijapur",9367.51550455467,714.344958681102,68.1061138,6.76044369281943,97.4115971,37.0872939917106,80.8009237453749,18.8630744109109,376,0.230684447752598
"Chhattisgarh","Bilaspur-CH",5537.63564554729,595.733956083439,68.1061138,6.76044369281943,97.4115971,37.0872939917106,82.0733225060181,22.4058318761199,417,0.196078299327375
"Chhattisgarh","Dakshin Bastar Dantewada",2898.45569234724,471.546430654425,68.1061138,6.76044369281943,97.4115971,37.0872939917106,81.3877466078273,18.8132271623692,296,0.163805170534095
"Chhattisgarh","Dhamtari",4085.79066359255,416.554512614553,68.1061138,6.76044369281943,97.4115971,37.0872939917106,81.8090879605348,20.5553097357698,265,0.29589817627582
"Chhattisgarh","Durg",2300.47149432201,325.832268097503,68.1061138,6.76044369281943,97.4115971,37.0872939917106,81.383184152742,21.2201409188204,234,0.272294291799793
"Chhattisgarh","Gariyaband",4843.77547834843,501.617808110166,68.1061138,6.76044369281943,97.4115971,37.0872939917106,82.2352889352722,20.4481437187003,285,0.241906743992281
"Chhattisgarh","Janjgir - Champa",3859.28010747708,374.634393811977,68.1061138,6.76044369281943,97.4115971,37.0872939917106,82.733746077806,21.9285455741995,225,0.345542024348816
"Chhattisgarh","Jashpur",5849.12973173363,496.803520809442,68.1061138,6.76044369281943,97.4115971,37.0872939917106,83.8626546120277,22.801282099983,326,0.297804864875343
"Chhattisgarh","Kabeerdham",4192.09828880953,409.343259358823,68.1061138,6.76044369281943,97.4115971,37.0872939917106,81.2220493039753,22.0929167218726,313,0.314388052993846
"Chhattisgarh","Kondagaon",5085.06890396306,492.710511846971,68.1061138,6.76044369281943,97.4115971,37.0872939917106,81.6642018472281,19.7447848137623,287,0.263222524647597
"Chhattisgarh","Korba",6602.26897593989,473.671691091505,68.1061138,6.76044369281943,97.4115971,37.0872939917106,82.6081403541342,22.5346564476457,276,0.36978408651586
"Chhattisgarh","Koriya",6605.56866708463,525.755534866646,68.1061138,6.76044369281943,97.4115971,37.0872939917106,82.2354916089568,23.4696905086105,344,0.30029795090546
"Chhattisgarh","Mahasamund",4750.76591442397,507.163032741712,68.1061138,6.76044369281943,97.4115971,37.0872939917106,82.6083067014905,21.2079954196221,308,0.232101696855738
"Chhattisgarh","Mungeli",2778.72770762557,414.60562480134,68.1061138,6.76044369281943,97.4115971,37.0872939917106,81.7298592403846,22.2395322835352,345,0.203135335713518
"Chhattisgarh","Narayanpur",3726.82854690418,458.750579918144,68.1061138,6.76044369281943,97.4115971,37.0872939917106,81.089002552917,19.5776486019248,263,0.222533820968123
"Chhattisgarh","Raigarh",7050.52946900281,692.112769855862,68.1061138,6.76044369281943,97.4115971,37.0872939917106,83.3033310441335,22.0847161686655,448,0.184960023364053
"Chhattisgarh","Raipur",2902.42650545943,282.615718911175,68.1061138,6.76044369281943,97.4115971,37.0872939917106,81.820311866755,21.2857898904811,172,0.456644749739486
"Chhattisgarh","Rajnandgaon",8090.57830861257,726.569986950375,68.1061138,6.76044369281943,97.4115971,37.0872939917106,80.8203636993243,21.0385854709973,498,0.192590349613793
"Chhattisgarh","Sukma",5445.53166719982,619.281454436779,68.1061138,6.76044369281943,97.4115971,37.0872939917106,81.3693703703768,18.2717772811248,329,0.178432517545545
"Chhattisgarh","Surajpur",5439.64227108886,579.08451339755,68.1061138,6.76044369281943,97.4115971,37.0872939917106,82.8833251396503,23.4024599499144,378,0.203843234882396
"Chhattisgarh","Surguja",4026.97577684479,443.571799951987,68.1061138,6.76044369281943,97.4115971,37.0872939917106,83.2272173158588,22.9292967343442,292,0.257194113816315
"Chhattisgarh","Uttar Bastar Kanker",7216.29874276238,648.40876525003,68.1061138,6.76044369281943,97.4115971,37.0872939917106,81.1221184472658,20.1361516219224,374,0.215688313129824
"Dadar Nagar& Haveli","Dadra & Nagar Haveli",493.994974253475,198.576445368009,68.1061138,6.76044369281943,97.4115971,37.0872939917106,73.0698759610546,20.1967955404096,115,0.157426170104992
"Daman & Diu","Daman",73.6758291054071,45.5446462073447,68.1061138,6.76044369281943,97.4115971,37.0872939917106,72.8525042437916,20.413890826478,24,0.446334266468848
"Daman & Diu","Diu",0.190927207112297,2.30094612159962,68.1061138,6.76044369281943,97.4115971,37.0872939917106,71.1527386,20.7706440524653,4,0.453173791063367
"Delhi","West",133.84060193949,63.7935901016803,68.1061138,6.76044369281943,97.4115971,37.0872939917106,77.0652702985239,28.65413454004,46,0.413279304604388
"Goa","North goa",1679.58799364191,272.62108981039,68.1061138,6.76044369281943,97.4115971,37.0872939917106,73.9808984126336,15.5524809723221,164,0.283983904720321
"Goa","South goa",1951.38762757523,299.926858968751,68.1061138,6.76044369281943,97.4115971,37.0872939917106,74.1183095304982,15.1961664904137,169,0.272598017134955
"Gujarat","Ahmadabad",7763.33731862207,900.736517154483,68.1061138,6.76044369281943,97.4115971,37.0872939917106,72.1934997368537,22.7289850346174,486,0.120243824409884
"Gujarat","Amreli",7389.968161948,701.08473404944,68.1061138,6.76044369281943,97.4115971,37.0872939917106,71.2512314829572,21.4244007131426,369,0.188934561610112
"Gujarat","Anand",2875.85421944896,351.178327934916,68.1061138,6.76044369281943,97.4115971,37.0872939917106,72.7818243871954,22.4512953401395,179,0.293036229743079
"Gujarat","Banas Kantha",10658.4491588263,785.943360833206,68.1061138,6.76044369281943,97.4115971,37.0872939917106,72.0317336949517,24.2834778663231,399,0.216831004960997
"Gujarat","Bharuch",4731.46096796719,763.856536558438,68.1061138,6.76044369281943,97.4115971,37.0872939917106,72.9548807068304,21.7764319062046,436,0.101901722931381
"Gujarat","Bhavnagar",8060.32188412206,870.222398927962,68.1061138,6.76044369281943,97.4115971,37.0872939917106,71.8368618991029,21.6624698496529,487,0.133752446444866
"Gujarat","Dohad",3866.57860876889,363.900326237466,68.1061138,6.76044369281943,97.4115971,37.0872939917106,74.063174062896,22.7957866874691,174,0.366920366054686
"Gujarat","Gandhinagar",1765.93224596713,309.5083477164,68.1061138,6.76044369281943,97.4115971,37.0872939917106,72.6940928225621,23.2115551759557,191,0.231653660547802
"Gujarat","Jamnagar",10385.1778027362,1230.9741319403,68.1061138,6.76044369281943,97.4115971,37.0872939917106,69.9159827415026,22.2383548252892,743,0.0861243480087965
"Gujarat","Junagadh",8815.53611464229,626.548246935415,68.1061138,6.76044369281943,97.4115971,37.0872939917106,70.5669321118958,21.1986524932145,298,0.282195155988259
"Gujarat","Kachchh",41880.7234675616,1732.13804028157,68.1061138,6.76044369281943,97.4115971,37.0872939917106,69.9079780488778,23.6469845520751,795,0.175411894955584
"Gujarat","Kheda",3994.22476219759,480.871819787262,68.1061138,6.76044369281943,97.4115971,37.0872939917106,73.0164324346648,22.8761980746856,273,0.217061954625788
"Gujarat","Mahesana",3986.60166058231,455.866483608334,68.1061138,6.76044369281943,97.4115971,37.0872939917106,72.5278249109841,23.5839436381566,250,0.241066787995426
"Gujarat","Narmada",2823.14659870464,358.880246811683,68.1061138,6.76044369281943,97.4115971,37.0872939917106,73.6474451752561,21.7352636004309,197,0.275450893024339
"Gujarat","Navsari",2214.81667555919,306.170539589096,68.1061138,6.76044369281943,97.4115971,37.0872939917106,73.0908096975992,20.8157869404393,170,0.296907282155072
"Gujarat","Panch Mahals",5023.90060723325,552.290283563459,68.1061138,6.76044369281943,97.4115971,37.0872939917106,73.6802996174809,22.9536477355534,286,0.206974145016966
"Gujarat","Patan",6445.74911478069,616.565747419301,68.1061138,6.76044369281943,97.4115971,37.0872939917106,71.8123207049834,23.7565757854826,325,0.21307106320609
"Gujarat","Porbandar",2280.48460269099,396.555513924315,68.1061138,6.76044369281943,97.4115971,37.0872939917106,69.7783295852251,21.653912359693,173,0.182233838262296
"Gujarat","Rajkot",11181.9094528288,1165.7569567425,68.1061138,6.76044369281943,97.4115971,37.0872939917106,70.7743666662317,22.2615690961455,666,0.103397444116444
"Gujarat","Sabar Kantha",7426.86053417144,602.905117902055,68.1061138,6.76044369281943,97.4115971,37.0872939917106,73.1636996865855,23.659433849499,290,0.25675398424752
"Gujarat","Surat",7377.41762043984,789.796469487788,68.1061138,6.76044369281943,97.4115971,37.0872939917106,73.3172496747804,21.2325899741587,452,0.148622258481761
"Gujarat","Surendranagar",10512.2790107511,892.623169287483,68.1061138,6.76044369281943,97.4115971,37.0872939917106,71.5400588964245,22.7976124509056,457,0.165794619524018
"Gujarat","The Dangs",1763.79473342103,241.27472430336,68.1061138,6.76044369281943,97.4115971,37.0872939917106,73.7012378365141,20.8039310618238,126,0.380745035602295
"Gujarat","Vadodara",7509.88098057763,794.642233837888,68.1061138,6.76044369281943,97.4115971,37.0872939917106,73.5331545784971,22.2329436581471,433,0.149451277453009
"Gujarat","Valsad",3010.34520025277,467.147574839624,68.1061138,6.76044369281943,97.4115971,37.0872939917106,73.1136072688039,20.4196499173401,258,0.173347653168361
"Haryana","Ambala",1513.61932115254,355.923810316475,68.1061138,6.76044369281943,97.4115971,37.0872939917106,76.9388447017669,30.3283399866704,274,0.150145542233623
"Haryana","Bhiwani",3299.50802253249,372.234947307288,68.1061138,6.76044369281943,97.4115971,37.0872939917106,75.8895696383958,28.778558735853,229,0.299243526210511
"Haryana","Charkhi Dadri",1374.15922800205,256.574953800834,68.1061138,6.76044369281943,97.4115971,37.0872939917106,76.1576225487146,28.5786169926627,148,0.262312148094526
"Haryana","Faridabad",743.199435309211,140.727292220104,68.1061138,6.76044369281943,97.4115971,37.0872939917106,77.342774758685,28.3515735597223,108,0.471583468467333
"Haryana","Fatehabad",2525.42632550665,315.175363959595,68.1061138,6.76044369281943,97.4115971,37.0872939917106,75.5768969783094,29.5686895701359,192,0.319477326391542
"Haryana","Gurgaon",1256.39420913083,231.913355468584,68.1061138,6.76044369281943,97.4115971,37.0872939917106,76.9404362409818,28.3685778049628,150,0.293551477674041
"Haryana","Hisar",4077.70261997583,403.984458659794,68.1061138,6.76044369281943,97.4115971,37.0872939917106,75.8224962440464,29.2116451165202,241,0.313975743933421
"Haryana","Jhajjar",1903.97017146349,324.089195114744,68.1061138,6.76044369281943,97.4115971,37.0872939917106,76.6419039034596,28.6007510839269,188,0.227793275666197
"Haryana","Jind",2751.6639553299,393.227760520157,68.1061138,6.76044369281943,97.4115971,37.0872939917106,76.3060320627806,29.4337158858922,234,0.223623231547027
"Haryana","Kaithal",2274.99329749063,345.769810893212,68.1061138,6.76044369281943,97.4115971,37.0872939917106,76.4139697158653,29.8111764205817,233,0.239119966225998
"Haryana","Karnal",2481.79580683652,313.154135542022,68.1061138,6.76044369281943,97.4115971,37.0872939917106,76.8879108046673,29.6879820770535,212,0.318023789085068
"Haryana","Kurukshetra",1684.7910597471,247.702658528075,68.1061138,6.76044369281943,97.4115971,37.0872939917106,76.7848648005379,30.0382887366323,177,0.345059968033944
"Haryana","Mahendragarh",1940.15518292481,381.122719848064,68.1061138,6.76044369281943,97.4115971,37.0872939917106,76.1383832859437,28.1703267420528,245,0.167848186789488
"Haryana","Mewat",1499.95779311103,323.313771332476,68.1061138,6.76044369281943,97.4115971,37.0872939917106,77.0500334911757,27.9836672489816,216,0.180318587107715
"Haryana","Palwal",1358.56884559229,223.561180001307,68.1061138,6.76044369281943,97.4115971,37.0872939917106,77.3346485433395,28.0627874786707,174,0.341584950814153
"Haryana","Panchkula",878.361833385916,200.94676372081,68.1061138,6.76044369281943,97.4115971,37.0872939917106,76.9768087801312,30.686313503576,159,0.273351390954137
"Haryana","Panipat",1292.22474201676,186.865792955367,68.1061138,6.76044369281943,97.4115971,37.0872939917106,76.9285060820602,29.3367570284767,128,0.465037847694289
"Haryana","Rewari",1508.76544014819,288.078159883916,68.1061138,6.76044369281943,97.4115971,37.0872939917106,76.5409967624815,28.2350934500167,188,0.228460394810109
"Haryana","Rohtak",1670.64787519038,240.148911334114,68.1061138,6.76044369281943,97.4115971,37.0872939917106,76.530581002573,28.9121592366196,136,0.364026954490501
"Haryana","Sirsa",4274.22249029811,423.739042875921,68.1061138,6.76044369281943,97.4115971,37.0872939917106,74.9006845709927,29.6156492742141,218,0.299136926129381
"Haryana","Sonipat",2156.86358886593,272.674498697233,68.1061138,6.76044369281943,97.4115971,37.0872939917106,76.8782457710129,29.0542635691914,173,0.364538578918335
"Haryana","Yamunanagar",1718.12812454851,260.411000045293,68.1061138,6.76044369281943,97.4115971,37.0872939917106,77.3018387059767,30.2340459962656,185,0.318380719820863
"Himachal Pradesh","Bilaspur",1165.65761019586,234.882958550969,68.1061138,6.76044369281943,97.4115971,37.0872939917106,76.6700058768173,31.3708517611977,172,0.26550814608206
"Himachal Pradesh","Chamba",6507.82169563161,538.070320186825,68.1061138,6.76044369281943,97.4115971,37.0872939917106,76.3476550306339,32.6752531270161,311,0.282466816400851
"Himachal Pradesh","Hamirpur",1116.4696143194,180.802417367252,68.1061138,6.76044369281943,97.4115971,37.0872939917106,76.5253910463123,31.6667855671848,109,0.42918872697827
"Himachal Pradesh","Kangra",5748.38567448642,549.180243068775,68.1061138,6.76044369281943,97.4115971,37.0872939917106,76.3163104496374,32.1087113380279,337,0.239511269399905
"Himachal Pradesh","Kinnaur",6470.24523511515,481.354784069453,68.1061138,6.76044369281943,97.4115971,37.0872939917106,78.4109953858903,31.5955441455832,268,0.35091345498901
"Himachal Pradesh","Kullu",5493.89227671808,405.566204588502,68.1061138,6.76044369281943,97.4115971,37.0872939917106,77.3987751019494,31.9026565178826,253,0.419726593480878
"Himachal Pradesh","Lahul&spiti",13930.4521023955,877.674750526188,68.1061138,6.76044369281943,97.4115971,37.0872939917106,77.6153400680553,32.4810954446832,501,0.227252079715618
"Himachal Pradesh","Mandi",3947.52298630154,321.499776186843,68.1061138,6.76044369281943,97.4115971,37.0872939917106,76.9915253666808,31.6369399277224,214,0.479924788028627
"Himachal Pradesh","Shimla",5142.67167612798,536.728684128001,68.1061138,6.76044369281943,97.4115971,37.0872939917106,77.6316434488183,31.1971001753482,351,0.224330875436574
"Himachal Pradesh","Sirmaur",2827.26991827162,330.306868958007,68.1061138,6.76044369281943,97.4115971,37.0872939917106,77.4308948035926,30.6669714976921,226,0.325643134130204
"Himachal Pradesh","Solan",1929.1308315271,292.811246202342,68.1061138,6.76044369281943,97.4115971,37.0872939917106,76.9094550549904,31.0448653291977,206,0.282745720339033
"Himachal Pradesh","Una",1542.36123072663,231.567084104722,68.1061138,6.76044369281943,97.4115971,37.0872939917106,76.2094485930725,31.5794799904021,144,0.361445073820281
"Jharkhand","Bokaro",2875.86338989498,406.929451773994,68.1061138,6.76044369281943,97.4115971,37.0872939917106,85.9956999122059,23.6944915285852,299,0.218242772203768
"Jharkhand","Chatra",3797.97850443103,506.228995639481,68.1061138,6.76044369281943,97.4115971,37.0872939917106,84.8906046343813,24.1638539192556,367,0.186238014343317
"Jharkhand","Deoghar",2479.34838140558,291.86178553942,68.1061138,6.76044369281943,97.4115971,37.0872939917106,86.7390652404481,24.3283257704462,218,0.365757254804434
"Jharkhand","Dhanbad",2041.26407980548,220.748074320091,68.1061138,6.76044369281943,97.4115971,37.0872939917106,86.4715030302638,23.8269067603436,117,0.526399187055681
"Jharkhand","Dumka",3762.4312802248,387.445495036796,68.1061138,6.76044369281943,97.4115971,37.0872939917106,87.2652743760307,24.3195312601462,275,0.314961310851456
"Jharkhand","East singhbhum",3557.534303714,403.554953477799,68.1061138,6.76044369281943,97.4115971,37.0872939917106,86.4509905945427,22.5825748972194,261,0.274507108726157
"Jharkhand","Gharwa",4083.20714296926,399.475143534373,68.1061138,6.76044369281943,97.4115971,37.0872939917106,83.6974473952091,24.1037300791508,202,0.321537590907679
"Jharkhand","Giridih",4976.74066331155,450.467360553361,68.1061138,6.76044369281943,97.4115971,37.0872939917106,86.1095537287143,24.2936231935265,316,0.30819686497249
"Jharkhand","Godda",2272.04777306371,284.298800093336,68.1061138,6.76044369281943,97.4115971,37.0872939917106,87.3078380987094,24.8590351720744,211,0.35324601349647
"Jharkhand","Gumla",5355.68206674107,541.586387610668,68.1061138,6.76044369281943,97.4115971,37.0872939917106,84.5319190665396,23.1030602062652,364,0.229450586178213
"Jharkhand","Hazaribag",4327.54049514103,619.277526044602,68.1061138,6.76044369281943,97.4115971,37.0872939917106,85.4251048257274,24.0635063448907,450,0.141801350012209
"Jharkhand","Jamtara",1811.44651364587,311.840462327318,68.1061138,6.76044369281943,97.4115971,37.0872939917106,86.9068412973925,23.9758918352912,226,0.234083308955436
"Jharkhand","Khunti",2625.52988717592,366.126454316818,68.1061138,6.76044369281943,97.4115971,37.0872939917106,85.2621372264707,22.9938930726793,270,0.246130033498369
"Jharkhand","Koderma",1623.37023006889,299.074301457682,68.1061138,6.76044369281943,97.4115971,37.0872939917106,85.6674899751993,24.5003765682601,186,0.228070569711007
"Jharkhand","Latehar",4242.84574125515,478.372199752486,68.1061138,6.76044369281943,97.4115971,37.0872939917106,84.4439779186585,23.7172600044302,309,0.232988904977998
"Jharkhand","Lohardaga",1499.59372005571,239.632387700364,68.1061138,6.76044369281943,97.4115971,37.0872939917106,84.6694700563305,23.4752921546993,156,0.328165141138794
"Jharkhand","Pakur",1813.78654686546,316.658504027231,68.1061138,6.76044369281943,97.4115971,37.0872939917106,87.6616746633685,24.5639607768064,255,0.227307480862367
"Jharkhand","Palamu",4431.43082960816,442.925171255181,68.1061138,6.76044369281943,97.4115971,37.0872939917106,84.1673390329618,24.1998070228989,288,0.28385275600604
"Jharkhand","Ramgarh",1405.37332003536,318.438604730151,68.1061138,6.76044369281943,97.4115971,37.0872939917106,85.5628397106403,23.6358268805769,212,0.174160692887259
"Jharkhand","Ranchi",5008.10539966571,596.315707849678,68.1061138,6.76044369281943,97.4115971,37.0872939917106,85.373292157815,23.328854343167,430,0.176982703740505
"Jharkhand","Sahibganj",2177.0772821481,303.742152719228,68.1061138,6.76044369281943,97.4115971,37.0872939917106,87.6771222089194,25.0091173325691,215,0.296533372417327
"Jharkhand","Saraikela karsawan",2658.03555112578,352.941268587897,68.1061138,6.76044369281943,97.4115971,37.0872939917106,85.9496498073198,22.8476478481084,226,0.268142568202832
"Jharkhand","Simdega",3773.09117175339,385.794066180549,68.1061138,6.76044369281943,97.4115971,37.0872939917106,84.5643075281999,22.5814544913537,237,0.318563545585593
"Jharkhand","West singhbhum",7222.9220673233,514.04905745521,68.1061138,6.76044369281943,97.4115971,37.0872939917106,85.5180496540653,22.4208126409049,328,0.343489652535727
"Karnataka","Bagalkot",6574.06590957418,634.221616203882,68.1061138,6.76044369281943,97.4115971,37.0872939917106,75.6246681854752,16.2212284133177,318,0.205381744236016
"Karnataka","Bangalore Rural",2306.18175136922,461.870237691513,68.1061138,6.76044369281943,97.4115971,37.0872939917106,77.5742557375334,13.2270369575387,358,0.135851187723087
"Karnataka","Bangalore_Urban",2184.56008489178,310.91698538562,68.1061138,6.76044369281943,97.4115971,37.0872939917106,77.5933689989602,12.9510304332283,241,0.283978173692053
"Karnataka","Belgaum",13424.0518053872,1051.66193503394,68.1061138,6.76044369281943,97.4115971,37.0872939917106,74.8225263148041,16.1206430615277,601,0.152525049194094
"Karnataka","Bellary",8452.11039604474,760.615898438682,68.1061138,6.76044369281943,97.4115971,37.0872939917106,76.5328317238585,15.1099350132875,408,0.183587973198728
"Karnataka","Bidar",5447.37618839489,528.895231081518,68.1061138,6.76044369281943,97.4115971,37.0872939917106,77.2245353242331,17.9520257458301,347,0.244713500764024
"Karnataka","Bijapur",10496.0863540369,681.360329798576,68.1061138,6.76044369281943,97.4115971,37.0872939917106,75.9526201553111,16.7945667542325,314,0.284108070215017
"Karnataka","Chamrajnagar",5649.22340616582,555.989052744689,68.1061138,6.76044369281943,97.4115971,37.0872939917106,77.0974162287821,11.9580917171185,327,0.229649832387611
"Karnataka","Chikballapur",4244.9064441043,473.520890830695,68.1061138,6.76044369281943,97.4115971,37.0872939917106,77.8352689211557,13.5781707003679,308,0.23790287972887
"Karnataka","Chikmagalur",7204.33709553975,557.917785757866,68.1061138,6.76044369281943,97.4115971,37.0872939917106,75.6906257549302,13.4544340022957,369,0.290846255410484
"Karnataka","Chitradurga",8434.44300510827,655.495479925086,68.1061138,6.76044369281943,97.4115971,37.0872939917106,76.5151653358056,14.168352650141,368,0.246675984013412
"Karnataka","Dakshina Kannada",4853.64699696026,446.379605939082,68.1061138,6.76044369281943,97.4115971,37.0872939917106,75.2512143597323,12.8529402895456,301,0.306104251967464
"Karnataka","Davanagere",5924.29382300374,574.406230290628,68.1061138,6.76044369281943,97.4115971,37.0872939917106,75.95423179513,14.4087263754452,312,0.225635884685684
"Karnataka","Dharwad",4257.6216924722,442.98968671593,68.1061138,6.76044369281943,97.4115971,37.0872939917106,75.1523124596519,15.3902031255051,263,0.272640081539707
"Karnataka","Gadag",4653.12342173509,540.349448350787,68.1061138,6.76044369281943,97.4115971,37.0872939917106,75.6651844462311,15.4311271592641,313,0.200264979864204
"Karnataka","Gulbarga",10957.8496183486,851.03933900602,68.1061138,6.76044369281943,97.4115971,37.0872939917106,76.8684727862374,17.2604976017759,487,0.19012355606509
"Karnataka","Hassan",6814.32327416896,615.694679287515,68.1061138,6.76044369281943,97.4115971,37.0872939917106,76.1077734007308,12.9962898326657,428,0.225892491641178
"Karnataka","Haveri",4824.79790356251,451.327407090091,68.1061138,6.76044369281943,97.4115971,37.0872939917106,75.4165179799298,14.7390596982806,271,0.297649787355469
"Karnataka","Kodagu",4104.45776944611,437.856477610674,68.1061138,6.76044369281943,97.4115971,37.0872939917106,75.8012115676681,12.3249096552527,300,0.269030858561061
"Karnataka","Kolar",3984.3791795286,477.076257800295,68.1061138,6.76044369281943,97.4115971,37.0872939917106,78.2179064525837,13.1398005728179,353,0.219985936714864
"Karnataka","Koppal",5576.0924781225,527.353497505285,68.1061138,6.76044369281943,97.4115971,37.0872939917106,76.2211782979492,15.562219303111,287,0.25196265181056
"Karnataka","Mandya",4961.10593708416,515.982637263108,68.1061138,6.76044369281943,97.4115971,37.0872939917106,76.7970694462069,12.6114577107177,347,0.234162954466326
"Karnataka","Mysore",6306.46212780072,638.093917728831,68.1061138,6.76044369281943,97.4115971,37.0872939917106,76.4404689524032,12.2102452051239,431,0.194637467897233
"Karnataka","Raichur",8442.61643236783,531.322372209216,68.1061138,6.76044369281943,97.4115971,37.0872939917106,76.8917359885636,16.0907328817854,251,0.375812063506574
"Karnataka","Ramnagara",3512.26552995588,437.581875579485,68.1061138,6.76044369281943,97.4115971,37.0872939917106,77.335499301828,12.6791074826441,289,0.230504046912742
"Karnataka","Shimoga",8483.69768072303,713.753515370278,68.1061138,6.76044369281943,97.4115971,37.0872939917106,75.2201792584834,14.0432367916826,454,0.209265929813025
"Karnataka","Tumkur",10596.1735161397,1038.91268195342,68.1061138,6.76044369281943,97.4115971,37.0872939917106,76.9461207658442,13.521293795696,633,0.12336751875248
"Karnataka","Udupi",3572.56868893655,350.007563274697,68.1061138,6.76044369281943,97.4115971,37.0872939917106,74.8722032144231,13.4983124408737,198,0.366467608023168
"Karnataka","Uttara Kannada",10278.6396164815,730.016447622112,68.1061138,6.76044369281943,97.4115971,37.0872939917106,74.6194135437693,14.7912914048087,466,0.242370753592845
"Karnataka","Yadgir",5274.6482183583,521.208273376839,68.1061138,6.76044369281943,97.4115971,37.0872939917106,76.9127236921665,16.6271581989003,291,0.243994907931625
"Kerala","Alappuzha",1416.64689726343,273.570940413824,68.1061138,6.76044369281943,97.4115971,37.0872939917106,76.4473234602387,9.42874358378978,132,0.237865552333969
"Kerala","Ernakulam",3047.96090408934,390.344435742175,68.1061138,6.76044369281943,97.4115971,37.0872939917106,76.5456637970168,10.0843013609355,278,0.251375686752809
"Kerala","Idukki",4386.90278096918,546.451144942218,68.1061138,6.76044369281943,97.4115971,37.0872939917106,77.0570653300712,9.8381640204545,385,0.184614238632541
"Kerala","Kannur",2969.4087771377,316.692242468805,68.1061138,6.76044369281943,97.4115971,37.0872939917106,75.5240111436459,12.0009000503838,229,0.372053163346217
"Kerala","Kasargod",1983.29839305392,330.761803042073,68.1061138,6.76044369281943,97.4115971,37.0872939917106,75.1515211360983,12.461673580275,204,0.227807082778819
"Kerala","Kollam",2477.20487506652,323.749293880088,68.1061138,6.76044369281943,97.4115971,37.0872939917106,76.8716184427132,8.96198453622984,210,0.296998414111321
"Kerala","Kottayam",2202.15052728496,287.733606537244,68.1061138,6.76044369281943,97.4115971,37.0872939917106,76.6506930642714,9.63767167028527,198,0.334253287266464
"Kerala","Kozhikode",2343.47259511953,277.332324609432,68.1061138,6.76044369281943,97.4115971,37.0872939917106,75.8340928333037,11.4849225304052,174,0.382885358537913
"Kerala","Malappuram",3542.7478528949,368.976702303503,68.1061138,6.76044369281943,97.4115971,37.0872939917106,76.1551894818556,11.1333549935207,214,0.32700336170354
"Kerala","Palakkad",4467.59165298654,501.469985407052,68.1061138,6.76044369281943,97.4115971,37.0872939917106,76.5557432610401,10.7951126079897,335,0.223251017256102
"Kerala","Pathanamthitta",2648.3902095627,359.311491032854,68.1061138,6.76044369281943,97.4115971,37.0872939917106,76.9269443584019,9.28362133060061,269,0.25778024066896
"Kerala","Thiruvananthapuram",2188.08852388716,267.64791647576,68.1061138,6.76044369281943,97.4115971,37.0872939917106,77.0128758306522,8.60995114677334,162,0.383837161053591
"Kerala","Thrissur",3038.27073767903,364.604216582021,68.1061138,6.76044369281943,97.4115971,37.0872939917106,76.3161305643534,10.4712786639053,222,0.287205638014451
"Kerala","Wayanad",2137.11285565135,268.394151574461,68.1061138,6.76044369281943,97.4115971,37.0872939917106,76.097730969102,11.7120813363503,177,0.372813151715803
"Lakshadweep","Lakshadweep",447.521619010208,307.521458060755,68.1061138,6.76044369281943,97.4115971,37.0872939917106,73.0715146382893,10.9349603004508,156,0.0594665898008377
"Madhya Pradesh","Agar malwa",2742.05375324662,363.643474810189,68.1061138,6.76044369281943,97.4115971,37.0872939917106,76.0707669495489,23.827167146253,222,0.260575890188048
"Madhya Pradesh","Alirajpur",3342.48699843903,448.312214662687,68.1061138,6.76044369281943,97.4115971,37.0872939917106,74.3633331377432,22.3149025914195,300,0.208986603184573
"Madhya Pradesh","Anooppur",3786.98767272112,542.43921293331,68.1061138,6.76044369281943,97.4115971,37.0872939917106,81.6805993208988,23.056327526732,402,0.161734101859813
"Madhya Pradesh","Ashoknagar",4750.35831011463,411.018760238431,68.1061138,6.76044369281943,97.4115971,37.0872939917106,77.8757351747777,24.6094013927669,275,0.353356384774035
"Madhya Pradesh","Balaghat",9272.3813442198,675.896288689193,68.1061138,6.76044369281943,97.4115971,37.0872939917106,80.358687869622,21.8802208542858,426,0.255059218691423
"Madhya Pradesh","Barwani",5421.55600713666,483.230264658775,68.1061138,6.76044369281943,97.4115971,37.0872939917106,75.0212278577697,21.7870572504792,270,0.291759872187311
"Madhya Pradesh","Betul",10067.7130940056,738.794286796737,68.1061138,6.76044369281943,97.4115971,37.0872939917106,77.8728611718437,21.8794916527233,460,0.231789435643669
"Madhya Pradesh","Bhind",4480.92946165914,550.886613852829,68.1061138,6.76044369281943,97.4115971,37.0872939917106,78.7213977433711,26.4226252660565,453,0.185546827208291
"Madhya Pradesh","Bhopal",2771.62918435375,358.935652211814,68.1061138,6.76044369281943,97.4115971,37.0872939917106,77.3905778830918,23.4704964304414,245,0.270340924032798
"Madhya Pradesh","Burhanpur",3239.90122837443,324.887320825316,68.1061138,6.76044369281943,97.4115971,37.0872939917106,76.3679831389798,21.3713634842188,183,0.385723509080459
"Madhya Pradesh","Chhatarpur",8781.57942142692,889.330071075312,68.1061138,6.76044369281943,97.4115971,37.0872939917106,79.6649143248469,24.800036077725,562,0.139526449388245
"Madhya Pradesh","Chhindwada",11787.7656145016,798.584298009437,68.1061138,6.76044369281943,97.4115971,37.0872939917106,78.8540251214651,22.1217172054881,586,0.232273584661482
"Madhya Pradesh","Damoh",7305.48981012889,601.398666471133,68.1061138,6.76044369281943,97.4115971,37.0872939917106,79.5261286681847,23.8120616394282,402,0.253824933928849
"Madhya Pradesh","Datia",3024.95940239518,515.752720528308,68.1061138,6.76044369281943,97.4115971,37.0872939917106,78.5674885533157,25.7785014402087,373,0.142904649616526
"Madhya Pradesh","Dewas",7003.57606147946,784.790267839364,68.1061138,6.76044369281943,97.4115971,37.0872939917106,76.4567599161594,22.7440153310614,610,0.142896797620476
"Madhya Pradesh","Dhar",8173.28979138584,587.29761565292,68.1061138,6.76044369281943,97.4115971,37.0872939917106,75.1035996489034,22.4969549824316,335,0.297776407551215
"Madhya Pradesh","Dindori",5750.23972987302,622.208907017424,68.1061138,6.76044369281943,97.4115971,37.0872939917106,81.0502962046799,22.8901274203959,462,0.186648011482823
"Madhya Pradesh","Guna",6392.70501963446,644.845373485462,68.1061138,6.76044369281943,97.4115971,37.0872939917106,77.1977764258619,24.5568092896969,433,0.193189426197448
"Madhya Pradesh","Gwalior",4554.87192956637,370.63683920873,68.1061138,6.76044369281943,97.4115971,37.0872939917106,78.1472059035216,26.0387020584975,257,0.416666771201369
"Madhya Pradesh","Harda",3332.17697648268,304.218797992447,68.1061138,6.76044369281943,97.4115971,37.0872939917106,77.1227300181706,22.2317659265632,175,0.452445039679899
"Madhya Pradesh","Hoshangabad",6694.58819394992,554.816723336699,68.1061138,6.76044369281943,97.4115971,37.0872939917106,77.990508228437,22.5905639160464,339,0.273296861928622
"Madhya Pradesh","Indore",3913.40695597216,474.346201778689,68.1061138,6.76044369281943,97.4115971,37.0872939917106,75.7821157841092,22.7129181876878,378,0.218561680776227
"Madhya Pradesh","Jabalpur",5098.10115533057,556.244163186198,68.1061138,6.76044369281943,97.4115971,37.0872939917106,79.9749885686214,23.2340305076423,367,0.207055789676168
"Madhya Pradesh","Jhabua",3444.47531269771,331.663718212895,68.1061138,6.76044369281943,97.4115971,37.0872939917106,74.6715275111876,22.892788873542,193,0.393492999167872
"Madhya Pradesh","Katni",5078.92005011544,590.014307009586,68.1061138,6.76044369281943,97.4115971,37.0872939917106,80.4026618819016,23.7530571686478,443,0.18333954738564
"Madhya Pradesh","Khandwa",7448.0661383755,586.323500420964,68.1061138,6.76044369281943,97.4115971,37.0872939917106,76.5692685829336,21.935398263466,352,0.272256831264426
"Madhya Pradesh","Khargone",8025.38125054488,665.509201178997,68.1061138,6.76044369281943,97.4115971,37.0872939917106,75.7725189825355,21.9189414231174,423,0.227702295273224
"Madhya Pradesh","Mandla",7503.49879221914,711.757939555938,68.1061138,6.76044369281943,97.4115971,37.0872939917106,80.5117026968405,22.6388635594833,473,0.18612685552141
"Madhya Pradesh","Mandsaur",5573.005829108,543.136040813423,68.1061138,6.76044369281943,97.4115971,37.0872939917106,75.4057132556722,24.2041960948504,339,0.237400766578589
"Madhya Pradesh","Morena",5059.52933089769,606.152037184676,68.1061138,6.76044369281943,97.4115971,37.0872939917106,77.8673265256881,26.4144250996183,394,0.173044118844125
"Madhya Pradesh","Narsingpur",5138.5815120896,527.565364748827,68.1061138,6.76044369281943,97.4115971,37.0872939917106,79.0855152539671,22.9359330218796,369,0.23200671892363
"Madhya Pradesh","Neemuch",4322.49459994553,610.333120979907,68.1061138,6.76044369281943,97.4115971,37.0872939917106,75.1415636261161,24.5935323679507,370,0.145817768050663
"Madhya Pradesh","Panna",7122.00960130406,775.033792799342,68.1061138,6.76044369281943,97.4115971,37.0872939917106,80.1899643552063,24.4212232464911,578,0.148994810112297
"Madhya Pradesh","Raisen",8450.87929050814,746.149703424434,68.1061138,6.76044369281943,97.4115971,37.0872939917106,78.1205912932144,23.2197659481865,518,0.190747924454216
"Madhya Pradesh","Rajgarh",6166.83105362347,456.379733409929,68.1061138,6.76044369281943,97.4115971,37.0872939917106,76.7323246941329,23.8612940676853,276,0.372065339245846
"Madhya Pradesh","Ratlam",4852.985061052,540.179131837008,68.1061138,6.76044369281943,97.4115971,37.0872939917106,75.0880491924062,23.501883078852,362,0.208998521277661
"Madhya Pradesh","Rewa",6323.07200036808,609.350582061188,68.1061138,6.76044369281943,97.4115971,37.0872939917106,81.5869387295794,24.7541688328862,449,0.213994952871713
"Madhya Pradesh","Sagar",10243.3239672018,944.270333604455,68.1061138,6.76044369281943,97.4115971,37.0872939917106,78.7589467058342,23.8490573781317,668,0.144363725587465
"Madhya Pradesh","Satna",7493.11725093941,868.176605657164,68.1061138,6.76044369281943,97.4115971,37.0872939917106,80.8316365933919,24.5297155149656,674,0.124926978030629
"Madhya Pradesh","Sehore",6573.7030517482,819.560168335916,68.1061138,6.76044369281943,97.4115971,37.0872939917106,77.125999321631,22.9868949800963,604,0.122986731614323
"Madhya Pradesh","Seoni",8765.79913204408,695.39163544579,68.1061138,6.76044369281943,97.4115971,37.0872939917106,79.6882211807316,22.3171050688856,446,0.227794090723347
"Madhya Pradesh","Shahdol",5666.24443965835,602.178939787979,68.1061138,6.76044369281943,97.4115971,37.0872939917106,81.474269171211,23.6304552236787,384,0.196360461658524
"Madhya Pradesh","Shajapur",3464.45619784951,436.208663300083,68.1061138,6.76044369281943,97.4115971,37.0872939917106,76.5589923978977,23.3842712218065,281,0.228800182002997
"Madhya Pradesh","Sheopur",6654.39540085254,531.284363767544,68.1061138,6.76044369281943,97.4115971,37.0872939917106,77.0064565801718,25.7549989459684,286,0.296254119555396
"Madhya Pradesh","Shivpuri",9938.19523765248,777.350495898626,68.1061138,6.76044369281943,97.4115971,37.0872939917106,77.7875413015942,25.3572908193819,535,0.206672945183096
"Madhya Pradesh","Sidhi",4749.5491328201,505.610212529766,68.1061138,6.76044369281943,97.4115971,37.0872939917106,81.8338344084546,24.2199707753646,301,0.233469726127901
"Madhya Pradesh","Singroulli",5819.21573821461,479.311452913224,68.1061138,6.76044369281943,97.4115971,37.0872939917106,82.4200313533935,24.2160656147482,301,0.318301517816796
"Madhya Pradesh","Tikamgarh",5051.45731389928,770.862758665046,68.1061138,6.76044369281943,97.4115971,37.0872939917106,78.9447251917727,24.9899495319933,522,0.106824881988756
"Madhya Pradesh","Ujjain",6099.50529224787,699.318256425943,68.1061138,6.76044369281943,97.4115971,37.0872939917106,75.6686412982741,23.330596073127,481,0.156730942162987
"Madhya Pradesh","Umariya",4566.02154987013,456.267668551774,68.1061138,6.76044369281943,97.4115971,37.0872939917106,80.97348982421,23.5617760748326,303,0.275618541351728
"Madhya Pradesh","Vidisha",7318.3468434924,634.436190842005,68.1061138,6.76044369281943,97.4115971,37.0872939917106,77.813054251184,23.8917037756735,475,0.228479349998105
"Maharashtra","Ahmednagar",17099.7424826217,1305.5768020489,68.1061138,6.76044369281943,97.4115971,37.0872939917106,74.6754886416681,19.2052092897255,832,0.126065016370227
"Maharashtra","Akola",5425.67819073472,575.342878881857,68.1061138,6.76044369281943,97.4115971,37.0872939917106,77.0555959284004,20.7480764512518,395,0.205973055216967
"Maharashtra","Amravati",12208.2568930933,896.955315097236,68.1061138,6.76044369281943,97.4115971,37.0872939917106,77.5704562321752,21.1876015065875,548,0.190687360806556
"Maharashtra","Aurangabad",10145.846767828,800.788766938211,68.1061138,6.76044369281943,97.4115971,37.0872939917106,75.2799627908944,20.0285760775462,497,0.198820983616091
"Maharashtra","Beed",10625.1424203006,883.674841976115,68.1061138,6.76044369281943,97.4115971,37.0872939917106,75.8394785264528,18.9460012192546,560,0.170985641580085
"Maharashtra","Bhandara",4144.04352035992,469.162250683193,68.1061138,6.76044369281943,97.4115971,37.0872939917106,79.7635419738486,21.1154255715602,318,0.236585459602816
"Maharashtra","Buldhana",9746.24031839892,716.706630808465,68.1061138,6.76044369281943,97.4115971,37.0872939917106,76.4071699634117,20.5109800208083,475,0.238431776637332
"Maharashtra","Chandrapur",11358.706664038,662.717237352926,68.1061138,6.76044369281943,97.4115971,37.0872939917106,79.4408964607784,20.1184376880306,347,0.324999142105046
"Maharashtra","Dhule",7177.32287209158,587.310871430293,68.1061138,6.76044369281943,97.4115971,37.0872939917106,74.6006012206083,21.1107144610139,365,0.261478670178319
"Maharashtra","Gadchiroli",14499.4213030141,907.29663831482,68.1061138,6.76044369281943,97.4115971,37.0872939917106,80.2406166334474,19.7881391643773,418,0.221341031570384
"Maharashtra","Gondia",5177.54133128472,507.769580252855,68.1061138,6.76044369281943,97.4115971,37.0872939917106,80.2181666699539,21.1658872691297,327,0.2523481236003
"Maharashtra","Hingoli",4714.21183499827,480.815813226229,68.1061138,6.76044369281943,97.4115971,37.0872939917106,77.1004202421324,19.637393515028,321,0.256248583257562
"Maharashtra","Jalgaon",11765.3241249149,755.435361957234,68.1061138,6.76044369281943,97.4115971,37.0872939917106,75.4882666441588,20.9338347227633,480,0.259071201669733
"Maharashtra","Jalna",7679.71577710842,672.007169835224,68.1061138,6.76044369281943,97.4115971,37.0872939917106,75.9802441574443,19.8075593685028,414,0.213701316645325
"Maharashtra","Kolhapur",7686.91651596751,890.972089816757,68.1061138,6.76044369281943,97.4115971,37.0872939917106,74.158539682911,16.4713149417517,609,0.121684098498786
"Maharashtra","Latur",7193.45281622127,517.656312887675,68.1061138,6.76044369281943,97.4115971,37.0872939917106,76.7612331311355,18.3731420485737,283,0.337337198576222
"Maharashtra","Mumbai",75.8437712216199,62.7494610583791,68.1061138,6.76044369281943,97.4115971,37.0872939917106,72.838058813226,18.9848778323056,50,0.242052617487622
"Maharashtra","Mumbai Suburban",441.804092872632,110.405396741911,68.1061138,6.76044369281943,97.4115971,37.0872939917106,72.8835563004584,19.1319313624316,74,0.455469178232019
"Maharashtra","Nagpur",9896.18119842662,596.125858001862,68.1061138,6.76044369281943,97.4115971,37.0872939917106,79.0852534203326,21.1783546672172,410,0.349946441431899
"Maharashtra","Nanded",10531.7247427517,1028.86193763195,68.1061138,6.76044369281943,97.4115971,37.0872939917106,77.6180606500125,19.1127569741911,612,0.125024510243795
"Maharashtra","Nandurbar",5959.89388646324,691.329437011104,68.1061138,6.76044369281943,97.4115971,37.0872939917106,74.2168007677102,21.5499261328508,428,0.156703354027159
"Maharashtra","Nashik",15542.7878845668,854.263088332375,68.1061138,6.76044369281943,97.4115971,37.0872939917106,74.0700810127829,20.2599385917176,592,0.267642760935339
"Maharashtra","Osmanabad",7571.17234963883,754.775323332992,68.1061138,6.76044369281943,97.4115971,37.0872939917106,76.0370726265791,18.1886455017801,435,0.167008129070212
"Maharashtra","Palghar",5295.71092714224,470.608830761313,68.1061138,6.76044369281943,97.4115971,37.0872939917106,73.0093298299179,19.7926518826214,327,0.300478906490179
"Maharashtra","Parbhani",6308.10597927637,571.159344487659,68.1061138,6.76044369281943,97.4115971,37.0872939917106,76.6908319673379,19.2682149504277,358,0.242993284927477
"Maharashtra","Part of Karnatak",22.3158581321063,27.362393363837,68.1061138,6.76044369281943,97.4115971,37.0872939917106,75.2039564559847,16.6229565602252,17,0.374554735068211
"Maharashtra","Pune",15646.6161717888,979.45854385327,68.1061138,6.76044369281943,97.4115971,37.0872939917106,74.0682480624066,18.5709519006587,664,0.204954838337669
"Maharashtra","Raigad",7002.63249340712,701.243058225042,68.1061138,6.76044369281943,97.4115971,37.0872939917106,73.2207509262215,18.509216362406,510,0.178950966561599
"Maharashtra","Ratnagiri",8302.62456928596,685.488791874001,68.1061138,6.76044369281943,97.4115971,37.0872939917106,73.4543538319211,17.2741050671221,503,0.222036589479652
"Maharashtra","Sangli",8601.37464033043,898.821660237776,68.1061138,6.76044369281943,97.4115971,37.0872939917106,74.7678896061176,17.1137410299381,515,0.133792161082577
"Maharashtra","Satara",10479.4353626755,661.768264438451,68.1061138,6.76044369281943,97.4115971,37.0872939917106,74.1725885394601,17.6697170611121,446,0.30070169381844
"Maharashtra","Sindhudurg",5107.80149464521,565.705482073886,68.1061138,6.76044369281943,97.4115971,37.0872939917106,73.7376103457456,16.1331037130072,398,0.200568672537587
"Maharashtra","Solapur",14855.1878776144,1211.9554108806,68.1061138,6.76044369281943,97.4115971,37.0872939917106,75.4829635147634,17.7907555012572,718,0.127090980097323
"Maharashtra","Thane",4267.25024802285,420.940962231204,68.1061138,6.76044369281943,97.4115971,37.0872939917106,73.3202714349215,19.3607283888757,269,0.302632522207684
"Maharashtra","Wardha",6312.24206439295,475.906023604385,68.1061138,6.76044369281943,97.4115971,37.0872939917106,78.5861308366603,20.7972903260017,311,0.350228194717123
"Maharashtra","Washim",5137.10512633842,579.245986501509,68.1061138,6.76044369281943,97.4115971,37.0872939917106,77.2165521121178,20.2345825373867,352,0.192398752003233
"Maharashtra","Yavatmal",13590.0079808456,910.827644565723,68.1061138,6.76044369281943,97.4115971,37.0872939917106,78.1612224574382,20.083618983045,565,0.2058529850031
"Manipur","Bishnupur",447.539934942716,225.947680477926,68.1061138,6.76044369281943,97.4115971,37.0872939917106,93.7970484361032,24.5353844097577,239,0.11016049627598
"Manipur","Chandel",3248.89538479818,513.711678368029,68.1061138,6.76044369281943,97.4115971,37.0872939917106,94.0877201342624,24.2393981009492,511,0.154705841928038
"Manipur","Churachandpur",4711.24509833649,517.083664744942,68.1061138,6.76044369281943,97.4115971,37.0872939917106,93.4196942646101,24.3007662171691,444,0.221423609647765
"Manipur","Imphal east",586.374470095478,925.197068868875,68.1061138,6.76044369281943,97.4115971,37.0872939917106,93.7443025326687,24.7966064451892,1146,0.00860828071998671
"Manipur","Imphal west",503.556883296427,293.56237700063,68.1061138,6.76044369281943,97.4115971,37.0872939917106,93.8720176363393,24.7847231285474,270,0.0734273085777472
"Manipur","Senapati",3549.0770360002,1330.19882693623,68.1061138,6.76044369281943,97.4115971,37.0872939917106,94.0338898632912,25.1941769211615,1473,0.0252053173144103
"Manipur","Tamenglong",4171.45392190216,445.386466615274,68.1061138,6.76044369281943,97.4115971,37.0872939917106,93.523596724357,24.9494307152945,367,0.264255041516718
"Manipur","Thoubal",612.95001243268,439.112443973325,68.1061138,6.76044369281943,97.4115971,37.0872939917106,93.9672439031032,24.5345247911581,529,0.0399469322286916
"Manipur","Ukhrul",4499.95695720267,408.187582130672,68.1061138,6.76044369281943,97.4115971,37.0872939917106,94.4292503741036,25.0178468785854,303,0.339389691239892
"Meghalaya","East Garo Hills",1599.75783225297,221.793296295372,68.1061138,6.76044369281943,97.4115971,37.0872939917106,90.6268564240656,25.6201395722768,142,0.408664843742883
"Meghalaya","East Jaintia Hills",1928.51601976684,239.145207108433,68.1061138,6.76044369281943,97.4115971,37.0872939917106,92.4688003452689,25.2582373425338,173,0.423750040084941
"Meghalaya","East Khasi Hills",2875.32938133261,329.284971894253,68.1061138,6.76044369281943,97.4115971,37.0872939917106,91.7982761225208,25.3869073109299,245,0.333237329188816
"Meghalaya","Jaintia Hills",1900.63487060362,288.095171382699,68.1061138,6.76044369281943,97.4115971,37.0872939917106,92.2851540939872,25.4817108802438,209,0.28776409049543
"Meghalaya","North Garo Hills",1258.59014329012,268.084862561037,68.1061138,6.76044369281943,97.4115971,37.0872939917106,90.661634381728,25.8529848755274,186,0.220064305651456
"Meghalaya","Ri-bhoi",2358.66645645998,393.264406376825,68.1061138,6.76044369281943,97.4115971,37.0872939917106,91.8861347637633,25.874028404223,328,0.191649245052703
"Meghalaya","South Garo Hills",1865.73915480439,270.837211836843,68.1061138,6.76044369281943,97.4115971,37.0872939917106,90.5904663928112,25.3023781707606,201,0.319627487788751
"Meghalaya","South West Garo Hills",821.829190686447,137.428417955149,68.1061138,6.76044369281943,97.4115971,37.0872939917106,89.989263812701,25.438468571373,86,0.546812372926948
"Meghalaya","South West Khasi Hills",1239.00543173752,238.547329891634,68.1061138,6.76044369281943,97.4115971,37.0872939917106,91.2403621811137,25.308727153191,153,0.273611252891955
"Meghalaya","West Garo Hills",2632.65211495819,352.149095845622,68.1061138,6.76044369281943,97.4115971,37.0872939917106,90.1947801338407,25.6398221778833,266,0.26677810472517
"Meghalaya","West Khasi Hills",3940.77927230714,430.09702416293,68.1061138,6.76044369281943,97.4115971,37.0872939917106,91.2593337881904,25.5962197819563,316,0.267706612636495
"Mizoram","Aizawl",3154.88293159222,484.607162147149,68.1061138,6.76044369281943,97.4115971,37.0872939917106,92.8882738076634,23.8331551058767,390,0.168815941692681
"Mizoram","Champhai",3395.92460929712,392.26797791815,68.1061138,6.76044369281943,97.4115971,37.0872939917106,93.2316891079289,23.5418275473744,346,0.277333409431349
"Mizoram","Kolasib",1587.0556784274,261.372987847889,68.1061138,6.76044369281943,97.4115971,37.0872939917106,92.7273511173191,24.1578156359873,234,0.29193127388773
"Mizoram","Lawngtlai",2460.87755589076,477.925697540384,68.1061138,6.76044369281943,97.4115971,37.0872939917106,92.768972948506,22.4341504079491,387,0.135387666834706
"Mizoram","Lunglei",4515.50822447235,445.047601925675,68.1061138,6.76044369281943,97.4115971,37.0872939917106,92.7187215497454,22.9731204148831,379,0.286486110456595
"Mizoram","Mamit",3011.60820455824,410.684659777679,68.1061138,6.76044369281943,97.4115971,37.0872939917106,92.4627380788367,23.7529664774568,375,0.224383735376301
"Mizoram","Saiha",1520.27036933111,280.501451098987,68.1061138,6.76044369281943,97.4115971,37.0872939917106,93.0009258606801,22.2909523638432,196,0.242806590393564
"Mizoram","Serchhip",1448.24200644861,294.54105931062,68.1061138,6.76044369281943,97.4115971,37.0872939917106,92.9439841369452,23.3067712037774,225,0.209777697961972
"Nagaland","Dimapur",872.968908021719,211.446784110433,68.1061138,6.76044369281943,97.4115971,37.0872939917106,93.7961474948193,25.7809470326882,184,0.245361530105025
"Nagaland","Kiphire",1124.97037652239,189.528880699273,68.1061138,6.76044369281943,97.4115971,37.0872939917106,94.8230100639603,25.8425017626749,116,0.393550215808547
"Nagaland","Kohima",1295.11027523871,219.529187619107,68.1061138,6.76044369281943,97.4115971,37.0872939917106,94.1075371174326,25.7623393843589,171,0.337700786817223
"Nagaland","Longleng",566.247983352243,174.382134025712,68.1061138,6.76044369281943,97.4115971,37.0872939917106,94.7969027633226,26.5560411402698,161,0.233998221266866
"Nagaland","Mokokchung",1626.50035181354,289.026666184023,68.1061138,6.76044369281943,97.4115971,37.0872939917106,94.5287803004019,26.4692061419956,282,0.244674212166478
"Nagaland","Mon",2181.55258401615,292.52774179,68.1061138,6.76044369281943,97.4115971,37.0872939917106,95.0166853954915,26.6777819274955,233,0.320362321814213
"Nagaland","Peren",1713.66136545115,249.741662782367,68.1061138,6.76044369281943,97.4115971,37.0872939917106,93.6138421115235,25.4991135859336,217,0.345265251449876
"Nagaland","Phek",1854.72342854975,290.962565404567,68.1061138,6.76044369281943,97.4115971,37.0872939917106,94.5353184861464,25.646425769706,226,0.275305436473537
"Nagaland","Tuensang",2153.60188165323,270.63720702371,68.1061138,6.76044369281943,97.4115971,37.0872939917106,94.8857819781426,26.1689699905168,204,0.369487950686434
"Nagaland","Wokha",1628.47232145335,247.904055991041,68.1061138,6.76044369281943,97.4115971,37.0872939917106,94.1901550745776,26.1863796151089,189,0.332983704572233
"Nagaland","Zunheboto",1571.83534891318,281.822456718372,68.1061138,6.76044369281943,97.4115971,37.0872939917106,94.4828967266404,25.9944964612302,196,0.248694237600095
"Orissa","Anugul",6373.50111504537,577.236614147772,68.1061138,6.76044369281943,97.4115971,37.0872939917106,84.9054705582653,20.986511987337,340,0.240369958737955
"Orissa","Balangir",6551.41456171662,544.601030146123,68.1061138,6.76044369281943,97.4115971,37.0872939917106,83.1717731455635,20.5894927252562,349,0.277579908773906
"Orissa","Baleshwar",3798.0296840914,509.619973381019,68.1061138,6.76044369281943,97.4115971,37.0872939917106,86.9090947225039,21.4924382814158,376,0.183770305399718
"Orissa","Bargarh",5836.43136763748,580.129556883942,68.1061138,6.76044369281943,97.4115971,37.0872939917106,83.3495337460184,21.219809975858,351,0.217925103698535
"Orissa","Baudh",3102.78077771883,400.757738663487,68.1061138,6.76044369281943,97.4115971,37.0872939917106,84.1732656518414,20.6445598294363,204,0.242771175697174
"Orissa","Bhadrak",2507.94549780011,314.851262904143,68.1061138,6.76044369281943,97.4115971,37.0872939917106,86.6244855063243,20.9834464482231,208,0.317919435760025
"Orissa","Cuttack",3859.63983401163,595.752521199565,68.1061138,6.76044369281943,97.4115971,37.0872939917106,85.6965121649939,20.4533469507564,430,0.136654792200104
"Orissa","Debagarh",2947.58675535944,392.755534152853,68.1061138,6.76044369281943,97.4115971,37.0872939917106,84.7857259002629,21.4669687421208,252,0.240121934764704
"Orissa","Dhenkanal",4458.02117685807,391.413735726817,68.1061138,6.76044369281943,97.4115971,37.0872939917106,85.5239365439742,20.8271121882435,219,0.365662030855269
"Orissa","Gajapati",4108.21753833548,487.745109363564,68.1061138,6.76044369281943,97.4115971,37.0872939917106,84.1597183106944,19.1856836804786,347,0.217008852005715
"Orissa","Ganjam",8425.02355918163,657.440480503751,68.1061138,6.76044369281943,97.4115971,37.0872939917106,84.6715889334035,19.6221194230983,376,0.244944732998212
"Orissa","Jagatsinghapur",1733.90972779393,268.298577673067,68.1061138,6.76044369281943,97.4115971,37.0872939917106,86.3362306551125,20.2194442594101,155,0.302691068511149
"Orissa","Jajapur",2895.83036755174,411.448061192286,68.1061138,6.76044369281943,97.4115971,37.0872939917106,86.1491797683942,20.8560250998443,295,0.214957667886126
"Orissa","Jharsuguda",2149.96024697741,350.298230522776,68.1061138,6.76044369281943,97.4115971,37.0872939917106,83.9548486767837,21.8052827433927,183,0.220173175789511
"Orissa","Kalahandi",7898.55447140191,612.043516476638,68.1061138,6.76044369281943,97.4115971,37.0872939917106,83.1080182116904,19.867636913156,430,0.264967664737718
"Orissa","Kandhamal",8023.82734844373,623.143321124264,68.1061138,6.76044369281943,97.4115971,37.0872939917106,84.0460447014804,20.1281986788563,385,0.259666276306892
"Orissa","Kendrapara",2561.40066888223,372.944273407993,68.1061138,6.76044369281943,97.4115971,37.0872939917106,86.6148202648822,20.5549093435029,242,0.231419258015829
"Orissa","Kendujhar",8302.04676466644,631.828401752912,68.1061138,6.76044369281943,97.4115971,37.0872939917106,85.7025177869729,21.5377370078591,413,0.261334502456154
"Orissa","Khordha",2875.24125111139,596.911790479474,68.1061138,6.76044369281943,97.4115971,37.0872939917106,85.5143158825724,20.0908402253553,450,0.101406043849801
"Orissa","Koraput",8420.67675606784,795.042273857294,68.1061138,6.76044369281943,97.4115971,37.0872939917106,82.7207140504144,18.8119392092199,624,0.167408080747827
"Orissa","Malkangiri",5773.82989516406,479.456056523509,68.1061138,6.76044369281943,97.4115971,37.0872939917106,81.9502193823352,18.2575235709474,277,0.315628514100946
"Orissa","Mayurbhanj",10403.9603383919,734.236522737075,68.1061138,6.76044369281943,97.4115971,37.0872939917106,86.4083759571216,21.8954610391181,497,0.24251387150547
"Orissa","Nabarangapur",5450.15099390619,532.312260991318,68.1061138,6.76044369281943,97.4115971,37.0872939917106,82.3345770317356,19.576425616348,374,0.241704902455259
"Orissa","Nayagarh",3894.55498881667,417.632631980065,68.1061138,6.76044369281943,97.4115971,37.0872939917106,84.9979810215207,20.2132848087974,256,0.280594306036081
"Orissa","Nuapada",3850.03704837376,407.758866331756,68.1061138,6.76044369281943,97.4115971,37.0872939917106,82.5769651190147,20.4661499045428,251,0.290983220661933
"Orissa","Puri",3457.54201494463,455.011837051398,68.1061138,6.76044369281943,97.4115971,37.0872939917106,85.7247479744779,19.8792753867532,242,0.20986109784229
"Orissa","Rayagada",7334.92973637564,750.451787311672,68.1061138,6.76044369281943,97.4115971,37.0872939917106,83.512232405637,19.3636586647517,536,0.163666663659217
"Orissa","Sambalpur",6573.99317293564,621.167354663311,68.1061138,6.76044369281943,97.4115971,37.0872939917106,84.2748817333653,21.4491677334901,364,0.214102562879656
"Orissa","Subarnapur",2363.57400792973,330.290885533127,68.1061138,6.76044369281943,97.4115971,37.0872939917106,83.8227691985695,20.9310139724519,157,0.272261285465876
"Orissa","Sundargarh",9723.81622656403,778.523352232899,68.1061138,6.76044369281943,97.4115971,37.0872939917106,84.509265402638,22.0803207450097,442,0.201605937513333
"Puducherry","Karaikal",152.424925587069,93.8570122015713,68.1061138,6.76044369281943,97.4115971,37.0872939917106,79.8019219167377,10.9346550736519,74,0.217436478463547
"Puducherry","Mahe",7.39196382673357,14.8507541099458,68.1061138,6.76044369281943,97.4115971,37.0872939917106,75.5421930316147,11.7317785867334,12,0.421184792807106
"Puducherry","Pondicherry",302.060357691143,311.646800459965,68.1061138,6.76044369281943,97.4115971,37.0872939917106,79.7336254279054,11.9114280193656,243,0.0390821323641216
"Puducherry","Yanam",37.3090128864962,38.8251877152482,68.1061138,6.76044369281943,97.4115971,37.0872939917106,82.2549108359328,16.7265784018184,19,0.3110258562837
"Punjab","Amritsar",2678.33681125892,332.176525915661,68.1061138,6.76044369281943,97.4115971,37.0872939917106,74.9000114226205,31.7061182248676,231,0.305026222902513
"Punjab","Barnala",1415.40862958213,222.938117185902,68.1061138,6.76044369281943,97.4115971,37.0872939917106,75.4987617510923,30.3866687726785,158,0.357868147473465
"Punjab","Bathinda",3376.94169151753,395.85894419982,68.1061138,6.76044369281943,97.4115971,37.0872939917106,75.0412287430296,30.1832359893752,243,0.27080239556866
"Punjab","Faridkot",1476.5813215952,210.445033076998,68.1061138,6.76044369281943,97.4115971,37.0872939917106,74.7801365348443,30.612928369845,121,0.418976702560872
"Punjab","Fatehgarh sahib",1143.08349947811,222.576224734265,68.1061138,6.76044369281943,97.4115971,37.0872939917106,76.3757915482844,30.6431059929509,155,0.289954782370464
"Punjab","Fazilka",2741.61775716163,333.956696112797,68.1061138,6.76044369281943,97.4115971,37.0872939917106,74.1580441957597,30.2604852148674,141,0.308913193113968
"Punjab","Firozpur",2518.72738868947,349.990999908992,68.1061138,6.76044369281943,97.4115971,37.0872939917106,74.6837529465093,30.8974898805793,217,0.258390936336642
"Punjab","Gurdaspur",2615.94156236673,294.941997259771,68.1061138,6.76044369281943,97.4115971,37.0872939917106,75.2930329837471,31.9162602443012,213,0.377889363882164
"Punjab","Hoshiarpur",3373.41803966057,390.628271236426,68.1061138,6.76044369281943,97.4115971,37.0872939917106,75.8601005457377,31.6246662398534,244,0.27781307647012
"Punjab","Jalandhar",2631.00285783891,391.032327623147,68.1061138,6.76044369281943,97.4115971,37.0872939917106,75.5677627827193,31.2134493063237,271,0.216224976041169
"Punjab","Kapurthala",1630.1950333009,391.034052755359,68.1061138,6.76044369281943,97.4115971,37.0872939917106,75.401506996519,31.3550046935226,266,0.133973922077295
"Punjab","Ludhiana",3708.9195033719,359.30020360681,68.1061138,6.76044369281943,97.4115971,37.0872939917106,75.8342857934471,30.8050250580531,225,0.361029213383941
"Punjab","Mansa",2169.03695002729,314.01025845632,68.1061138,6.76044369281943,97.4115971,37.0872939917106,75.4398523770846,29.9075831499396,201,0.276432525629944
"Punjab","Moga",2234.44616620041,267.247780319498,68.1061138,6.76044369281943,97.4115971,37.0872939917106,75.1734714856955,30.7637783189957,169,0.393143904264971
"Punjab","Muktsar",2633.87667721985,332.93463045141,68.1061138,6.76044369281943,97.4115971,37.0872939917106,74.5397388448962,30.2995668824942,163,0.298598319171083
"Punjab","Pathankot",951.322127191948,229.695082180949,68.1061138,6.76044369281943,97.4115971,37.0872939917106,75.616713970321,32.2963045478332,155,0.226586519471814
"Punjab","Patiala",3319.75850400876,569.626474937805,68.1061138,6.76044369281943,97.4115971,37.0872939917106,76.3521478961045,30.2824100275785,412,0.128568928318874
"Punjab","Rupnagar",1375.45827994942,298.466169791005,68.1061138,6.76044369281943,97.4115971,37.0872939917106,76.4888769944945,31.0626449340794,200,0.194029185850768
"Punjab","S.a.s. nagar(mohali)",1095.20033050321,282.776375807482,68.1061138,6.76044369281943,97.4115971,37.0872939917106,76.7404412407626,30.6811474402712,200,0.172114390039816
"Punjab","S.b.s. nagar",1259.81899329671,238.771348013657,68.1061138,6.76044369281943,97.4115971,37.0872939917106,76.1533086585053,31.1106861245526,150,0.277685749605854
"Punjab","Sangrur",3604.85844885548,463.508407963348,68.1061138,6.76044369281943,97.4115971,37.0872939917106,75.869831701951,30.2120786067242,324,0.210854486826186
"Punjab","Tarn taran",2419.8387470384,282.709269112195,68.1061138,6.76044369281943,97.4115971,37.0872939917106,74.8409128002902,31.3369024175215,183,0.380466299919897
"Rajasthan","Ajmer",8457.04983834938,786.023862151318,68.1061138,6.76044369281943,97.4115971,37.0872939917106,74.7726132543543,26.2338826381491,447,0.17201142464889
"Rajasthan","Alwar",8374.54193721053,860.7441884106,68.1061138,6.76044369281943,97.4115971,37.0872939917106,76.6002340293873,27.5899556127204,584,0.142043945665468
"Rajasthan","Banswara",4455.78469357176,399.061735602439,68.1061138,6.76044369281943,97.4115971,37.0872939917106,74.3621864827249,23.4780700273668,224,0.351604064793047
"Rajasthan","Baran",6987.86749606834,617.795925329394,68.1061138,6.76044369281943,97.4115971,37.0872939917106,76.7463092796812,24.9975513784926,358,0.230072359361925
"Rajasthan","Barmer",28433.5024262784,1035.28251342747,68.1061138,6.76044369281943,97.4115971,37.0872939917106,71.476569779858,25.7375118007998,463,0.333366891974575
"Rajasthan","Bharatpur",5062.1575565012,682.663259916943,68.1061138,6.76044369281943,97.4115971,37.0872939917106,77.2744251014281,27.2467216073076,470,0.136499940355991
"Rajasthan","Bhilwara",10464.3226457031,714.760063371007,68.1061138,6.76044369281943,97.4115971,37.0872939917106,74.7272289377918,25.4828511193643,440,0.257395190924223
"Rajasthan","Bikaner",30235.2015958609,1108.76358605,68.1061138,6.76044369281943,97.4115971,37.0872939917106,73.1754080043394,28.1765415605599,542,0.309061440037044
"Rajasthan","Bundi",5766.29383919378,466.919394860504,68.1061138,6.76044369281943,97.4115971,37.0872939917106,75.789769157303,25.4867816316461,276,0.332370756407228
"Rajasthan","Chittaurgarh",7808.31782859076,959.020357238633,68.1061138,6.76044369281943,97.4115971,37.0872939917106,74.7765532524744,24.8238905004405,602,0.106687046975222
"Rajasthan","Churu",13825.1402870929,948.594655395591,68.1061138,6.76044369281943,97.4115971,37.0872939917106,74.6963465004494,28.343315365696,590,0.193071452614111
"Rajasthan","Dausa",3414.62981360083,478.246401619772,68.1061138,6.76044369281943,97.4115971,37.0872939917106,76.5090507199336,26.8572297398274,297,0.187607445414186
"Rajasthan","Dhaulpur",3033.79088217718,385.148488811787,68.1061138,6.76044369281943,97.4115971,37.0872939917106,77.6992508023762,26.6809930796728,243,0.257003542379911
"Rajasthan","Dungarpur",3780.46544162831,365.583561332817,68.1061138,6.76044369281943,97.4115971,37.0872939917106,73.8548387409983,23.7340796090526,203,0.355452700449364
"Rajasthan","Ganganagar",10695.7516324774,731.726441706309,68.1061138,6.76044369281943,97.4115971,37.0872939917106,73.5636976799925,29.3938689004128,257,0.251028872568804
"Rajasthan","Hanumangarh",9902.83630576821,836.151024823181,68.1061138,6.76044369281943,97.4115971,37.0872939917106,74.5486922667697,29.2677429117595,463,0.177991806730936
"Rajasthan","Jaipur",11120.8366358785,800.772230047235,68.1061138,6.76044369281943,97.4115971,37.0872939917106,75.7186857544024,26.9761149380555,525,0.217936171512915
"Rajasthan","Jaisalmer",38328.0442546747,1153.22899322902,68.1061138,6.76044369281943,97.4115971,37.0872939917106,70.9035859205923,27.0769544829754,379,0.362155777974626
"Rajasthan","Jalor",10605.44311495,718.604841615311,68.1061138,6.76044369281943,97.4115971,37.0872939917106,72.2148761156546,25.101104139816,394,0.258082409663388
"Rajasthan","Jhalawar",6303.65387070759,730.658479843339,68.1061138,6.76044369281943,97.4115971,37.0872939917106,76.1919976598586,24.3361301985977,463,0.148379315886367
"Rajasthan","Jhunjhunun",5907.63343289661,492.571175852333,68.1061138,6.76044369281943,97.4115971,37.0872939917106,75.5483498042331,28.0911768888479,328,0.305974627685932
"Rajasthan","Jodhpur",22640.483973266,995.332781523255,68.1061138,6.76044369281943,97.4115971,37.0872939917106,72.7875294636258,26.7476707440531,602,0.287183149812585
"Rajasthan","Karauli",4968.15601860982,499.241722284126,68.1061138,6.76044369281943,97.4115971,37.0872939917106,76.9586176498152,26.5218300629369,262,0.250485934706235
"Rajasthan","Kota",5116.92380333925,594.582737299811,68.1061138,6.76044369281943,97.4115971,37.0872939917106,76.1050696957889,25.1088073252125,336,0.181883884895808
"Rajasthan","Nagaur",17779.6365202948,903.08133826443,68.1061138,6.76044369281943,97.4115971,37.0872939917106,74.1762300035046,27.0654726875637,531,0.273954858199045
"Rajasthan","Pali",12356.3752603805,841.828158913113,68.1061138,6.76044369281943,97.4115971,37.0872939917106,73.519845331427,25.7071913385889,490,0.219105891766667
"Rajasthan","Pratapgarh",4454.85976669932,425.814659132626,68.1061138,6.76044369281943,97.4115971,37.0872939917106,74.6501479770465,24.0290459867119,241,0.308746956174463
"Rajasthan","Rajsamand",4613.96581623711,670.842447567775,68.1061138,6.76044369281943,97.4115971,37.0872939917106,73.894273834084,25.2323606062496,462,0.128837760464943
"Rajasthan","Sawai madhopur",5046.19032682463,546.25295711817,68.1061138,6.76044369281943,97.4115971,37.0872939917106,76.4601646727524,26.2206372464144,331,0.212513189150623
"Rajasthan","Sikar",7711.0436619685,682.837378269291,68.1061138,6.76044369281943,97.4115971,37.0872939917106,75.2880341090451,27.6332054270551,430,0.2078205327539
"Rajasthan","Sirohi",5120.23354607133,433.731431485869,68.1061138,6.76044369281943,97.4115971,37.0872939917106,72.7786002920586,24.7637368430553,231,0.342024993646906
"Rajasthan","Tonk",7180.64637045057,645.394192886907,68.1061138,6.76044369281943,97.4115971,37.0872939917106,75.6651361257049,26.1486679024641,446,0.216632342820142
"Rajasthan","Udaipur",11708.0958669808,834.799532486726,68.1061138,6.76044369281943,97.4115971,37.0872939917106,73.6905847544996,24.4214973998518,530,0.211121148358628
"Sikkim","East Sikkim",941.23815966014,154.007968007288,68.1061138,6.76044369281943,97.4115971,37.0872939917106,88.6743550113951,27.2898915789924,104,0.498681214470234
"Sikkim","North Sikkim",4337.87397827424,336.28744552109,68.1061138,6.76044369281943,97.4115971,37.0872939917106,88.5293526322757,27.7449177325257,196,0.48202047506887
"Sikkim","South Sikkim",701.789209267941,161.066147119156,68.1061138,6.76044369281943,97.4115971,37.0872939917106,88.386817730613,27.2796804950699,108,0.339944493077782
"Sikkim","West Sikkim",1213.66345206435,177.833517117151,68.1061138,6.76044369281943,97.4115971,37.0872939917106,88.1767171829159,27.3498599736717,114,0.482259622879317
"Tamil Nadu","Ariyalur",1938.0701203907,241.318721602266,68.1061138,6.76044369281943,97.4115971,37.0872939917106,79.2441443976982,11.1625202006546,155,0.418212797329028
"Tamil Nadu","Chennai",176.17943236629,66.801355311465,68.1061138,6.76044369281943,97.4115971,37.0872939917106,80.2432202173392,13.0641889748056,41,0.49612889646551
"Tamil Nadu","Coimbatore",4746.77478839896,515.868194420244,68.1061138,6.76044369281943,97.4115971,37.0872939917106,76.9766046110763,10.8777921948211,369,0.224145996375941
"Tamil Nadu","Cuddalore",3692.29248246684,481.9706870076,68.1061138,6.76044369281943,97.4115971,37.0872939917106,79.4501040269579,11.5354924591228,313,0.199739845100863
"Tamil Nadu","Dharmapuri",4497.31838915234,492.175541271468,68.1061138,6.76044369281943,97.4115971,37.0872939917106,78.1929324322189,12.1004028792763,291,0.233304676175455
"Tamil Nadu","Dindigul",6045.87605944873,589.079450773133,68.1061138,6.76044369281943,97.4115971,37.0872939917106,77.8199645394268,10.3919125589352,402,0.218938106349695
"Tamil Nadu","Erode",5760.23330080111,593.209890699959,68.1061138,6.76044369281943,97.4115971,37.0872939917106,77.4131957684981,11.5176153060711,377,0.205699469005101
"Tamil Nadu","Kancheepuram",4462.46137926472,420.408237842083,68.1061138,6.76044369281943,97.4115971,37.0872939917106,79.9414960885454,12.6799321563967,247,0.317279417667073
"Tamil Nadu","Kanniyakumari",1685.03273797902,229.268482633263,68.1061138,6.76044369281943,97.4115971,37.0872939917106,77.3598527025449,8.30750012040794,162,0.402837130466658
"Tamil Nadu","Karur",2898.59894157182,433.670075343543,68.1061138,6.76044369281943,97.4115971,37.0872939917106,78.1342622655288,10.8440396300222,254,0.193677460691558
"Tamil Nadu","Krishnagiri",5130.96622958423,598.187168402428,68.1061138,6.76044369281943,97.4115971,37.0872939917106,78.0313353642434,12.4904419143459,391,0.180191721588775
"Tamil Nadu","Madurai",3709.38868466109,500.953876232206,68.1061138,6.76044369281943,97.4115971,37.0872939917106,78.0057056446176,9.92265756897383,360,0.185744825537397
"Tamil Nadu","Nagapattinam",2575.35034625409,484.166838264285,68.1061138,6.76044369281943,97.4115971,37.0872939917106,79.7378978382884,10.8398917577997,299,0.138056259227172
"Tamil Nadu","Namakkal",3411.02136845678,396.860892941495,68.1061138,6.76044369281943,97.4115971,37.0872939917106,78.1356526372908,11.3186674928407,271,0.272155862364878
"Tamil Nadu","Perambalur",1757.27224125078,272.619222670651,68.1061138,6.76044369281943,97.4115971,37.0872939917106,78.891673592888,11.2748292712149,176,0.297122788649066
"Tamil Nadu","Pudukottai",4663.28944843168,652.464806251164,68.1061138,6.76044369281943,97.4115971,37.0872939917106,78.8796689728346,10.3602774740938,531,0.137653752494185
"Tamil Nadu","Ramanathapuram",4118.75411033227,675.541110644637,68.1061138,6.76044369281943,97.4115971,37.0872939917106,78.6871033297581,9.43730209609087,412,0.113415434859776
"Tamil Nadu","Salem",5237.0235218822,651.227847375405,68.1061138,6.76044369281943,97.4115971,37.0872939917106,78.222552405589,11.677265726859,414,0.155177396776474
"Tamil Nadu","Sivaganga",4237.84233413486,654.876238873796,68.1061138,6.76044369281943,97.4115971,37.0872939917106,78.5967778872621,9.91426725916993,517,0.124175578806373
"Tamil Nadu","Thanjavur",3408.38112912528,610.532913790097,68.1061138,6.76044369281943,97.4115971,37.0872939917106,79.2405808725109,10.6702002884274,474,0.114905244911439
"Tamil Nadu","The nilgiris",2546.02831912936,319.215384925718,68.1061138,6.76044369281943,97.4115971,37.0872939917106,76.640228633763,11.4572511034991,193,0.313982515861965
"Tamil Nadu","Theni",2873.69046989642,315.059463127876,68.1061138,6.76044369281943,97.4115971,37.0872939917106,77.4388419913172,9.89209094233706,216,0.363801758944756
"Tamil Nadu","Thiruvallur",3396.87946821747,628.63693114545,68.1061138,6.76044369281943,97.4115971,37.0872939917106,79.9464546427199,13.2390323150167,449,0.108016529196185
"Tamil Nadu","Thiruvarur",2293.737798229,420.481850011841,68.1061138,6.76044369281943,97.4115971,37.0872939917106,79.5335523089551,10.6751801834774,324,0.16302684605193
"Tamil Nadu","Thoothukkudi",4747.06929751355,460.069838762346,68.1061138,6.76044369281943,97.4115971,37.0872939917106,77.9979297412366,8.90264330017438,275,0.281830447426832
"Tamil Nadu","Tiruchirapalli",4510.78215397584,767.403878432887,68.1061138,6.76044369281943,97.4115971,37.0872939917106,78.5703935281385,10.8901102999178,501,0.0962528811196955
"Tamil Nadu","Tirunelveli",6692.51138388756,554.733793608037,68.1061138,6.76044369281943,97.4115971,37.0872939917106,77.5357037235715,8.79243529404369,394,0.27329377275597
"Tamil Nadu","Tiruppur",5171.48869426024,634.247376817135,68.1061138,6.76044369281943,97.4115971,37.0872939917106,77.4083028596325,10.8393193840944,412,0.161550417309263
"Tamil Nadu","Tiruvannamalai",6181.95354074215,666.155168566365,68.1061138,6.76044369281943,97.4115971,37.0872939917106,79.1665642939055,12.4326350700795,456,0.175059142660846
"Tamil Nadu","Vellore",6075.66970443802,738.113714792857,68.1061138,6.76044369281943,97.4115971,37.0872939917106,79.0088357420379,12.8136351700632,508,0.140138501760622
"Tamil Nadu","Villupuram",7215.42099123832,822.991682723799,68.1061138,6.76044369281943,97.4115971,37.0872939917106,79.2926511113833,11.9745780953362,570,0.133869193562071
"Tamil Nadu","Virudhunagar",4227.31952884903,520.401011215644,68.1061138,6.76044369281943,97.4115971,37.0872939917106,77.9051800583739,9.49253270951282,382,0.196154680935884
"Telangana","Adilabad",16147.8678175694,913.630837110699,68.1061138,6.76044369281943,97.4115971,37.0872939917106,78.976371128791,19.2547095092332,428,0.243099211727737
"Telangana","Hyderabad",182.66368227323,109.150645433613,68.1061138,6.76044369281943,97.4115971,37.0872939917106,78.4670660522279,17.3952660028022,97,0.192667940905186
"Telangana","Karimnagar",11886.8228813191,805.875001407187,68.1061138,6.76044369281943,97.4115971,37.0872939917106,79.2357380959924,18.5496391620943,408,0.230006594411576
"Telangana","Khammam",13098.2320111129,1071.78996899863,68.1061138,6.76044369281943,97.4115971,37.0872939917106,80.5571604550453,17.5819805681435,553,0.143285804577996
"Telangana","Mahabubnagar",18461.0438262993,1052.19389385046,68.1061138,6.76044369281943,97.4115971,37.0872939917106,78.1458733451892,16.4938622315772,588,0.20954367822854
"Telangana","Medak",9739.18682378568,785.07089461985,68.1061138,6.76044369281943,97.4115971,37.0872939917106,78.2111821781766,17.8863301375194,526,0.198570535611849
"Telangana","Nalgonda",14263.854839992,758.982706213738,68.1061138,6.76044369281943,97.4115971,37.0872939917106,79.2879723444703,17.067055144252,417,0.311159463276573
"Telangana","Nizamabad",7943.07453806277,548.662554691631,68.1061138,6.76044369281943,97.4115971,37.0872939917106,78.1407798123563,18.5267553221654,353,0.331579642802542
"Telangana","Rangareddy",7505.21719908474,936.97096182764,68.1061138,6.76044369281943,97.4115971,37.0872939917106,78.1734112437284,17.2867647953151,626,0.107428834943787
"Telangana","Warangal",12902.2836717781,874.410932167282,68.1061138,6.76044369281943,97.4115971,37.0872939917106,79.802351842432,17.9567500848489,465,0.212053425696972
"Tripura","Dhalai",2315.39889582853,290.698431108664,68.1061138,6.76044369281943,97.4115971,37.0872939917106,91.9285922547664,23.8448182802428,168,0.344310534116896
"Tripura","Gomati",1614.53818676551,267.390367626444,68.1061138,6.76044369281943,97.4115971,37.0872939917106,91.6324124949157,23.5156777424232,175,0.283770123155178
"Tripura","Khowai",1012.74819681683,184.886739326807,68.1061138,6.76044369281943,97.4115971,37.0872939917106,91.6597478561965,23.9443462398968,106,0.372305812092036
"Tripura","North",1357.66087892062,284.374221304665,68.1061138,6.76044369281943,97.4115971,37.0872939917106,92.2129818683183,24.1024603646421,217,0.210970007547661
"Tripura","Sepahijala",1043.75637544915,236.013979634137,68.1061138,6.76044369281943,97.4115971,37.0872939917106,91.3311298162852,23.586430531861,143,0.235468896940434
"Tripura","South",1512.11395206151,302.264453718149,68.1061138,6.76044369281943,97.4115971,37.0872939917106,91.5784389961118,23.203360284617,249,0.207979356556858
"Tripura","Unakoti",656.356026011882,140.191331434695,68.1061138,6.76044369281943,97.4115971,37.0872939917106,92.0343794888896,24.20861580119,86,0.419669125706487
"Tripura","West",975.028356235005,169.601612673352,68.1061138,6.76044369281943,97.4115971,37.0872939917106,91.4009554980307,23.8879206653913,101,0.425958368873434
"Union Territory of Jammu and Kashmir","Anantnag",2729.29304136126,344.071554110974,68.1061138,6.76044369281943,97.4115971,37.0872939917106,75.3247600998956,33.8263376824506,234,0.28970933800764
"Union Territory of Jammu and Kashmir","Badgam",1248.63549322959,189.822324096494,68.1061138,6.76044369281943,97.4115971,37.0872939917106,74.6346621673576,33.91813922508,127,0.435462706107155
"Union Territory of Jammu and Kashmir","Bandipura",2677.08532775613,306.603561177905,68.1061138,6.76044369281943,97.4115971,37.0872939917106,74.8759424525041,34.4922868286565,165,0.357863733226269
"Union Territory of Jammu and Kashmir","Baramula",2064.99739928057,266.154542995104,68.1061138,6.76044369281943,97.4115971,37.0872939917106,74.3027272604133,34.1583091336103,146,0.366320822761369
"Union Territory of Jammu and Kashmir","Doda",2414.40150098839,283.88796740363,68.1061138,6.76044369281943,97.4115971,37.0872939917106,75.7149033262865,33.0932035025293,149,0.376465675941712
"Union Territory of Jammu and Kashmir","Ganderbal",1622.39649754271,316.028715093733,68.1061138,6.76044369281943,97.4115971,37.0872939917106,75.0323164766836,34.2620348342849,224,0.204133260948006
"Union Territory of Jammu and Kashmir","Jammu",2409.15412840497,362.862418908735,68.1061138,6.76044369281943,97.4115971,37.0872939917106,74.7467702797749,32.8053272315714,246,0.229927261477838
"Union Territory of Jammu and Kashmir","Kathua",2511.34528290547,295.605946839827,68.1061138,6.76044369281943,97.4115971,37.0872939917106,75.5850059589043,32.5757161360873,213,0.361151945093792
"Union Territory of Jammu and Kashmir","Kishtwar",8181.15842900419,548.398050263639,68.1061138,6.76044369281943,97.4115971,37.0872939917106,75.9712755126055,33.5495300152109,355,0.341847857862324
"Union Territory of Jammu and Kashmir","Kulgam",1263.73487541203,244.458916217937,68.1061138,6.76044369281943,97.4115971,37.0872939917106,74.8598507562257,33.6063855026692,179,0.265738250132883
"Union Territory of Jammu and Kashmir","Kupwara",2746.42362047931,279.094153776167,68.1061138,6.76044369281943,97.4115971,37.0872939917106,74.2070374059819,34.5215142946989,161,0.443073637721055
"Union Territory of Jammu and Kashmir","Muzaffarabad",3762.15945570491,422.370569475905,68.1061138,6.76044369281943,97.4115971,37.0872939917106,73.9352570452163,33.2505621642523,249,0.265008475884278
"Union Territory of Jammu and Kashmir","Pulwama",896.95423150279,178.386135823435,68.1061138,6.76044369281943,97.4115971,37.0872939917106,75.0170685508706,33.9408811566359,130,0.354207661829257
"Union Territory of Jammu and Kashmir","Punch",4247.47819578043,384.977791992694,68.1061138,6.76044369281943,97.4115971,37.0872939917106,74.0166883910509,33.801495008522,222,0.360138596300305
"Union Territory of Jammu and Kashmir","Rajauri",2638.91224789531,295.600817676963,68.1061138,6.76044369281943,97.4115971,37.0872939917106,74.3808403578952,33.2781741974006,201,0.379510285567069
"Union Territory of Jammu and Kashmir","Ramban",1289.99036595536,163.536478682837,68.1061138,6.76044369281943,97.4115971,37.0872939917106,75.1896348809068,33.3073465259105,69,0.606131768198438
"Union Territory of Jammu and Kashmir","Reasi",1934.01743724188,314.347222447525,68.1061138,6.76044369281943,97.4115971,37.0872939917106,74.8316491299982,33.2387779036208,210,0.245952360387546
"Union Territory of Jammu and Kashmir","Samba",921.028460471846,195.320814968126,68.1061138,6.76044369281943,97.4115971,37.0872939917106,75.0909774551677,32.5824274547403,158,0.303379240018811
"Union Territory of Jammu and Kashmir","Shupiyan",506.918717046957,156.454392149571,68.1061138,6.76044369281943,97.4115971,37.0872939917106,74.8188014491446,33.7352389326836,108,0.260239174007643
"Union Territory of Jammu and Kashmir","Srinagar",282.109847816128,154.350506102359,68.1061138,6.76044369281943,97.4115971,37.0872939917106,74.8214510979423,34.1143726712304,125,0.148803105513185
"Union Territory of Jammu and Kashmir","Udhampur",2281.15182188434,275.582929926183,68.1061138,6.76044369281943,97.4115971,37.0872939917106,75.29692614757,32.8985429501073,181,0.377449998891364
"Union Territory of Ladakh","Chilas",4265.82394158119,311.068196998688,68.1061138,6.76044369281943,97.4115971,37.0872939917106,74.2162044178264,35.3845712205061,125,0.553989543379149
"Union Territory of Ladakh","Gilgit",33639.9662010352,1390.74498190284,68.1061138,6.76044369281943,97.4115971,37.0872939917106,74.547080813186,36.3167811186087,571,0.218559863929412
"Union Territory of Ladakh","Gilgit wazarat",5796.2007303478,474.28132815628,68.1061138,6.76044369281943,97.4115971,37.0872939917106,74.8604378957432,35.124342240273,195,0.323803267228284
"Union Territory of Ladakh","Kargil",14206.066875066,871.752893632583,68.1061138,6.76044369281943,97.4115971,37.0872939917106,76.4946941736151,33.9027929967428,494,0.234907521989589
"Union Territory of Ladakh","Leh",108670.269506919,2577.07789941177,68.1061138,6.76044369281943,97.4115971,37.0872939917106,77.7988541047977,34.6042697755816,1192,0.205620075896081
"Union Territory of Ladakh","Tribal territory",2741.61016245537,258.777268894675,68.1061138,6.76044369281943,97.4115971,37.0872939917106,73.6081704657734,35.7273371054854,88,0.514473861940629
"Uttar Pradesh","Agra",4031.50373523716,747.883999649026,68.1061138,6.76044369281943,97.4115971,37.0872939917106,78.0788569012385,27.0368722615858,510,0.0905750216725828
"Uttar Pradesh","Aligarh",3743.142307044,455.675852087959,68.1061138,6.76044369281943,97.4115971,37.0872939917106,78.060826030038,27.9263318377254,333,0.22653440696941
"Uttar Pradesh","Ambedkar Nagar",2360.47769717952,354.265912846327,68.1061138,6.76044369281943,97.4115971,37.0872939917106,82.6689061384501,26.4213424538092,282,0.236347510194351
"Uttar Pradesh","Amethi",2666.15185457323,401.35267588196,68.1061138,6.76044369281943,97.4115971,37.0872939917106,81.6876473989094,26.3344225875199,312,0.207989983284556
"Uttar Pradesh","Amroha",2213.45340728443,312.446143252527,68.1061138,6.76044369281943,97.4115971,37.0872939917106,78.331469472994,28.8114588645567,229,0.284924576987999
"Uttar Pradesh","Auraiya",2018.11598108274,268.833262685897,68.1061138,6.76044369281943,97.4115971,37.0872939917106,79.4802938503997,26.6578258112061,176,0.350905342036035
"Uttar Pradesh","Azamgarh",4212.26674015137,478.044405469715,68.1061138,6.76044369281943,97.4115971,37.0872939917106,83.0697043760421,26.0455450400194,392,0.231627035510404
"Uttar Pradesh","Baghpat",1322.26279661406,208.445674251328,68.1061138,6.76044369281943,97.4115971,37.0872939917106,77.3098384969205,29.0565815320759,136,0.382421119886528
"Uttar Pradesh","Bahraich",4870.02751166213,556.9191736763,68.1061138,6.76044369281943,97.4115971,37.0872939917106,81.4936074030797,27.6977245813469,333,0.197313562787785
"Uttar Pradesh","Ballia",2993.80882392465,424.452639563476,68.1061138,6.76044369281943,97.4115971,37.0872939917106,84.1045496162985,25.8760794130394,277,0.20882161524265
"Uttar Pradesh","Balrampur",3346.43156959574,417.680810937298,68.1061138,6.76044369281943,97.4115971,37.0872939917106,82.3772592752515,27.4839076804026,348,0.241047574524886
"Uttar Pradesh","Banda",4388.28491159833,626.5073320174,68.1061138,6.76044369281943,97.4115971,37.0872939917106,80.5571629492714,25.4746049135396,426,0.140492249020737
"Uttar Pradesh","Barabanki",3838.27341390089,475.491267579449,68.1061138,6.76044369281943,97.4115971,37.0872939917106,81.3342367913364,26.9378326089957,369,0.213334296903855
"Uttar Pradesh","Bareilly",4116.35109549883,452.998940456313,68.1061138,6.76044369281943,97.4115971,37.0872939917106,79.4338104378404,28.4577040690448,382,0.252073912070468
"Uttar Pradesh","Basti",2685.57066026627,346.142462464341,68.1061138,6.76044369281943,97.4115971,37.0872939917106,82.6340707394781,26.8207117825447,272,0.281667467995591
"Uttar Pradesh","Bhadhohi",1013.48578341189,253.543850604612,68.1061138,6.76044369281943,97.4115971,37.0872939917106,82.466317482239,25.347661257241,173,0.198116826001017
"Uttar Pradesh","Bijnor",4539.17876183703,365.7493471046,68.1061138,6.76044369281943,97.4115971,37.0872939917106,78.3942781996997,29.3830717782058,229,0.426402783840497
"Uttar Pradesh","Budaun",4259.26427836238,414.293920261759,68.1061138,6.76044369281943,97.4115971,37.0872939917106,79.0441338193096,28.0774505742768,318,0.311836776036287
"Uttar Pradesh","Bulandshahr",3673.44771173326,420.434512709802,68.1061138,6.76044369281943,97.4115971,37.0872939917106,78.0018542379434,28.3576445397982,312,0.261148182659913
"Uttar Pradesh","Chandauli",2543.90344644957,372.817131898022,68.1061138,6.76044369281943,97.4115971,37.0872939917106,83.2603617135431,25.1405000509226,276,0.229995196383576
"Uttar Pradesh","Chitrakoot",3252.79104042604,509.987187845293,68.1061138,6.76044369281943,97.4115971,37.0872939917106,81.0713474251453,25.2054188234124,354,0.157161982216706
"Uttar Pradesh","Deoria",2531.66533395931,377.45005725768,68.1061138,6.76044369281943,97.4115971,37.0872939917106,83.8361550668002,26.4202889034986,270,0.223304341996506
"Uttar Pradesh","Etah",2424.96935841575,453.398336344883,68.1061138,6.76044369281943,97.4115971,37.0872939917106,78.7179375526244,27.5154777434136,389,0.148236883139056
"Uttar Pradesh","Etawah",2318.89718882465,309.433551321217,68.1061138,6.76044369281943,97.4115971,37.0872939917106,79.0960528427419,26.7637338942914,210,0.304338261017411
"Uttar Pradesh","Faizabad",2747.69888731424,372.428909451137,68.1061138,6.76044369281943,97.4115971,37.0872939917106,82.0061460806756,26.6584240818994,298,0.248938593371985
"Uttar Pradesh","Farrukhabad",2180.82715505565,318.417502402657,68.1061138,6.76044369281943,97.4115971,37.0872939917106,79.4600892328944,27.4312457065073,284,0.270294523987697
"Uttar Pradesh","Fatehpur",4146.22891049282,423.215105418025,68.1061138,6.76044369281943,97.4115971,37.0872939917106,80.8095805812408,25.873537326998,221,0.290898056159071
"Uttar Pradesh","Firozabad",2420.51394181273,371.568772289348,68.1061138,6.76044369281943,97.4115971,37.0872939917106,78.5279172818255,27.1867207572926,265,0.220312448671667
"Uttar Pradesh","G.B. Nagar",1288.93367586194,338.079921695726,68.1061138,6.76044369281943,97.4115971,37.0872939917106,77.5343756769355,28.4158994053218,224,0.141710384498944
"Uttar Pradesh","Ghaziabad",874.499801523628,191.123755748825,68.1061138,6.76044369281943,97.4115971,37.0872939917106,77.4853284856658,28.7730878130668,136,0.30084322602177
"Uttar Pradesh","Ghazipur",3383.99683296267,388.975914269988,68.1061138,6.76044369281943,97.4115971,37.0872939917106,83.5573501188365,25.62345984396,321,0.281056990370327
