"state_name","district_name","area_sq_km","perimeter_km","bbox_xmin","bbox_ymin","bbox_xmax","bbox_ymax","centroid_lon","centroid_lat","num_vertices","compactness"
"Andaman and Nicobar Islands","Andaman and Nicobar Islands",1186.10657417342,194.770184045105,68.2119018142554,6.81202053088223,97.3581087919887,37.0058693128142,92.8132770796367,13.345029931239,50,0.392905970056165
"Andaman and Nicobar Islands","Andaman and Nicobar Islands",89.8894889285717,41.0005351008438,68.2119018142554,6.81202053088223,97.3581087919887,37.0058693128142,92.6012240751883,12.9750131488009,13,0.671954281872992
"Andaman and Nicobar Islands","Andaman and Nicobar Islands",1324.4271698954,158.000234494166,68.2119018142554,6.81202053088223,97.3581087919887,37.0058693128142,92.743067493152,12.6785579370016,31,0.666687761053048
"Andaman and Nicobar Islands","Andaman and Nicobar Islands",229.041648254981,64.9156973867676,68.2119018142554,6.81202053088223,97.3581087919887,37.0058693128142,92.7356830249761,12.2905705762725,20,0.683006552628876
"Andaman and Nicobar Islands","Andaman and Nicobar Islands",1089.77171929076,236.602383822572,68.2119018142554,6.81202053088223,97.3581087919887,37.0058693128142,92.6095496836598,11.9166630725639,67,0.244628563732338
"Andaman and Nicobar Islands","Andaman and Nicobar Islands",105.578891391907,42.5456990915872,68.2119018142554,6.81202053088223,97.3581087919887,37.0058693128142,92.5840532023065,11.4832815132971,17,0.732952166911592
"Andaman and Nicobar Islands","Andaman and Nicobar Islands",38.7899823923092,24.639873209216,68.2119018142554,6.81202053088223,97.3581087919887,37.0058693128142,92.6453928254214,11.3542108918716,13,0.802883455970087
"Andaman and Nicobar Islands","Andaman and Nicobar Islands",52.6549596221921,28.6080923941145,68.2119018142554,6.81202053088223,97.3581087919887,37.0058693128142,92.1721015519783,11.6441933099364,12,0.808483849272289
"Andaman and Nicobar Islands","Andaman and Nicobar Islands",768.891348562748,112.33477922285,68.2119018142554,6.81202053088223,97.3581087919887,37.0058693128142,92.4147912387424,10.7199332668533,35,0.765678347885669
"Andaman and Nicobar Islands","Andaman and Nicobar Islands",147.253419297609,47.140867781526,68.2119018142554,6.81202053088223,97.3581087919887,37.0058693128142,92.923327657763,12.0612439546406,24,0.832683782597532
"Andaman and Nicobar Islands","Andaman and Nicobar Islands",1089.89402675982,147.877788428678,68.2119018142554,6.81202053088223,97.3581087919887,37.0058693128142,93.8361747306262,7.05613522733809,55,0.626308408884266
"Andaman and Nicobar Islands","Andaman and Nicobar Islands",149.492745307787,53.7517052167953,68.2119018142554,6.81202053088223,97.3581087919887,37.0058693128142,93.7340909173129,7.42146714068588,23,0.650197789602854
"Andaman and Nicobar Islands","Andaman and Nicobar Islands",181.458352935737,52.5457995381391,68.2119018142554,6.81202053088223,97.3581087919887,37.0058693128142,93.3912353829148,7.99780627557565,23,0.8258683431875
"Andaman and Nicobar Islands","Andaman and Nicobar Islands",154.471922959902,66.9473796872968,68.2119018142554,6.81202053088223,97.3581087919887,37.0058693128142,93.5231751486599,8.10854320000177,29,0.433104055178353
"Andaman and Nicobar Islands","Andaman and Nicobar Islands",80.4729172899713,41.682189451631,68.2119018142554,6.81202053088223,97.3581087919887,37.0058693128142,93.1403588200446,8.34119565159895,18,0.582047680946044
"Andaman and Nicobar Islands","Andaman and Nicobar Islands",127.478186942038,43.0411071370577,68.2119018142554,6.81202053088223,97.3581087919887,37.0058693128142,92.7489464281669,9.21673461915822,20,0.864726710308066
"Andaman and Nicobar Islands","Andaman and Nicobar Islands",36.5122136929677,25.1342660284788,68.2119018142554,6.81202053088223,97.3581087919887,37.0058693128142,93.5869428554754,8.55943331304191,14,0.726299279940864
"Andaman and Nicobar Islands","Andaman and Nicobar Islands",11.6076316179092,12.6991209134599,68.2119018142554,6.81202053088223,97.3581087919887,37.0058693128142,92.1989175899212,11.0855059893394,10,0.904494986995943
"Andaman and Nicobar Islands","Andaman and Nicobar Islands",6.96001193495893,10.8057327743433,68.2119018142554,6.81202053088223,97.3581087919887,37.0058693128142,92.6046776953821,11.1840156827354,7,0.749051023689349
"Andaman and Nicobar Islands","Andaman and Nicobar Islands",9.9522663634609,12.2832081111584,68.2119018142554,6.81202053088223,97.3581087919887,37.0058693128142,92.6844048325056,11.1305412240157,8,0.828911633639956
"Andaman and Nicobar Islands","Andaman and Nicobar Islands",15.2643289079049,16.5023482686096,68.2119018142554,6.81202053088223,97.3581087919887,37.0058693128142,92.6210655831953,10.9996463853345,10,0.704362267410913
"Andaman and Nicobar Islands","Andaman and Nicobar Islands",5.81224766038835,9.15943083507881,68.2119018142554,6.81202053088223,97.3581087919887,37.0058693128142,92.5643062952686,10.9509770293178,8,0.870596667213425
"Andaman and Nicobar Islands","Andaman and Nicobar Islands",104.397562117468,52.1691350437842,68.2119018142554,6.81202053088223,97.3581087919887,37.0058693128142,79.2709897279273,9.21660631740792,15,0.482028757488581
"Andaman and Nicobar Islands","Andaman and Nicobar Islands",18.119089882869,15.8644611577994,68.2119018142554,6.81202053088223,97.3581087919887,37.0058693128142,79.2171906086866,9.13662830323534,9,0.904681255319362
"Andhra Pradesh","Adilabad",15586.4503825494,696.222725352639,68.2119018142554,6.81202053088223,97.3581087919887,37.0058693128142,78.9725177315168,19.2432352281343,117,0.404073803367503
"Andhra Pradesh","Anantapur",18766.0632446975,860.523746424981,68.2119018142554,6.81202053088223,97.3581087919887,37.0058693128142,77.5786252580901,14.5313092996326,175,0.318461782057713
"Andhra Pradesh","Chittoor",15441.8822564937,766.673411329746,68.2119018142554,6.81202053088223,97.3581087919887,37.0058693128142,79.024453555496,13.483504507772,148,0.330133272406473
"Andhra Pradesh","Cuddapah",15499.4957383991,597.266411798429,68.2119018142554,6.81202053088223,97.3581087919887,37.0058693128142,78.7833905439103,14.4921606219192,115,0.54599824736264
"Andhra Pradesh","East Godavari",10874.0029558353,597.441687354345,68.2119018142554,6.81202053088223,97.3581087919887,37.0058693128142,81.9973678557455,17.1635605756513,139,0.382832028910667
"Andhra Pradesh","Guntur",13737.3563034161,641.978774065824,68.2119018142554,6.81202053088223,97.3581087919887,37.0058693128142,80.0740087111797,16.1971172922706,124,0.418862700544506
"Andhra Pradesh","Hyderabad",7481.76974866395,532.501316072808,68.2119018142554,6.81202053088223,97.3581087919887,37.0058693128142,78.1733419170619,17.3032192292905,122,0.331568169563095
"Andhra Pradesh","Karimnagar",11423.6366438114,623.394210812853,68.2119018142554,6.81202053088223,97.3581087919887,37.0058693128142,79.2287188357444,18.5504232404348,133,0.36939304582829
"Andhra Pradesh","Khammam",15990.8206698891,850.032590681007,68.2119018142554,6.81202053088223,97.3581087919887,37.0058693128142,80.6773669580225,17.6000046775481,186,0.278105426260616
"Andhra Pradesh","Krishna",9150.51637297285,635.586335342697,68.2119018142554,6.81202053088223,97.3581087919887,37.0058693128142,80.7966348778808,16.5398327930984,162,0.284646837623337
"Andhra Pradesh","Kurnool",24726.3763201081,841.567856718271,68.2119018142554,6.81202053088223,97.3581087919887,37.0058693128142,78.3461973230656,15.6296756753516,160,0.438724673821996
"Andhra Pradesh","Mahbubnagar",18009.7983812317,765.332274117513,68.2119018142554,6.81202053088223,97.3581087919887,37.0058693128142,78.1448215657033,16.5187674000531,136,0.38638357732191
"Andhra Pradesh","Medak",9859.2870237876,539.084119504899,68.2119018142554,6.81202053088223,97.3581087919887,37.0058693128142,78.2134228476232,17.9020978289761,126,0.426326468933618
"Andhra Pradesh","Nalgonda",14188.3612601927,542.321112941324,68.2119018142554,6.81202053088223,97.3581087919887,37.0058693128142,79.2747367853192,17.0770134582701,103,0.606218349139816
"Andhra Pradesh","Nellore",20122.8380087034,818.784982154199,68.2119018142554,6.81202053088223,97.3581087919887,37.0058693128142,79.7096411316082,14.8183966101161,171,0.377189294802979
"Andhra Pradesh","Nizamabad",7693.50016997795,385.349951522599,68.2119018142554,6.81202053088223,97.3581087919887,37.0058693128142,78.1445034166429,18.5319101102477,76,0.651063298822823
"Andhra Pradesh","Srikakulam",10307.0365173755,588.066482651079,68.2119018142554,6.81202053088223,97.3581087919887,37.0058693128142,83.6635830726856,18.5776866182464,144,0.374533634049178
"Andhra Pradesh","Visakhapatnam",12827.3259796101,638.547856887949,68.2119018142554,6.81202053088223,97.3581087919887,37.0058693128142,82.722141095462,17.8767515073206,126,0.395329380869278
"Andhra Pradesh","Warangal",12594.7871660105,614.474459045392,68.2119018142554,6.81202053088223,97.3581087919887,37.0058693128142,79.7874172910593,17.9507265076531,149,0.419172733859375
"Andhra Pradesh","West Godavari",7739.70774066803,419.434685653616,68.2119018142554,6.81202053088223,97.3581087919887,37.0058693128142,81.3634891662197,16.9006738230176,80,0.552847998167237
"Assam","Cachar",7113.48168092937,409.133940989918,68.2119018142554,6.81202053088223,97.3581087919887,37.0058693128142,92.5632948139493,24.7476706749524,85,0.534024353516329
"Assam","Darrang",8407.08041553691,516.583782910078,68.2119018142554,6.81202053088223,97.3581087919887,37.0058693128142,92.5539249087835,26.7677533805064,80,0.395889085912379
"Assam","Garo Hills",8019.39952494616,429.309985595996,68.2119018142554,6.81202053088223,97.3581087919887,37.0058693128142,90.3689948334467,25.6021038445271,83,0.546776365996411
"Assam","Goalpara",10599.9534133522,618.180868246917,68.2119018142554,6.81202053088223,97.3581087919887,37.0058693128142,90.2662577139426,26.3346350065981,124,0.348564135987123
"Assam","Kamrup",10363.0332781185,534.984153329873,68.2119018142554,6.81202053088223,97.3581087919887,37.0058693128142,91.321960594915,26.3608338279575,118,0.455003692065573
"Assam","Lakhimpur",12792.3360482053,680.256030654547,68.2119018142554,6.81202053088223,97.3581087919887,37.0058693128142,94.9698425710141,27.4828949984747,123,0.347388088049066
"Assam","Mizo Hills",19613.187628106,760.370468502922,68.2119018142554,6.81202053088223,97.3581087919887,37.0058693128142,92.679016288753,23.3955436172789,164,0.426292374916135
"Assam","Nowgong",5689.32650127503,497.35122703625,68.2119018142554,6.81202053088223,97.3581087919887,37.0058693128142,92.6651521501067,26.295524828675,126,0.289030939434496
"Assam","Sibsagar",8922.15801683829,661.946696578789,68.2119018142554,6.81202053088223,97.3581087919887,37.0058693128142,94.2307760274934,26.7719566771424,114,0.255878464713836
"Assam","United Khasi and Jaintia Hills",13428.3160446964,615.117969496271,68.2119018142554,6.81202053088223,97.3581087919887,37.0058693128142,91.7296857091825,25.5671721992656,131,0.445979185013783
"Assam","United Mikir and North Cachar Hills",14913.3120337218,804.531585434704,68.2119018142554,6.81202053088223,97.3581087919887,37.0058693128142,93.0615975993588,25.9176441154288,177,0.28953280043127
"Bihar","Bhagalpur",5741.92463058823,363.006428050268,68.2119018142554,6.81202053088223,97.3581087919887,37.0058693128142,86.9202503772481,25.0724790417704,79,0.547568832959769
"Bihar","Champaran",8676.43892242023,460.764816802374,68.2119018142554,6.81202053088223,97.3581087919887,37.0058693128142,84.5883714955,26.8813180342074,73,0.513561854584444
"Bihar","Darbhanga",8477.99222446889,426.713783366082,68.2119018142554,6.81202053088223,97.3581087919887,37.0058693128142,86.0384315925491,26.1392582869457,76,0.585099241770263
"Bihar","Dhanbad",3201.56731803186,266.885102674425,68.2119018142554,6.81202053088223,97.3581087919887,37.0058693128142,86.3834612557829,23.777683502361,57,0.564837909573326
"Bihar","Gaya",12443.2776910868,594.798047783309,68.2119018142554,6.81202053088223,97.3581087919887,37.0058693128142,84.8890468746707,24.8284031128065,132,0.441983023358507
"Bihar","Hazaribagh",18514.0168209256,675.074154921065,68.2119018142554,6.81202053088223,97.3581087919887,37.0058693128142,85.5340333229477,24.1230583706139,161,0.510513880971417
"Bihar","Monghyr",10282.6275010448,563.466908060272,68.2119018142554,6.81202053088223,97.3581087919887,37.0058693128142,86.2661103130134,25.2144702625007,148,0.406983813225003
"Bihar","Muzaffarpur",7489.89643698028,419.831310394309,68.2119018142554,6.81202053088223,97.3581087919887,37.0058693128142,85.38200997767,26.2126716147588,69,0.533993570256704
"Bihar","Palamau",12938.9904733548,559.603325736718,68.2119018142554,6.81202053088223,97.3581087919887,37.0058693128142,84.0722421724466,24.0072066372878,111,0.519217932405521
"Bihar","Patna",5723.93837611613,389.977682084318,68.2119018142554,6.81202053088223,97.3581087919887,37.0058693128142,85.2897876151216,25.3933388339352,93,0.47296097347068
"Bihar","Purnea",10812.519616937,520.42037142228,68.2119018142554,6.81202053088223,97.3581087919887,37.0058693128142,87.522806696578,25.9586553616406,72,0.501681626496349
"Bihar","Ranchi",17683.1753179462,680.50128863785,68.2119018142554,6.81202053088223,97.3581087919887,37.0058693128142,84.8293026456023,23.0683825860965,131,0.479857418000304
"Bihar","Saharsa",5450.11234923326,354.233309761832,68.2119018142554,6.81202053088223,97.3581087919887,37.0058693128142,86.7708310684386,26.0446622394649,52,0.545803762389068
"Bihar","Santal Parganas",13947.1062828949,561.235309669635,68.2119018142554,6.81202053088223,97.3581087919887,37.0058693128142,87.1934243069699,24.5229321465325,114,0.55642162652224
"Bihar","Saran",6772.2684020455,377.833754211026,68.2119018142554,6.81202053088223,97.3581087919887,37.0058693128142,84.539935159169,26.163004209203,57,0.596132115082136
"Bihar","Shahabad",11556.6554357975,473.600770704953,68.2119018142554,6.81202053088223,97.3581087919887,37.0058693128142,83.9951109302579,25.1731936828604,57,0.647466388355134
"Bihar","Singhbhum",13562.2668842012,663.747419971741,68.2119018142554,6.81202053088223,97.3581087919887,37.0058693128142,85.7573190336125,22.5516134970746,114,0.386844528366012
"Dadra and Nagar Haveli","Dadra and Nagar Haveli",580.569537025226,115.647681283847,68.2119018142554,6.81202053088223,97.3581087919887,37.0058693128142,73.0937817808077,20.2178796887608,32,0.545494340302715
"Delhi","Delhi",1575.70320140293,164.2047205939,68.2119018142554,6.81202053088223,97.3581087919887,37.0058693128142,77.1309296974837,28.5536899798241,28,0.734366750084788
"Goa, Daman and Diu","Daman",176.132753777838,62.7646835245433,68.2119018142554,6.81202053088223,97.3581087919887,37.0058693128142,72.8663946767312,20.4213751780168,27,0.561848599353277
"Goa, Daman and Diu","Diu",45.7235824557717,25.0591497277646,68.2119018142554,6.81202053088223,97.3581087919887,37.0058693128142,70.9420003142495,20.7809034966408,14,0.914992326925517
"Goa, Daman and Diu","Goa",3719.36385012925,295.986274364539,68.2119018142554,6.81202053088223,97.3581087919887,37.0058693128142,74.044671242039,15.4672307504712,78,0.533501181226753
"Gujarat","Ahmedabad",8529.80357064028,626.890084852293,68.2119018142554,6.81202053088223,97.3581087919887,37.0058693128142,72.2924610450528,22.7992153485115,155,0.272750837179764
"Gujarat","Amreli",6147.26758506109,599.246117215932,68.2119018142554,6.81202053088223,97.3581087919887,37.0058693128142,71.1888035921446,21.4541258008281,203,0.215120364236354
"Gujarat","Banaskantha",10698.980242518,591.961787223229,68.2119018142554,6.81202053088223,97.3581087919887,37.0058693128142,71.9773480018326,24.1972372558018,133,0.383676238880306
"Gujarat","Baroda",7360.55300904047,557.134895707308,68.2119018142554,6.81202053088223,97.3581087919887,37.0058693128142,73.5440240899866,22.2234602055807,178,0.297988556732375
"Gujarat","Bhavnagar",8034.24976513181,524.228858174529,68.2119018142554,6.81202053088223,97.3581087919887,37.0058693128142,71.7441792393848,21.637431051022,145,0.367378167423771
"Gujarat","Broach",7653.70273314259,626.793524996489,68.2119018142554,6.81202053088223,97.3581087919887,37.0058693128142,73.2007748060453,21.7709194896116,249,0.24481185891121
"Gujarat","Dangs",2044.43806112801,186.131542369773,68.2119018142554,6.81202053088223,97.3581087919887,37.0058693128142,73.6749915087727,20.8126977426656,38,0.741555856900247
"Gujarat","Jamnagar",10031.2849611967,689.693826596291,68.2119018142554,6.81202053088223,97.3581087919887,37.0058693128142,69.946333117243,22.2640041334107,210,0.265004808577983
"Gujarat","Junagadh",10193.1272805795,666.740904753425,68.2119018142554,6.81202053088223,97.3581087919887,37.0058693128142,70.388653328467,21.3668864310473,204,0.288139707641075
"Gujarat","Kaira",6730.89116761933,423.10776013795,68.2119018142554,6.81202053088223,97.3581087919887,37.0058693128142,72.9173999027616,22.6805817421095,120,0.472476759556458
"Gujarat","Kutch",19365.0762534649,906.536106490732,68.2119018142554,6.81202053088223,97.3581087919887,37.0058693128142,69.6802126750169,23.3978034591994,200,0.296113946745728
"Gujarat","Mehsana",9200.83537172547,559.013211578594,68.2119018142554,6.81202053088223,97.3581087919887,37.0058693128142,72.2556444692241,23.6187092930284,130,0.369992550544379
"Gujarat","Panchmahals",8724.55214116744,420.487075707625,68.2119018142554,6.81202053088223,97.3581087919887,37.0058693128142,73.8506532974633,22.8460278023441,112,0.6200799704807
"Gujarat","Rajkot",12589.9432571081,1361.58158028062,68.2119018142554,6.81202053088223,97.3581087919887,37.0058693128142,70.8689797733922,22.4567363260428,398,0.0853387547939897
"Gujarat","Sabarkantha",7455.92858790507,441.836156069224,68.2119018142554,6.81202053088223,97.3581087919887,37.0058693128142,73.1641910185844,23.6405649599651,103,0.479942379030099
"Gujarat","Surat",12474.5596525326,844.494608150562,68.2119018142554,6.81202053088223,97.3581087919887,37.0058693128142,73.2532156113292,20.9815145500924,309,0.219806902368892
"Gujarat","Surendranagar",9749.17309968769,590.950991519213,68.2119018142554,6.81202053088223,97.3581087919887,37.0058693128142,71.5489828957812,22.7716077930856,181,0.350812221021141
"Himachal Pradesh","Bilaspur",1126.17900439554,153.089192687541,68.2119018142554,6.81202053088223,97.3581087919887,37.0058693128142,76.6176260226255,31.3108135535766,29,0.603848823968733
"Himachal Pradesh","Chamba",6114.98422839815,446.528004009544,68.2119018142554,6.81202053088223,97.3581087919887,37.0058693128142,76.2887556140394,32.5921819767229,79,0.385396533084577
"Himachal Pradesh","Kinnaur",6572.34831884762,396.311397688366,68.2119018142554,6.81202053088223,97.3581087919887,37.0058693128142,78.398289843455,31.5460858303995,74,0.525844469716801
"Himachal Pradesh","Mahasu",6822.68869588235,522.008995433814,68.2119018142554,6.81202053088223,97.3581087919887,37.0058693128142,77.4684130038102,31.1213522336542,82,0.314636748896847
"Himachal Pradesh","Mandi",3991.22421772608,263.071835360633,68.2119018142554,6.81202053088223,97.3581087919887,37.0058693128142,76.9359806518793,31.5894295186781,44,0.72471505063452
"Himachal Pradesh","Sirmur",3105.36176036278,242.038197601565,68.2119018142554,6.81202053088223,97.3581087919887,37.0058693128142,77.4199323588806,30.5821895984747,36,0.666122716413684
"Jammu and Kashmir","Anantnag",4771.37529913996,401.081720287373,68.2119018142554,6.81202053088223,97.3581087919887,37.0058693128142,75.1138416892381,33.6003950303333,51,0.37272429669268
"Jammu and Kashmir","Baramulla",11132.7047548964,486.788861560066,68.2119018142554,6.81202053088223,97.3581087919887,37.0058693128142,74.3700521095749,34.2078157932917,36,0.590376810958551
"Jammu and Kashmir","Doda
 Doda
",11378.6354486136,585.394718245669,68.2119018142554,6.81202053088223,97.3581087919887,37.0058693128142,75.7729677401381,33.3105810682055,84,0.417255863468842
"Jammu and Kashmir","Jammu
",2995.58938081011,293.940217785838,68.2119018142554,6.81202053088223,97.3581087919887,37.0058693128142,74.7358966039302,32.5870381249135,39,0.435686519943546
"Jammu and Kashmir","Kathua",2326.57567451319,225.498799694525,68.2119018142554,6.81202053088223,97.3581087919887,37.0058693128142,75.4989001953331,32.4354301372973,37,0.574961252613291
"Jammu and Kashmir","Ladakh",181171.485590309,3075.70178384076,68.2119018142554,6.81202053088223,97.3581087919887,37.0058693128142,76.5709885907571,34.8339580920713,531,0.240664071924467
"Jammu and Kashmir","Poonch",6956.67068688372,326.445262846407,68.2119018142554,6.81202053088223,97.3581087919887,37.0058693128142,74.1248930081935,33.2078083067633,30,0.82033372766891
"Jammu and Kashmir","Srinagar",4087.31919126905,307.307697177698,68.2119018142554,6.81202053088223,97.3581087919887,37.0058693128142,74.776586955229,33.8536670571687,41,0.543878062793626
"Jammu and Kashmir","Udhampur",4391.47002830991,336.720705481017,68.2119018142554,6.81202053088223,97.3581087919887,37.0058693128142,75.0266263034043,32.8752511807098,43,0.486721063995097
"Kerala","Alleppey",1525.42263014564,255.884440582946,68.2119018142554,6.81202053088223,97.3581087919887,37.0058693128142,76.4219201997435,9.41650200941632,63,0.292760372742406
"Kerala","Cannanore",7390.53837611464,466.875725482867,68.2119018142554,6.81202053088223,97.3581087919887,37.0058693128142,75.3871159612144,12.2615044781083,88,0.426072350891102
"Kerala","Ernakulam",3375.29352452823,320.413375109579,68.2119018142554,6.81202053088223,97.3581087919887,37.0058693128142,76.536312979854,10.0575396600347,79,0.413142750868285
"Kerala","Kottayam",7097.02396745352,577.440231512301,68.2119018142554,6.81202053088223,97.3581087919887,37.0058693128142,76.8934050519713,9.84524908392492,136,0.26746814040388
"Kerala","Kozhikode",8213.90686166821,455.838357206668,68.2119018142554,6.81202053088223,97.3581087919887,37.0058693128142,76.0234261260899,11.4211004562572,80,0.496750032921881
"Kerala","Palghat",4539.24398667592,405.31312396773,68.2119018142554,6.81202053088223,97.3581087919887,37.0058693128142,76.5289503621738,10.847279100256,58,0.347225856811358
"Kerala","Quilon",5472.16050962981,355.846610715382,68.2119018142554,6.81202053088223,97.3581087919887,37.0058693128142,76.857195251991,9.14863773583275,78,0.543054009108019
"Kerala","Trichur",3560.4802980516,317.736250695903,68.2119018142554,6.81202053088223,97.3581087919887,37.0058693128142,76.2715917461699,10.553872552542,49,0.443184862242687
"Kerala","Trivandrum",2771.17922379454,235.543050142588,68.2119018142554,6.81202053088223,97.3581087919887,37.0058693128142,76.9632505210317,8.63478337746156,48,0.627673638392743
"Laccadive, Minicoy and Amindivi Islands","Laccadive, Minicoy and Amindivi Islands",37.5592614189938,25.1478599149185,68.2119018142554,6.81202053088223,97.3581087919887,37.0058693128142,72.1579381481956,11.1183118414617,12,0.746319591954476
"Madhya Pradesh","Balaghat",8771.91515479223,480.411967003164,68.2119018142554,6.81202053088223,97.3581087919887,37.0058693128142,80.3577604565873,21.8673037216067,113,0.477613564176326
"Madhya Pradesh","Bastar",38846.5011628997,968.409460925592,68.2119018142554,6.81202053088223,97.3581087919887,37.0058693128142,81.2582017180148,19.2034962996999,175,0.520527556079727
"Madhya Pradesh","Betul",9904.81207799425,508.387770587018,68.2119018142554,6.81202053088223,97.3581087919887,37.0058693128142,77.8594154890495,21.8712869211704,128,0.481577196699237
"Madhya Pradesh","Bhind",4275.69577544398,303.767104622055,68.2119018142554,6.81202053088223,97.3581087919887,37.0058693128142,78.7128685165532,26.3756545495546,61,0.582284429833092
"Madhya Pradesh","Bilaspur",19948.8688827463,663.766785473181,68.2119018142554,6.81202053088223,97.3581087919887,37.0058693128142,82.2687132371623,22.3058685598069,125,0.568980138126698
"Madhya Pradesh","Chhatarpur",8410.91851100491,528.94915187599,68.2119018142554,6.81202053088223,97.3581087919887,37.0058693128142,79.6618242882871,24.7401615447267,128,0.377768236808184
"Madhya Pradesh","Chhindwara",11466.5272390888,502.941844719254,68.2119018142554,6.81202053088223,97.3581087919887,37.0058693128142,78.8557102059422,22.095124935154,133,0.569647545346088
"Madhya Pradesh","Damoh",7387.31615437858,413.819849633261,68.2119018142554,6.81202053088223,97.3581087919887,37.0058693128142,79.5240980728918,23.7722058681182,107,0.54209314162873
"Madhya Pradesh","Datia",1986.65657579751,229.084832271151,68.2119018142554,6.81202053088223,97.3581087919887,37.0058693128142,78.5443745778799,25.8147742746948,52,0.475707493040674
"Madhya Pradesh","Dewas",6910.52177649855,468.394042688919,68.2119018142554,6.81202053088223,97.3581087919887,37.0058693128142,76.4387860582346,22.7159383350506,128,0.395820222179669
"Madhya Pradesh","Dhar",8408.35951372562,445.384868025181,68.2119018142554,6.81202053088223,97.3581087919887,37.0058693128142,75.1114245906075,22.4692966718163,102,0.532660166986878
"Madhya Pradesh","Durg",18936.9343639176,730.110030213707,68.2119018142554,6.81202053088223,97.3581087919887,37.0058693128142,81.0979028478917,21.243445965156,130,0.446419244678168
"Madhya Pradesh","East Nimar",10961.0226977948,495.420356359174,68.2119018142554,6.81202053088223,97.3581087919887,37.0058693128142,76.5058430135833,21.7492329142151,128,0.561194293627187
"Madhya Pradesh","Guna",11043.7997574518,592.566953774578,68.2119018142554,6.81202053088223,97.3581087919887,37.0058693128142,77.4645188890916,24.5350817671663,144,0.395233302562885
"Madhya Pradesh","Gwalior",5270.41856943121,393.860720853118,68.2119018142554,6.81202053088223,97.3581087919887,37.0058693128142,78.2160055987361,25.9732388229822,98,0.426942735960298
"Madhya Pradesh","Hoshangabad",9736.01758964265,555.107578134837,68.2119018142554,6.81202053088223,97.3581087919887,37.0058693128142,77.6935421932755,22.4410532050436,146,0.397042412866175
"Madhya Pradesh","Indore",3704.06124384507,292.471158924798,68.2119018142554,6.81202053088223,97.3581087919887,37.0058693128142,75.7789938275878,22.6981432497698,85,0.544154131347397
"Madhya Pradesh","Jabalpur",10050.6990805555,579.53895049428,68.2119018142554,6.81202053088223,97.3581087919887,37.0058693128142,80.1870075290971,23.4583313654718,150,0.376045914247905
"Madhya Pradesh","Jhabua",6477.29514310848,452.136558997735,68.2119018142554,6.81202053088223,97.3581087919887,37.0058693128142,74.5151864871012,22.5497433833456,89,0.398166118038172
"Madhya Pradesh","Mandla",13353.2739195268,612.765515185181,68.2119018142554,6.81202053088223,97.3581087919887,37.0058693128142,80.7446876928497,22.7149813184981,188,0.446898594885036
"Madhya Pradesh","Mandsaur",9454.58520056472,556.80203031494,68.2119018142554,6.81202053088223,97.3581087919887,37.0058693128142,75.2889006537649,24.3257418707873,111,0.383222256232412
"Madhya Pradesh","Morena",11068.7366965749,601.695973452369,68.2119018142554,6.81202053088223,97.3581087919887,37.0058693128142,77.3655497139932,25.9850906484185,90,0.384196770717855
"Madhya Pradesh","Narsimhapur",5198.96069325145,352.68735235826,68.2119018142554,6.81202053088223,97.3581087919887,37.0058693128142,79.0881087381339,22.8959982740492,95,0.525226495544908
"Madhya Pradesh","Panna",6707.07420490031,411.680125485052,68.2119018142554,6.81202053088223,97.3581087919887,37.0058693128142,80.1718022270499,24.3805676187812,87,0.497305397413832
"Madhya Pradesh","Raigarh",12810.8850868559,720.426951111072,68.2119018142554,6.81202053088223,97.3581087919887,37.0058693128142,83.5209046970712,22.389930238211,148,0.310176646948163
"Madhya Pradesh","Raipur",20864.1740648982,819.400581900705,68.2119018142554,6.81202053088223,97.3581087919887,37.0058693128142,82.1688060508111,20.9743443282511,156,0.390497740442106
"Madhya Pradesh","Raisen",8663.23740505327,507.685406930559,68.2119018142554,6.81202053088223,97.3581087919887,37.0058693128142,78.1120430243669,23.1868012314505,144,0.422377445902311
"Madhya Pradesh","Rajgarh",5955.55446069811,332.506524448344,68.2119018142554,6.81202053088223,97.3581087919887,37.0058693128142,76.7151722818542,23.8237085615947,80,0.676911233731121
"Madhya Pradesh","Ratlam",4563.08399265905,375.873872989286,68.2119018142554,6.81202053088223,97.3581087919887,37.0058693128142,75.0963102708413,23.4531728515907,89,0.405867287531866
"Madhya Pradesh","Rewa",6199.50122087317,343.177621097296,68.2119018142554,6.81202053088223,97.3581087919887,37.0058693128142,81.5649749459233,24.7256618056649,51,0.66149824316258
"Madhya Pradesh","Sagar",10435.1203958564,568.653068904969,68.2119018142554,6.81202053088223,97.3581087919887,37.0058693128142,78.7486376165929,23.8141562488391,150,0.405520257117865
"Madhya Pradesh","Satna",7295.47233334149,456.575575011683,68.2119018142554,6.81202053088223,97.3581087919887,37.0058693128142,80.7964479128289,24.5053746696581,92,0.439782485435652
"Madhya Pradesh","Sehore",9437.16032862369,613.314261470542,68.2119018142554,6.81202053088223,97.3581087919887,37.0058693128142,77.2036593644528,23.099622469822,157,0.315271759400796
"Madhya Pradesh","Seoni",8425.71743955762,449.572687490886,68.2119018142554,6.81202053088223,97.3581087919887,37.0058693128142,79.6883185664086,22.2933984098254,128,0.523862024190807
"Madhya Pradesh","Shahdol",14065.129096641,611.989927783218,68.2119018142554,6.81202053088223,97.3581087919887,37.0058693128142,81.3504323180931,23.4409667570246,169,0.47191636467248
"Madhya Pradesh","Shajapur",6154.04725927232,439.610787261322,68.2119018142554,6.81202053088223,97.3581087919887,37.0058693128142,76.3202254086869,23.5370162726394,101,0.400160308937872
"Madhya Pradesh","Shivpuri",10560.9672434465,511.639876663865,68.2119018142554,6.81202053088223,97.3581087919887,37.0058693128142,77.7966370422885,25.3250346588296,120,0.506972950805192
"Madhya Pradesh","Sidhi",10798.0304932122,459.698492703615,68.2119018142554,6.81202053088223,97.3581087919887,37.0058693128142,82.1298607974733,24.1949789952826,91,0.642108256187666
"Madhya Pradesh","Surguja",21659.9139570688,833.015444223315,68.2119018142554,6.81202053088223,97.3581087919887,37.0058693128142,82.903958150603,23.366055577117,167,0.392247771042805
"Madhya Pradesh","Tikamgarh",5421.3359650428,414.230456453501,68.2119018142554,6.81202053088223,97.3581087919887,37.0058693128142,78.9605059454463,24.9553188625292,77,0.397038051590619
"Madhya Pradesh","Ujjain",5870.48714677936,414.860471596916,68.2119018142554,6.81202053088223,97.3581087919887,37.0058693128142,75.6556448657153,23.3017008391869,122,0.428627362767126
"Madhya Pradesh","Vidisha",7132.94902200511,407.109693926476,68.2119018142554,6.81202053088223,97.3581087919887,37.0058693128142,77.7974318975044,23.8643556480511,117,0.540824175350267
"Madhya Pradesh","West Nimar",12935.0168943677,549.404980756033,68.2119018142554,6.81202053088223,97.3581087919887,37.0058693128142,75.4726828947903,21.8372413294043,101,0.53850740507818
"Madras","Chingleput",7670.91332292947,543.104112464364,68.2119018142554,6.81202053088223,97.3581087919887,37.0058693128142,79.9290294175694,12.9065543380793,130,0.32680655342177
"Madras","Coimbatore",15519.7146092439,643.767208163701,68.2119018142554,6.81202053088223,97.3581087919887,37.0058693128142,77.2743357936501,11.1492558068263,132,0.47058263007416
"Madras","Kanyakumari",2229.9186457255,190.068904690796,68.2119018142554,6.81202053088223,97.3581087919887,37.0058693128142,77.3428086740752,8.32689909742907,28,0.775669542844468
"Madras","Madras",140.486737827007,51.3001232717331,68.2119018142554,6.81202053088223,97.3581087919887,37.0058693128142,80.255002237405,13.0953416059572,15,0.670823664475437
"Madras","Madurai",12611.6189702699,513.903206911931,68.2119018142554,6.81202053088223,97.3581087919887,37.0058693128142,77.7865237730405,10.1863574839519,94,0.600092293469675
"Madras","Nilgiri",2427.05489784706,233.636486474579,68.2119018142554,6.81202053088223,97.3581087919887,37.0058693128142,76.6368728642963,11.5277822940622,46,0.558737899512281
"Madras","North Arcot",11710.1266765921,558.884530011434,68.2119018142554,6.81202053088223,97.3581087919887,37.0058693128142,79.0828992375619,12.6245873214037,128,0.471115377664527
"Madras","Ramanathapuram",12502.5128062606,669.057806393129,68.2119018142554,6.81202053088223,97.3581087919887,37.0058693128142,78.3878741625695,9.64912500660718,153,0.350977994026773
"Madras","Salem",18587.061332396,680.905784101232,68.2119018142554,6.81202053088223,97.3581087919887,37.0058693128142,78.1456045220991,11.9674289386078,146,0.503786527510575
"Madras","South Arcot",10748.1752878727,544.648220935525,68.2119018142554,6.81202053088223,97.3581087919887,37.0058693128142,79.344109578055,11.8487048049516,132,0.455315490444627
"Madras","Thanjavur",8666.58024186979,535.98003455506,68.2119018142554,6.81202053088223,97.3581087919887,37.0058693128142,79.4068097634575,10.6547917688009,123,0.379105776314044
"Madras","Tiruchirapalli",14538.314809262,755.975836020438,68.2119018142554,6.81202053088223,97.3581087919887,37.0058693128142,78.679969234748,10.8830278730336,171,0.319674581172743
"Madras","Tirunelveli",11425.6138411015,472.407988700382,68.2119018142554,6.81202053088223,97.3581087919887,37.0058693128142,77.7206290131263,8.88074215219024,101,0.643361309164719
"Maharashtra","Ahmadnagar",16837.7592504724,904.944306442896,68.2119018142554,6.81202053088223,97.3581087919887,37.0058693128142,74.7032635281263,19.2615216577206,224,0.258374979802366
"Maharashtra","Akola",10619.2104262315,529.508205103598,68.2119018142554,6.81202053088223,97.3581087919887,37.0058693128142,77.1501691584096,20.5000843912363,118,0.475944927227289
"Maharashtra","Amravati",11821.6541029605,670.185473221566,68.2119018142554,6.81202053088223,97.3581087919887,37.0058693128142,77.591094424196,21.1845008102766,128,0.33074865900829
"Maharashtra","Aurangabad",15511.87534535,610.917383820122,68.2119018142554,6.81202053088223,97.3581087919887,37.0058693128142,75.5303927400648,20.0026076334014,153,0.522286984822653
"Maharashtra","Bhandara",9441.22769548756,443.939322106266,68.2119018142554,6.81202053088223,97.3581087919887,37.0058693128142,80.0214087004255,21.1447512520187,80,0.601992536133338
"Maharashtra","Bhir",10946.1100117856,597.989714333045,68.2119018142554,6.81202053088223,97.3581087919887,37.0058693128142,75.8637456166534,18.9772641253457,151,0.384664621104462
"Maharashtra","Buldhana",9359.25136327754,497.150698409705,68.2119018142554,6.81202053088223,97.3581087919887,37.0058693128142,76.426443192741,20.510702178896,122,0.47585525276873
"Maharashtra","Chanda",26395.931313321,919.899339272654,68.2119018142554,6.81202053088223,97.3581087919887,37.0058693128142,79.8972008708383,19.9213116485211,175,0.391982104061176
"Maharashtra","Dhulia",12430.4587431831,628.617663198312,68.2119018142554,6.81202053088223,97.3581087919887,37.0058693128142,74.4552984660885,21.3005075212569,105,0.395297311626439
"Maharashtra","Greater Bombay",367.58892497206,98.9422119842916,68.2119018142554,6.81202053088223,97.3581087919887,37.0058693128142,72.8954570497998,19.1646140247104,43,0.471855532393261
"Maharashtra","Jalgaon",10918.5134152239,537.928570507895,68.2119018142554,6.81202053088223,97.3581087919887,37.0058693128142,75.5152370954731,20.9377773853465,106,0.474159169660031
"Maharashtra","Kolaba",6498.60316947187,456.110024924746,68.2119018142554,6.81202053088223,97.3581087919887,37.0058693128142,73.2714792857115,18.5894061975407,144,0.392546081511933
"Maharashtra","Kolhapur",7771.54789773328,533.904748745385,68.2119018142554,6.81202053088223,97.3581087919887,37.0058693128142,74.1844220266492,16.5689805657231,116,0.342601945422733
"Maharashtra","Nagpur",9937.62799297706,451.417199123722,68.2119018142554,6.81202053088223,97.3581087919887,37.0058693128142,79.0846159066579,21.1678055290418,61,0.612824889630872
"Maharashtra","Nanded",10669.1291678182,690.880408995377,68.2119018142554,6.81202053088223,97.3581087919887,37.0058693128142,77.6450104615647,19.1322719585709,143,0.280887932558591
"Maharashtra","Nasik",14989.9371393876,606.002820441002,68.2119018142554,6.81202053088223,97.3581087919887,37.0058693128142,74.1145966496908,20.2964782410699,128,0.512932697718525
"Maharashtra","Osmanabad",14070.69073913,675.00269371603,68.2119018142554,6.81202053088223,97.3581087919887,37.0058693128142,76.4265736727948,18.3058587204792,150,0.388073752292928
"Maharashtra","Parbhani",12816.1953833295,489.585819418285,68.2119018142554,6.81202053088223,97.3581087919887,37.0058693128142,76.8174384830374,19.4760807870076,101,0.671910338026227
"Maharashtra","Poona",15516.8269583499,681.301704661094,68.2119018142554,6.81202053088223,97.3581087919887,37.0058693128142,74.1066937890944,18.6350838510866,152,0.420081764844352
"Maharashtra","Ratnagiri",12690.1734095042,712.237958738528,68.2119018142554,6.81202053088223,97.3581087919887,37.0058693128142,73.6039202371915,16.9209630457787,168,0.31435993431319
"Maharashtra","Sangli",9303.31090070035,665.5730010812,68.2119018142554,6.81202053088223,97.3581087919887,37.0058693128142,74.8156062548498,17.1855986171863,145,0.263910096543991
"Maharashtra","Satara",9968.99724440491,467.80559844674,68.2119018142554,6.81202053088223,97.3581087919887,37.0058693128142,74.21051711473,17.7579070396953,87,0.572440707961767
"Maharashtra","Sholapur",14582.973249404,785.768975537034,68.2119018142554,6.81202053088223,97.3581087919887,37.0058693128142,75.520152571454,17.84819195654,186,0.296801565938097
"Maharashtra","Thana",9244.22606208384,455.180140507836,68.2119018142554,6.81202053088223,97.3581087919887,37.0058693128142,73.176697345152,19.6449418137567,132,0.560678380564877
"Maharashtra","Wardha",6142.95956916228,364.03694387399,68.2119018142554,6.81202053088223,97.3581087919887,37.0058693128142,78.579753312039,20.7975255222231,53,0.582500900983084
"Maharashtra","Yeotmal",13222.0203461113,639.848475208459,68.2119018142554,6.81202053088223,97.3581087919887,37.0058693128142,78.1889746816449,20.0919998728102,131,0.40583865168886
"Manipur","Manipur",22091.6447443842,683.601180917472,68.2119018142554,6.81202053088223,97.3581087919887,37.0058693128142,93.7796210120506,24.8099473971647,150,0.594062729278004
"Mysore","Bangalore",8085.56576995061,420.00771247454,68.2119018142554,6.81202053088223,97.3581087919887,37.0058693128142,77.482886601751,12.9781093199378,93,0.575977803842582
"Mysore","Belgaum",12953.2717478951,670.40206173408,68.2119018142554,6.81202053088223,97.3581087919887,37.0058693128142,74.8447134611494,16.1828253625435,139,0.362175158010807
"Mysore","Bellary",10195.622082604,570.645120853418,68.2119018142554,6.81202053088223,97.3581087919887,37.0058693128142,76.4631118560168,15.113193054042,120,0.393451655210299
"Mysore","Bidar",5450.04245076937,340.673866095296,68.2119018142554,6.81202053088223,97.3581087919887,37.0058693128142,77.2252037431925,17.9597164027753,58,0.590108826898953
"Mysore","Bijapur",16407.1834026413,639.677825167713,68.2119018142554,6.81202053088223,97.3581087919887,37.0058693128142,75.8455480138939,16.6221960004416,164,0.503873252524933
"Mysore","Chikmagalur",7322.24716183332,417.435907010543,68.2119018142554,6.81202053088223,97.3581087919887,37.0058693128142,75.7019317667491,13.5457997100835,95,0.528049506905469
"Mysore","Chitradurga",10878.9520805197,579.254151631022,68.2119018142554,6.81202053088223,97.3581087919887,37.0058693128142,76.4386628805528,14.3034697382942,126,0.407435266364714
"Mysore","Coorg",4173.28650752754,302.812699347794,68.2119018142554,6.81202053088223,97.3581087919887,37.0058693128142,75.8087549412255,12.4249931289193,46,0.571926073458531
"Mysore","Dharwar",13546.8054758294,606.937845806613,68.2119018142554,6.81202053088223,97.3581087919887,37.0058693128142,75.4394916670781,15.2569479296901,178,0.462123784032351
"Mysore","Gulbarga",15699.2325388649,651.732644105322,68.2119018142554,6.81202053088223,97.3581087919887,37.0058693128142,76.8923613505791,17.0874098790218,139,0.464461090190009
"Mysore","Hassan",6543.74068346915,408.115437418134,68.2119018142554,6.81202053088223,97.3581087919887,37.0058693128142,76.1188298631178,13.0856743567126,78,0.493707698376837
"Mysore","Kolar",8313.80824329768,503.411934177756,68.2119018142554,6.81202053088223,97.3581087919887,37.0058693128142,78.0325956505692,13.4054035666774,107,0.412252077996955
"Mysore","Mandya",4827.65010272445,334.477675030343,68.2119018142554,6.81202053088223,97.3581087919887,37.0058693128142,76.8028617349523,12.688181384051,67,0.542264755513514
"Mysore","Mysore",12361.4319078658,558.382674492084,68.2119018142554,6.81202053088223,97.3581087919887,37.0058693128142,76.7664308716703,12.1608827940748,99,0.498212679228632
"Mysore","North Kanara",11147.8385618451,558.61542568967,68.2119018142554,6.81202053088223,97.3581087919887,37.0058693128142,74.611674767428,14.8711004646645,149,0.448925925272032
"Mysore","Raichur",13608.9984533087,661.364882225571,68.2119018142554,6.81202053088223,97.3581087919887,37.0058693128142,76.6346121426969,15.9347245224841,166,0.390979302509343
"Mysore","Shimoga",10180.6515801985,506.77131380907,68.2119018142554,6.81202053088223,97.3581087919887,37.0058693128142,75.3473171348583,14.1484977679139,116,0.498151442103278
"Mysore","South Kanara",9802.6003038613,516.255785289162,68.2119018142554,6.81202053088223,97.3581087919887,37.0058693128142,75.034333679808,13.2763743166796,111,0.46219079932365
"Mysore","Tumkur",10287.9897923829,674.988341431926,68.2119018142554,6.81202053088223,97.3581087919887,37.0058693128142,76.9472893684109,13.580783773223,162,0.28375782420332
"Naga Hills-Tuensang Area","Kohima",6052.64830903994,469.101442441885,68.2119018142554,6.81202053088223,97.3581087919887,37.0058693128142,94.01920441869,25.7168911273718,93,0.345638225754729
"Naga Hills-Tuensang Area","Mokokchung",4204.8756740347,310.585488108671,68.2119018142554,6.81202053088223,97.3581087919887,37.0058693128142,94.3499718962683,26.3109488705911,46,0.547773103608746
"Naga Hills-Tuensang Area","Tuensang",5804.19948658132,389.193357476829,68.2119018142554,6.81202053088223,97.3581087919887,37.0058693128142,94.8634724509532,26.3923289286471,70,0.48152778940384
"North-East Frontier Agency","Kameng Frontier Division",14176.5119724004,611.188028909066,68.2119018142554,6.81202053088223,97.3581087919887,37.0058693128142,92.569161163633,27.5053269187208,99,0.476902472910087
"North-East Frontier Agency","Lohit Frontier Division",22146.5349276892,891.127237711369,68.2119018142554,6.81202053088223,97.3581087919887,37.0058693128142,96.2082649478658,28.4225321830354,184,0.350458189580157
"North-East Frontier Agency","Siang Frontier Division",18783.3298785665,749.360485799591,68.2119018142554,6.81202053088223,97.3581087919887,37.0058693128142,94.7804904437289,28.503162933833,133,0.4203401474769
"North-East Frontier Agency","Subansiri Frontier Division",18051.4587473759,636.076676470575,68.2119018142554,6.81202053088223,97.3581087919887,37.0058693128142,93.6984501613067,27.9170252191817,117,0.560664714702368
"North-East Frontier Agency","Tirap Frontier Division",6824.45436371028,588.783208362902,68.2119018142554,6.81202053088223,97.3581087919887,37.0058693128142,96.0372703172428,27.2910133393221,101,0.247381356375265
"Orissa","Balasore",5930.11314512302,452.750226124005,68.2119018142554,6.81202053088223,97.3581087919887,37.0058693128142,86.7354308455939,21.3382428155447,96,0.363542753200677
"Orissa","Baudh Khondmals",11097.4744413846,537.567427809027,68.2119018142554,6.81202053088223,97.3581087919887,37.0058693128142,84.0245465911507,20.2601610806171,112,0.482578673377412
"Orissa","Bolangir",8623.32835192176,493.967142408057,68.2119018142554,6.81202053088223,97.3581087919887,37.0058693128142,83.3061383476213,20.6865243680307,121,0.44410806903056
"Orissa","Cuttack",10984.7999173784,720.415152374102,68.2119018142554,6.81202053088223,97.3581087919887,37.0058693128142,86.0440805028372,20.56687631773,173,0.265972256300136
"Orissa","Dhenkanal",11005.1762857561,567.644052803646,68.2119018142554,6.81202053088223,97.3581087919887,37.0058693128142,85.0987907788499,20.9459998356567,139,0.429195029187308
"Orissa","Ganjam",12629.6300984403,614.978409587471,68.2119018142554,6.81202053088223,97.3581087919887,37.0058693128142,84.4700983254484,19.4796398106267,132,0.419643747742892
"Orissa","Kalahandi",12084.248564066,713.253939060802,68.2119018142554,6.81202053088223,97.3581087919887,37.0058693128142,82.8996384703473,20.0579201555616,153,0.298497814855279
"Orissa","Keonjhar",7776.11070149322,479.830733447517,68.2119018142554,6.81202053088223,97.3581087919887,37.0058693128142,85.6471424301688,21.5526084846457,124,0.424420327309436
"Orissa","Koraput",25943.3171359822,1218.72720575327,68.2119018142554,6.81202053088223,97.3581087919887,37.0058693128142,82.6823207328452,18.9914725491924,233,0.219493850147138
"Orissa","Mayurbhanj",10207.8967566681,522.868970728742,68.2119018142554,6.81202053088223,97.3581087919887,37.0058693128142,86.3438641279099,21.9138300719747,91,0.469202582178738
"Orissa","Puri",9687.57229892137,574.186326042029,68.2119018142554,6.81202053088223,97.3581087919887,37.0058693128142,85.3572741489537,20.106770923281,119,0.369248831081574
"Orissa","Sambalpur",17233.7743666441,850.710104215358,68.2119018142554,6.81202053088223,97.3581087919887,37.0058693128142,83.9663462696671,21.4225082309887,222,0.299245125258763
"Orissa","Sundargarh",9085.14866619619,599.412366863841,68.2119018142554,6.81202053088223,97.3581087919887,37.0058693128142,84.4619015081772,22.0801205478688,127,0.317753618244081
"Pondicherry","Karaikal",43.9457772438941,27.8069463886267,68.2119018142554,6.81202053088223,97.3581087919887,37.0058693128142,79.7803763649622,10.9421947368695,9,0.714200935771291
"Pondicherry","Mahe",227.418990336871,61.1775257758073,68.2119018142554,6.81202053088223,97.3581087919887,37.0058693128142,75.4791867669814,11.8033452011838,15,0.763576886382462
"Pondicherry","Pondicherry",242.583787850392,69.094631104145,68.2119018142554,6.81202053088223,97.3581087919887,37.0058693128142,79.7668880470214,11.9727994764036,14,0.63853253721674
"Pondicherry","Yanam",104.772222912345,38.3804818290853,68.2119018142554,6.81202053088223,97.3581087919887,37.0058693128142,82.1836476411059,16.757302650473,12,0.893789353401587
"Punjab","Ambala",5948.50764576308,508.983821176639,68.2119018142554,6.81202053088223,97.3581087919887,37.0058693128142,76.946309485599,30.3892246397983,102,0.288542594448001
"Punjab","Amritsar",4827.82057398484,305.145841322343,68.2119018142554,6.81202053088223,97.3581087919887,37.0058693128142,74.7945608514817,31.4264878095312,53,0.651547487023823
"Punjab","Bhatinda",6959.43615639186,467.188786693457,68.2119018142554,6.81202053088223,97.3581087919887,37.0058693128142,75.0329802420591,30.05176639982,84,0.400681322229539
"Punjab","Ferozepur",10346.8286165608,598.083064286409,68.2119018142554,6.81202053088223,97.3581087919887,37.0058693128142,74.5804222496013,30.4383790218318,93,0.363491374709476
"Punjab","Gurdaspur",3567.1325386649,317.846824039668,68.2119018142554,6.81202053088223,97.3581087919887,37.0058693128142,75.3087483776748,31.9116329545704,45,0.443704013946033
"Punjab","Gurgaon",6675.53769606966,460.29060372051,68.2119018142554,6.81202053088223,97.3581087919887,37.0058693128142,76.9591811857954,28.1187262804024,101,0.39594229669772
"Punjab","Hissar",13522.7545917565,674.797030831027,68.2119018142554,6.81202053088223,97.3581087919887,37.0058693128142,75.4486305663899,29.2312004783564,154,0.373188888746458
"Punjab","Hoshiarpur",6641.82203656165,376.308322282886,68.2119018142554,6.81202053088223,97.3581087919887,37.0058693128142,76.0014852269414,31.4286223960641,62,0.589399078587633
"Punjab","Jullundur",3816.16188288064,357.881714136872,68.2119018142554,6.81202053088223,97.3581087919887,37.0058693128142,75.6239498418035,31.0706443951697,75,0.374418790268817
"Punjab","Kangra",12626.383614631,749.806404887915,68.2119018142554,6.81202053088223,97.3581087919887,37.0058693128142,76.7736588882198,31.9210756131925,116,0.282221796593123
"Punjab","Kapurthala",1669.00480939543,254.657857928543,68.2119018142554,6.81202053088223,97.3581087919887,37.0058693128142,75.3199378074395,31.252930055037,68,0.323409884173627
"Punjab","Karnal",7110.16074345414,403.551473022897,68.2119018142554,6.81202053088223,97.3581087919887,37.0058693128142,76.6723550707487,29.7006867897413,70,0.548644979483487
"Punjab","Lahaul and Spiti",13696.8351985781,683.184715661387,68.2119018142554,6.81202053088223,97.3581087919887,37.0058693128142,77.5717291988297,32.4198147748173,117,0.368768495103842
"Punjab","Ludhiana",3592.98599221378,278.135189072826,68.2119018142554,6.81202053088223,97.3581087919887,37.0058693128142,75.8112578471373,30.6889220413036,38,0.58365137279904
"Punjab","Mahendragarh",3974.24253232822,384.340242674704,68.2119018142554,6.81202053088223,97.3581087919887,37.0058693128142,76.0978495454351,28.2797110505677,99,0.338090144339959
"Punjab","Patiala",4321.88291603131,381.535479641448,68.2119018142554,6.81202053088223,97.3581087919887,37.0058693128142,76.3548822829516,30.2970712076707,74,0.373089478225954
"Punjab","Rohtak",6212.19419075347,404.009000263859,68.2119018142554,6.81202053088223,97.3581087919887,37.0058693128142,76.6880232122767,28.8447645015119,112,0.478269632952027
"Punjab","Sangrur",8042.53744815734,612.877083920575,68.2119018142554,6.81202053088223,97.3581087919887,37.0058693128142,75.9112383081977,29.8891050261362,139,0.269064368997647
"Punjab","Simla",936.357000669412,124.477872273764,68.2119018142554,6.81202053088223,97.3581087919887,37.0058693128142,76.9941412934912,30.8639376997273,25,0.759393741164206
"Rajasthan","Ajmer",8345.32466874974,561.273002272055,68.2119018142554,6.81202053088223,97.3581087919887,37.0058693128142,74.7526379925645,26.1740283299306,123,0.332893101734597
"Rajasthan","Alwar",8093.55579707542,498.728871126451,68.2119018142554,6.81202053088223,97.3581087919887,37.0058693128142,76.5894530572026,27.5067917020286,142,0.408902917385247
"Rajasthan","Banswara",5471.99614052615,325.776637202871,68.2119018142554,6.81202053088223,97.3581087919887,37.0058693128142,74.3987500674028,23.4612078248684,54,0.647911628173784
"Rajasthan","Barmer",26455.3148724334,846.519935322413,68.2119018142554,6.81202053088223,97.3581087919887,37.0058693128142,71.4978126276097,25.6694995000889,167,0.463925686146503
"Rajasthan","Bharatpur",8195.69029252319,667.085783006239,68.2119018142554,6.81202053088223,97.3581087919887,37.0058693128142,77.4181493406476,26.9834144062532,125,0.231436595679255
"Rajasthan","Bhilwara",10047.5551056646,493.244094550695,68.2119018142554,6.81202053088223,97.3581087919887,37.0058693128142,74.6983926220216,25.4331050831394,129,0.518975041372307
"Rajasthan","Bikaner",26747.4799002948,815.367321078338,68.2119018142554,6.81202053088223,97.3581087919887,37.0058693128142,73.0510435853231,28.0757193766265,161,0.505575629069351
"Rajasthan","Bundi",5809.80979635416,362.388525676588,68.2119018142554,6.81202053088223,97.3581087919887,37.0058693128142,75.7660481805616,25.4342608287389,109,0.55593357334859
"Rajasthan","Chitorgarh",11169.6294432259,810.989730983403,68.2119018142554,6.81202053088223,97.3581087919887,37.0058693128142,74.7523423876863,24.5831779773351,185,0.213411549642646
"Rajasthan","Churu",16527.0776893586,699.825355083906,68.2119018142554,6.81202053088223,97.3581087919887,37.0058693128142,74.5364170235244,28.2050692225019,178,0.424059294290689
"Rajasthan","Dungarpur",3973.47075503021,298.546938458378,68.2119018142554,6.81202053088223,97.3581087919887,37.0058693128142,73.8651691328446,23.7093328017395,66,0.560214881351315
"Rajasthan","Ganganagar",20363.3570795539,849.2158786514,68.2119018142554,6.81202053088223,97.3581087919887,37.0058693128142,73.983201698291,29.2162868527154,166,0.354832204024545
"Rajasthan","Jaipur",13556.354649634,673.604326857854,68.2119018142554,6.81202053088223,97.3581087919887,37.0058693128142,75.8493209275609,26.8961471206378,174,0.375442168506421
"Rajasthan","Jaisalmer",36154.9395503884,990.849970871512,68.2119018142554,6.81202053088223,97.3581087919887,37.0058693128142,70.9022947720415,26.959712340893,200,0.462766275535413
"Rajasthan","Jalor",10527.3907349531,559.640133688286,68.2119018142554,6.81202053088223,97.3581087919887,37.0058693128142,72.1825033779941,25.0215853369455,111,0.422389295266964
"Rajasthan","Jhalawar",6297.57057586242,502.940853228581,68.2119018142554,6.81202053088223,97.3581087919887,37.0058693128142,76.1787679465028,24.2832776829554,107,0.312859306892247
"Rajasthan","Jhunjhunu",6010.20998081663,351.648545117755,68.2119018142554,6.81202053088223,97.3581087919887,37.0058693128142,75.5179151438718,28.0174038464462,101,0.6107758538496
"Rajasthan","Jodhpur",22443.7630516643,724.701228188867,68.2119018142554,6.81202053088223,97.3581087919887,37.0058693128142,72.7593526192014,26.6586546927632,193,0.53701639443452
"Rajasthan","Kota",12082.5179322875,686.482479761502,68.2119018142554,6.81202053088223,97.3581087919887,37.0058693128142,76.4483247602221,24.9917429364106,146,0.322187284797205
"Rajasthan","Nagaur",17513.5013118202,655.18444857179,68.2119018142554,6.81202053088223,97.3581087919887,37.0058693128142,74.1517709911662,26.9907644567094,141,0.512690986514755
"Rajasthan","Pali",11953.5456646764,585.864604774752,68.2119018142554,6.81202053088223,97.3581087919887,37.0058693128142,73.5060540413194,25.660945032746,117,0.43763504026165
"Rajasthan","Sawai Madhopur",10834.6701489185,524.341080089279,68.2119018142554,6.81202053088223,97.3581087919887,37.0058693128142,76.6994349361036,26.3408657850482,116,0.495219559520413
"Rajasthan","Sikar",7733.19109266433,508.444399981719,68.2119018142554,6.81202053088223,97.3581087919887,37.0058693128142,75.2623708303909,27.5600355153726,141,0.375908087372037
"Rajasthan","Sirohi",5206.11337172969,347.923125154707,68.2119018142554,6.81202053088223,97.3581087919887,37.0058693128142,72.7773895303137,24.706972167549,67,0.540451708499022
"Rajasthan","Tonk",7513.22487812367,439.14710062645,68.2119018142554,6.81202053088223,97.3581087919887,37.0058693128142,75.6452048757429,26.0962121962304,119,0.489571595377223
"Rajasthan","Udaipur",16745.9330046847,773.996664680635,68.2119018142554,6.81202053088223,97.3581087919887,37.0058693128142,73.768769281801,24.5881918481918,150,0.351269979183306
"Rann Of Kutch","Unknown",20774.1108835909,1780.12050169007,68.2119018142554,6.81202053088223,97.3581087919887,37.0058693128142,70.2328321326067,23.7960361531833,384,0.0823822227399237
"Sikkim","Sikkim",7070.13601399779,344.439344213142,68.2119018142554,6.81202053088223,97.3581087919887,37.0058693128142,88.4325238546748,27.5663583967988,56,0.748879815756234
"Tripura","Tripura",10423.6379752216,568.172210485275,68.2119018142554,6.81202053088223,97.3581087919887,37.0058693128142,91.6090716106798,23.8474111375059,160,0.405759976437096
"Unknown","Unknown",185.409458901397,62.6036259514819,68.2119018142554,6.81202053088223,97.3581087919887,37.0058693128142,70.3716040055757,23.8384338339692,15,0.594487564726292
"Unknown","Unknown",430.602632791865,114.718783912643,68.2119018142554,6.81202053088223,97.3581087919887,37.0058693128142,69.5150569359363,23.5323151809209,25,0.411166265852061
"Unknown","Unknown",14.6902172628124,14.2712885559476,68.2119018142554,6.81202053088223,97.3581087919887,37.0058693128142,87.7855492273957,21.6291214388472,11,0.906382909848906
"Unknown","Unknown",34.6605272702569,27.6146235040541,68.2119018142554,6.81202053088223,97.3581087919887,37.0058693128142,87.8289858493372,21.5173312330648,17,0.571171824951124
"Unknown","Unknown",281.882808220464,69.2461538226383,68.2119018142554,6.81202053088223,97.3581087919887,37.0058693128142,88.0513006101674,21.6436860385904,27,0.738732389882119
"Unknown","Unknown",226.179079522781,68.0962262850176,68.2119018142554,6.81202053088223,97.3581087919887,37.0058693128142,88.2018454273584,21.5861356570542,25,0.612937518977059
"Unknown","Unknown",51.5671333002703,29.2062019307957,68.2119018142554,6.81202053088223,97.3581087919887,37.0058693128142,88.302522799844,21.6604722846298,12,0.759683485988788
"Unknown","Unknown",18.8474234404571,16.5811412808199,68.2119018142554,6.81202053088223,97.3581087919887,37.0058693128142,88.3003049704833,21.5568352643695,11,0.86145582579848
"Unknown","Unknown",147.773224526307,56.8879966666583,68.2119018142554,6.81202053088223,97.3581087919887,37.0058693128142,88.3885582724689,21.6380449704839,19,0.573805007207295
"Unknown","Unknown",70.5048072646396,33.2452529016994,68.2119018142554,6.81202053088223,97.3581087919887,37.0058693128142,88.0085069521275,21.8267605280153,15,0.801621416788902
"Unknown","Unknown",344.225838866742,89.2207526287598,68.2119018142554,6.81202053088223,97.3581087919887,37.0058693128142,88.4867234659109,21.6014339506211,26,0.543402417389959
"Unknown","Unknown",448.516433277873,95.5955373624072,68.2119018142554,6.81202053088223,97.3581087919887,37.0058693128142,88.6902885062085,21.6655077360288,26,0.616755436418299
"Unknown","Unknown",50.7013627517596,25.9799957962522,68.2119018142554,6.81202053088223,97.3581087919887,37.0058693128142,88.7944315092956,21.5147365948867,14,0.943955113776594
"Unknown","Unknown",477.478935141282,88.5224509499714,68.2119018142554,6.81202053088223,97.3581087919887,37.0058693128142,88.8702944673709,21.714974298597,23,0.765697485528077
"Unknown","Unknown",16.2108979720694,15.4494500722396,68.2119018142554,6.81202053088223,97.3581087919887,37.0058693128142,89.0212920918732,21.5335906460533,9,0.853475160736509
"Unknown","Unknown",23.8865556585001,18.7923977597741,68.2119018142554,6.81202053088223,97.3581087919887,37.0058693128142,88.6300567912239,21.9053019452146,12,0.849961007340226
"Unknown","Unknown",89.9890394212751,35.9437993306932,68.2119018142554,6.81202053088223,97.3581087919887,37.0058693128142,88.5598339924148,21.8089990408844,15,0.875289095648822
"Unknown","Unknown",6.65347626345682,11.7506656068938,68.2119018142554,6.81202053088223,97.3581087919887,37.0058693128142,86.6713482215713,20.4000184382338,12,0.605527039002919
"Uttar Pradesh","Agra",4628.46819218239,423.360688226186,68.2119018142554,6.81202053088223,97.3581087919887,37.0058693128142,78.0826180118556,26.9983424010436,66,0.324508510129764
"Uttar Pradesh","Aligarh",4981.03485529611,328.204270645593,68.2119018142554,6.81202053088223,97.3581087919887,37.0058693128142,78.0877664341073,27.8109128429142,58,0.581086771858592
"Uttar Pradesh","Allahabad",7404.9317279784,399.752237429767,68.2119018142554,6.81202053088223,97.3581087919887,37.0058693128142,81.8089199371307,25.3401559509489,67,0.582303119102061
"Uttar Pradesh","Almora",7480.11842018501,544.41207389869,68.2119018142554,6.81202053088223,97.3581087919887,37.0058693128142,79.7449825272282,29.6376728702387,134,0.317148630710789
"Uttar Pradesh","Azamgarh",6042.94223012856,398.711877496179,68.2119018142554,6.81202053088223,97.3581087919887,37.0058693128142,83.199477112035,26.0611077705143,89,0.477683191496717
"Uttar Pradesh","Bahraich",6574.67421296698,436.145773258659,68.2119018142554,6.81202053088223,97.3581087919887,37.0058693128142,81.6185150473412,27.6919244718681,61,0.434330937706461
"Uttar Pradesh","Ballia",2687.14672224734,247.228648009475,68.2119018142554,6.81202053088223,97.3581087919887,37.0058693128142,84.0623362400613,25.9001028180643,45,0.552463583946259
"Uttar Pradesh","Banda",8174.77651720779,529.317828485246,68.2119018142554,6.81202053088223,97.3581087919887,37.0058693128142,80.7577641437923,25.3294790283856,84,0.366650860377606
"Uttar Pradesh","Bara Banki",4201.43432485545,289.643543092331,68.2119018142554,6.81202053088223,97.3581087919887,37.0058693128142,81.3607715689251,26.9051645859647,48,0.629331891797622
"Uttar Pradesh","Bareilly",4165.35017275539,284.333190095345,68.2119018142554,6.81202053088223,97.3581087919887,37.0058693128142,79.4180441135035,28.4177199391105,59,0.647450046282012
"Uttar Pradesh","Basti",7571.32975472258,417.425031602267,68.2119018142554,6.81202053088223,97.3581087919887,37.0058693128142,82.7929077286468,26.9982962336967,89,0.54604074188432
"Uttar Pradesh","Bijnor",4868.65407551313,314.832351859007,68.2119018142554,6.81202053088223,97.3581087919887,37.0058693128142,78.3426223814432,29.3739304028394,63,0.617248545402049
"Uttar Pradesh","Budaun",5080.79397141258,339.202594470135,68.2119018142554,6.81202053088223,97.3581087919887,37.0058693128142,78.9026572167435,28.0696742469775,56,0.554910723659511
"Uttar Pradesh","Bulandshahr",4641.76697500329,318.671063187346,68.2119018142554,6.81202053088223,97.3581087919887,37.0058693128142,77.8676316970457,28.3245786997083,64,0.574391414348063
"Uttar Pradesh","Chamoli",9095.91179001387,432.570994797706,68.2119018142554,6.81202053088223,97.3581087919887,37.0058693128142,79.5074659770826,30.4611731773414,93,0.610859473362924
"Uttar Pradesh","Dehra Dun",3048.84081385895,308.96814883226,68.2119018142554,6.81202053088223,97.3581087919887,37.0058693128142,77.9760687040529,30.393438435146,41,0.401344385537989
"Uttar Pradesh","Deoria",5476.18868720858,383.767080209487,68.2119018142554,6.81202053088223,97.3581087919887,37.0058693128142,83.8867298754474,26.6636432447314,72,0.467253789110896
"Uttar Pradesh","Etah",4165.83310085671,334.601813269358,68.2119018142554,6.81202053088223,97.3581087919887,37.0058693128142,78.7462435400424,27.5895929123112,50,0.467579164049894
"Uttar Pradesh","Etawah",4533.7257744127,296.489873602309,68.2119018142554,6.81202053088223,97.3581087919887,37.0058693128142,79.2387495850339,26.6904536744487,54,0.648105015164289
"Uttar Pradesh","Faizabad",4382.58073738919,395.004200050229,68.2119018142554,6.81202053088223,97.3581087919887,37.0058693128142,82.3702047703214,26.5279579945522,87,0.352968835908053
"Uttar Pradesh","Farrukhabad",4398.39520376036,321.92333185062,68.2119018142554,6.81202053088223,97.3581087919887,37.0058693128142,79.5594249164487,27.2017905026463,72,0.533333919279453
"Uttar Pradesh","Fatehpur",4083.46325687374,315.636142710779,68.2119018142554,6.81202053088223,97.3581087919887,37.0058693128142,80.770875439392,25.864928775061,59,0.515068584029972
"Uttar Pradesh","Garhwal",5318.53676224101,320.143576127202,68.2119018142554,6.81202053088223,97.3581087919887,37.0058693128142,78.7569775840979,29.8284362906815,62,0.652097365672319
"Uttar Pradesh","Ghazipur",3465.5047711045,252.044560869195,68.2119018142554,6.81202053088223,97.3581087919887,37.0058693128142,83.5445204958252,25.6312088557348,38,0.685522487236288
"Uttar Pradesh","Gonda",7105.41115951772,435.216954907988,68.2119018142554,6.81202053088223,97.3581087919887,37.0058693128142,82.1676524868094,27.2700735623264,77,0.471397707117507
"Uttar Pradesh","Gorakhpur",6231.50806873177,388.040671116264,68.2119018142554,6.81202053088223,97.3581087919887,37.0058693128142,83.4254782793592,26.9211395740225,82,0.520054108441859
"Uttar Pradesh","Hamirpur",6971.02232466928,384.029339274233,68.2119018142554,6.81202053088223,97.3581087919887,37.0058693128142,79.7981365189923,25.5566161470282,63,0.593987803236888
"Uttar Pradesh","Hardoi",5817.87739798742,339.69376387584,68.2119018142554,6.81202053088223,97.3581087919887,37.0058693128142,80.1578989474287,27.3075373056648,52,0.633576821364289
"Uttar Pradesh","Jalaun",4457.40076309934,283.193533243406,68.2119018142554,6.81202053088223,97.3581087919887,37.0058693128142,79.3798098461999,26.0680021581721,44,0.698433212557365
"Uttar Pradesh","Jaunpur",4011.85532678455,312.968725002457,68.2119018142554,6.81202053088223,97.3581087919887,37.0058693128142,82.5693697219048,25.7517864915383,67,0.514698907161889
"Uttar Pradesh","Jhansi",10321.5205701789,726.794083942787,68.2119018142554,6.81202053088223,97.3581087919887,37.0058693128142,78.7498395163938,25.0474106516495,113,0.245544821523201
"Uttar Pradesh","Kanpur",6376.94240954488,353.306467056829,68.2119018142554,6.81202053088223,97.3581087919887,37.0058693128142,80.0220236763496,26.4002128359943,64,0.641976580101167
"Uttar Pradesh","Kheri",8049.51868001983,451.509663029333,68.2119018142554,6.81202053088223,97.3581087919887,37.0058693128142,80.6490513437195,28.1036150840904,76,0.496187338449596
"Uttar Pradesh","Lucknow",2608.66615963877,212.346038001363,68.2119018142554,6.81202053088223,97.3581087919887,37.0058693128142,80.8999683570794,26.8393619031331,30,0.727009429779176
"Uttar Pradesh","Mainpuri",4763.4706197131,314.16362222296,68.2119018142554,6.81202053088223,97.3581087919887,37.0058693128142,78.8249722454242,27.1607631657296,64,0.606487094278793
"Uttar Pradesh","Mathura",3744.81925887925,277.320157513992,68.2119018142554,6.81202053088223,97.3581087919887,37.0058693128142,77.6610121337661,27.5208579372509,37,0.611896331160796
"Uttar Pradesh","Meerut",5777.84261032955,321.548837471426,68.2119018142554,6.81202053088223,97.3581087919887,37.0058693128142,77.6213202210287,28.8862864205986,53,0.702233726795413
"Uttar Pradesh","Mirzapur",11860.7051535479,575.788117927725,68.2119018142554,6.81202053088223,97.3581087919887,37.0058693128142,82.8513174648962,24.6323183445849,88,0.449567571614147
"Uttar Pradesh","Moradabad",6323.45180869353,345.277536380374,68.2119018142554,6.81202053088223,97.3581087919887,37.0058693128142,78.5552739137095,28.730489164012,60,0.666541859393977
"Uttar Pradesh","Muzaffarnagar",4495.69848476717,293.399462599639,68.2119018142554,6.81202053088223,97.3581087919887,37.0058693128142,77.5413412567312,29.3974918390416,49,0.656278856091323
"Uttar Pradesh","Naini Tal",6585.09740805608,411.316409042576,68.2119018142554,6.81202053088223,97.3581087919887,37.0058693128142,79.4572180344395,29.1637170898612,90,0.489125152562646
"Uttar Pradesh","Pilibhit",3341.56622945073,293.836292827969,68.2119018142554,6.81202053088223,97.3581087919887,37.0058693128142,79.9554234625979,28.500274765563,70,0.486350162145203
"Uttar Pradesh","Pithoragarh",7239.89352007209,457.974097293251,68.2119018142554,6.81202053088223,97.3581087919887,37.0058693128142,80.3553144990028,30.0618097800851,92,0.433770699051031
"Uttar Pradesh","Pratapgarh",3828.51266073495,294.722017190845,68.2119018142554,6.81202053088223,97.3581087919887,37.0058693128142,81.8022007588056,25.8702831627446,64,0.553878859968086
"Uttar Pradesh","Rae Bareli",4720.84865432433,323.180777116544,68.2119018142554,6.81202053088223,97.3581087919887,37.0058693128142,81.2159034167083,26.2166703043392,70,0.56798765921131
"Uttar Pradesh","Rampur",2419.58305055101,225.683755504181,68.2119018142554,6.81202053088223,97.3581087919887,37.0058693128142,79.1059634343578,28.7711497217108,44,0.596966275777397
"Uttar Pradesh","Saharanpur",5127.28465257224,302.246380944284,68.2119018142554,6.81202053088223,97.3581087919887,37.0058693128142,77.6783980337846,29.8850851519805,48,0.705301933134441
"Uttar Pradesh","Shahjahanpur",4461.53374928155,381.470119175028,68.2119018142554,6.81202053088223,97.3581087919887,37.0058693128142,79.8112234362292,27.9336226992186,77,0.385276922771669
"Uttar Pradesh","Sitapur",5954.02228783067,324.272067257256,68.2119018142554,6.81202053088223,97.3581087919887,37.0058693128142,80.8679969416985,27.5044666386641,52,0.711543145923725
"Uttar Pradesh","Sultanpur",4452.85424533118,332.304019159244,68.2119018142554,6.81202053088223,97.3581087919887,37.0058693128142,82.0084754594362,26.2812165453208,78,0.506730628885858
"Uttar Pradesh","Tehri Garhwal",4848.10463073438,385.718065260667,68.2119018142554,6.81202053088223,97.3581087919887,37.0058693128142,78.5840109010775,30.3992687979705,77,0.409488668880491
"Uttar Pradesh","Unnao",4396.96745304256,319.81410170189,68.2119018142554,6.81202053088223,97.3581087919887,37.0058693128142,80.5525983631172,26.5990412475814,64,0.54021656389458
"Uttar Pradesh","Uttar Kashi",7638.05414973869,480.430951547872,68.2119018142554,6.81202053088223,97.3581087919887,37.0058693128142,78.6042467252883,30.9305242840073,84,0.415844191136999
"Uttar Pradesh","Varanasi",4838.495119864,420.518512256162,68.2119018142554,6.81202053088223,97.3581087919887,37.0058693128142,82.9860359521456,25.2741722785381,65,0.343834881327732
"West Bengal","24 - Parganas",8264.72234169013,531.457795830518,68.2119018142554,6.81202053088223,97.3581087919887,37.0058693128142,88.4950638016147,22.4281983444167,143,0.367705874111425
"West Bengal","Bankura",7054.4915335758,365.16314619473,68.2119018142554,6.81202053088223,97.3581087919887,37.0058693128142,87.0898452112354,23.1700684502574,67,0.664816363009193
"West Bengal","Birbhum",4488.54535063395,361.342219397865,68.2119018142554,6.81202053088223,97.3581087919887,37.0058693128142,87.5987767830006,23.984487833162,63,0.431994349336609
"West Bengal","Burdwan",6277.05661850457,468.927771084905,68.2119018142554,6.81202053088223,97.3581087919887,37.0058693128142,87.7327457796738,23.4465256385117,87,0.358718688377779
"West Bengal","Calcutta",268.809822098158,66.8010382650068,68.2119018142554,6.81202053088223,97.3581087919887,37.0058693128142,88.2920438283157,22.5286773371263,21,0.756987263140715
"West Bengal","Cooch Behar",2654.36919919437,338.244563398298,68.2119018142554,6.81202053088223,97.3581087919887,37.0058693128142,89.2672667611404,26.3257920957143,85,0.29154764883198
"West Bengal","Darjeeling",3734.59114052555,351.153447777075,68.2119018142554,6.81202053088223,97.3581087919887,37.0058693128142,88.3923699896622,26.9322253449921,58,0.380591472154139
"West Bengal","Hooghly",3193.49611860206,296.172043687346,68.2119018142554,6.81202053088223,97.3581087919887,37.0058693128142,87.9920189502913,22.9132292178409,69,0.457496875529048
"West Bengal","Howrah",1655.99425058742,194.981844414841,68.2119018142554,6.81202053088223,97.3581087919887,37.0058693128142,87.9986159688972,22.5403737490637,53,0.547369179558881
"West Bengal","Jalpaiguri",6580.96736674508,460.110233242301,68.2119018142554,6.81202053088223,97.3581087919887,37.0058693128142,89.0824726136366,26.6668960621752,94,0.390639195055217
"West Bengal","Malda",3521.68724657976,292.270134998771,68.2119018142554,6.81202053088223,97.3581087919887,37.0058693128142,88.0359242992285,25.1908073085668,64,0.518073965279484
"West Bengal","Midnapore",13657.5830569692,566.988616721519,68.2119018142554,6.81202053088223,97.3581087919887,37.0058693128142,87.3301026330913,22.311060095405,118,0.533869407189352
"West Bengal","Murshidabad",5152.4220221506,349.831144857018,68.2119018142554,6.81202053088223,97.3581087919887,37.0058693128142,88.1440542008061,24.1953825277764,66,0.529059295309625
"West Bengal","Nadia",3414.09426047487,349.035145549554,68.2119018142554,6.81202053088223,97.3581087919887,37.0058693128142,88.4112203077018,23.477406937726,89,0.352165697890074
"West Bengal","Purulia",6304.51375636688,418.397677143543,68.2119018142554,6.81202053088223,97.3581087919887,37.0058693128142,86.3698336805342,23.2893364025358,74,0.452567050065777
"West Bengal","West Dinajpur",4398.54582952617,479.617490948736,68.2119018142554,6.81202053088223,97.3581087919887,37.0058693128142,88.2673886358046,25.7313178963114,112,0.240286272170409
